Number,Id,Datetime,Timestamp,Runtime,Type,Depth,Temperature,Heading,Roll,Pitch
1,2,2024-08-20 16:31:04,1724196664,12,p,0.25,19.5,180,-86.7,1.1
2,3,2024-08-20 16:31:14,1724196674,22,p,0.25,19.5,176.9,-83.1,4.1
3,4,2024-08-20 16:31:24,1724196684,32,p,0.25,19.5,225.7,-129.1,78.9
4,5,2024-08-20 16:31:34,1724196694,42,p,0.83,16.2,167.3,-93.9,3.9
5,6,2024-08-20 16:31:44,1724196704,52,p,0.79,14.7,55.9,-85.8,2.9
6,7,2024-08-20 16:31:54,1724196714,62,p,3.99,14,42,-85.8,0.3
7,8,2024-08-20 16:32:04,1724196724,72,p,4.1,13.7,25.7,-70.8,-21
8,9,2024-08-20 16:32:14,1724196734,82,p,4.1,13.6,25.7,-70.8,-21
9,10,2024-08-20 16:32:24,1724196744,92,p,4.1,13.5,25.7,-70.8,-21
10,11,2024-08-20 16:32:34,1724196754,102,p,4.1,13.5,25.7,-70.8,-21
11,12,2024-08-20 16:32:44,1724196764,112,p,4.1,13.4,25.7,-70.8,-21
12,13,2024-08-20 16:32:53,1724196773,121,p,4.09,13.4,25.7,-70.8,-21
13,14,2024-08-20 16:33:03,1724196783,131,p,4.09,13.3,25.7,-70.8,-21
14,15,2024-08-20 16:33:13,1724196793,141,p,4.09,13.3,25.7,-70.8,-21
15,16,2024-08-20 16:33:23,1724196803,151,p,4.08,13.3,25.7,-70.8,-21
16,17,2024-08-20 16:33:33,1724196813,161,p,4.09,13.3,25.7,-70.8,-21
17,18,2024-08-20 16:33:43,1724196823,171,p,4.09,13.3,25.7,-70.8,-21
18,19,2024-08-20 16:33:53,1724196833,181,p,4.09,13.3,25.7,-70.8,-21
19,20,2024-08-20 16:34:03,1724196843,191,p,4.1,13.3,25.7,-70.8,-21
20,21,2024-08-20 16:34:13,1724196853,201,p,4.09,13.3,25.7,-70.8,-21
21,22,2024-08-20 16:34:23,1724196863,211,p,4.09,13.3,25.7,-70.8,-21
22,23,2024-08-20 16:34:33,1724196873,221,p,4.09,13.3,25.7,-70.8,-21
23,24,2024-08-20 16:34:43,1724196883,231,p,4.09,13.3,25.7,-70.8,-21
24,25,2024-08-20 16:34:53,1724196893,241,p,4.09,13.3,25.7,-70.8,-21
25,26,2024-08-20 16:35:03,1724196903,251,p,4.09,13.3,25.7,-70.8,-21
26,27,2024-08-20 16:35:13,1724196913,261,p,4.08,13.3,25.7,-70.8,-21
27,28,2024-08-20 16:35:23,1724196923,271,p,4.07,13.2,25.7,-70.8,-21
28,29,2024-08-20 16:35:33,1724196933,281,p,4.08,13.2,25.7,-70.8,-21
29,30,2024-08-20 16:35:43,1724196943,291,p,4.08,13.2,25.7,-70.8,-21
30,31,2024-08-20 16:35:53,1724196953,301,p,4.08,13.2,25.7,-70.8,-21
31,32,2024-08-20 16:36:03,1724196963,311,p,4.07,13.2,25.7,-70.8,-21
32,33,2024-08-20 16:36:13,1724196973,321,p,4.07,13.2,25.7,-70.8,-21
33,34,2024-08-20 16:36:23,1724196983,331,p,4.07,13.2,25.7,-70.8,-21
34,35,2024-08-20 16:36:33,1724196993,341,p,4.07,13.2,25.7,-70.8,-21
35,36,2024-08-20 16:36:42,1724197002,350,p,4.08,13.2,25.7,-70.8,-21
36,37,2024-08-20 16:36:52,1724197012,360,p,4.07,13.2,25.7,-70.8,-21
37,38,2024-08-20 16:37:02,1724197022,370,p,4.07,13.2,25.7,-70.8,-21
38,39,2024-08-20 16:37:12,1724197032,380,p,4.07,13.2,25.7,-70.8,-21
39,40,2024-08-20 16:37:22,1724197042,390,p,4.07,13.2,25.7,-70.8,-21
40,41,2024-08-20 16:37:32,1724197052,400,p,4.07,13.2,25.7,-70.8,-21
41,42,2024-08-20 16:37:42,1724197062,410,p,4.07,13.2,25.7,-70.8,-21
42,43,2024-08-20 16:37:52,1724197072,420,p,4.07,13.2,25.7,-70.8,-21
43,44,2024-08-20 16:38:02,1724197082,430,p,4.07,13.2,25.7,-70.8,-21
44,45,2024-08-20 16:38:12,1724197092,440,p,4.07,13.2,25.7,-70.8,-21
45,46,2024-08-20 16:38:22,1724197102,450,p,4.07,13.2,25.7,-70.8,-21
46,47,2024-08-20 16:38:32,1724197112,460,p,4.06,13.2,25.7,-70.8,-21
47,48,2024-08-20 16:38:42,1724197122,470,p,4.06,13.2,25.7,-70.8,-21
48,49,2024-08-20 16:38:52,1724197132,480,p,4.07,13.2,25.7,-70.8,-21
49,50,2024-08-20 16:39:02,1724197142,490,p,4.07,13.2,25.7,-70.8,-21
50,51,2024-08-20 16:39:12,1724197152,500,p,4.07,13.2,25.7,-70.8,-21
51,52,2024-08-20 16:39:22,1724197162,510,p,4.06,13.2,25.7,-70.8,-21
52,53,2024-08-20 16:39:32,1724197172,520,p,4.06,13.2,25.7,-70.8,-21
53,54,2024-08-20 16:39:42,1724197182,530,p,4.05,13.2,25.7,-70.8,-21
54,55,2024-08-20 16:39:52,1724197192,540,p,4.06,13.2,25.7,-70.8,-21
55,56,2024-08-20 16:40:02,1724197202,550,p,4.05,13.2,25.7,-70.8,-21
56,57,2024-08-20 16:40:12,1724197212,560,p,4.06,13.2,25.7,-70.8,-21
57,58,2024-08-20 16:40:22,1724197222,570,p,4.05,13.2,25.7,-70.8,-21
58,59,2024-08-20 16:40:32,1724197232,580,p,4.06,13.2,25.7,-70.8,-21
59,60,2024-08-20 16:40:41,1724197241,589,p,4.06,13.2,25.7,-70.8,-21
60,61,2024-08-20 16:40:51,1724197251,599,p,4.05,13.2,25.7,-70.8,-21
61,62,2024-08-20 16:41:01,1724197261,609,p,4.09,13.2,25.7,-70.8,-21
62,63,2024-08-20 16:41:11,1724197271,619,p,4.06,13.2,25.7,-70.8,-21
63,64,2024-08-20 16:41:21,1724197281,629,p,4.07,13.2,25.7,-70.8,-21
64,65,2024-08-20 16:41:31,1724197291,639,p,4.06,13.2,25.7,-70.8,-21
65,66,2024-08-20 16:41:41,1724197301,649,p,4.06,13.2,25.7,-70.8,-21
66,67,2024-08-20 16:41:51,1724197311,659,p,4.06,13.2,25.7,-70.8,-21
67,68,2024-08-20 16:42:01,1724197321,669,p,4.06,13.2,25.7,-70.8,-21
68,69,2024-08-20 16:42:11,1724197331,679,p,4.05,13.2,25.7,-70.8,-21
69,70,2024-08-20 16:42:21,1724197341,689,p,4.06,13.2,25.7,-70.8,-21
70,71,2024-08-20 16:42:31,1724197351,699,p,4.06,13.2,25.7,-70.8,-21
71,72,2024-08-20 16:42:41,1724197361,709,p,4.06,13.2,25.7,-70.8,-21
72,73,2024-08-20 16:42:51,1724197371,719,p,4.05,13.2,25.7,-70.8,-21
73,74,2024-08-20 16:43:01,1724197381,729,p,4.05,13.2,25.7,-70.6,-21
74,75,2024-08-20 16:43:11,1724197391,739,p,4.04,13.2,25.7,-70.6,-21
75,76,2024-08-20 16:43:21,1724197401,749,p,4.04,13.2,25.7,-70.6,-21
76,77,2024-08-20 16:43:31,1724197411,759,p,4.05,13.2,25.7,-70.6,-21
77,78,2024-08-20 16:43:41,1724197421,769,p,4.05,13.2,25.7,-70.6,-21
78,79,2024-08-20 16:43:51,1724197431,779,p,4.05,13.2,25.7,-70.6,-21
79,80,2024-08-20 16:44:01,1724197441,789,p,4.05,13.2,25.7,-70.6,-21
80,81,2024-08-20 16:44:11,1724197451,799,p,4.04,13.2,25.7,-70.6,-21
81,82,2024-08-20 16:44:20,1724197460,808,p,4.03,13.2,25.7,-70.6,-21
82,83,2024-08-20 16:44:30,1724197470,818,p,4.03,13.2,25.7,-70.6,-21
83,84,2024-08-20 16:44:40,1724197480,828,p,4.03,13.2,25.7,-70.6,-21
84,85,2024-08-20 16:44:50,1724197490,838,p,4.03,13.2,25.7,-70.6,-21
85,86,2024-08-20 16:45:00,1724197500,848,p,4.03,13.2,25.7,-70.6,-21
86,87,2024-08-20 16:45:10,1724197510,858,p,4.04,13.2,25.7,-70.6,-21
87,88,2024-08-20 16:45:20,1724197520,868,p,4.04,13.2,25.7,-70.6,-21
88,89,2024-08-20 16:45:30,1724197530,878,p,4.03,13.2,25.7,-70.6,-21
89,90,2024-08-20 16:45:40,1724197540,888,p,4.03,13.2,25.7,-70.6,-21
90,91,2024-08-20 16:45:50,1724197550,898,p,4.02,13.2,25.7,-70.6,-21
91,92,2024-08-20 16:46:00,1724197560,908,p,4.02,13.2,25.7,-70.6,-21
92,93,2024-08-20 16:46:10,1724197570,918,p,4.02,13.2,25.7,-70.6,-21
93,94,2024-08-20 16:46:20,1724197580,928,p,4.01,13.2,25.7,-70.6,-21
94,95,2024-08-20 16:46:30,1724197590,938,p,4.01,13.2,25.7,-70.6,-21
95,96,2024-08-20 16:46:40,1724197600,948,p,4.02,13.2,25.7,-70.6,-21
96,97,2024-08-20 16:46:50,1724197610,958,p,4.02,13.2,25.7,-70.6,-21
97,98,2024-08-20 16:47:00,1724197620,968,p,4.03,13.2,25.7,-70.6,-21
98,99,2024-08-20 16:47:10,1724197630,978,p,4.03,13.2,25.7,-70.6,-21
99,100,2024-08-20 16:47:20,1724197640,988,p,4.02,13.2,25.7,-70.6,-21
100,101,2024-08-20 16:47:30,1724197650,998,p,4.01,13.2,25.7,-70.6,-21
101,102,2024-08-20 16:47:40,1724197660,1008,p,4.01,13.2,25.7,-70.6,-21
102,103,2024-08-20 16:47:50,1724197670,1018,p,4,13.2,25.7,-70.6,-21
103,104,2024-08-20 16:47:59,1724197679,1027,p,3.99,13.2,25.7,-70.6,-21
104,105,2024-08-20 16:48:09,1724197689,1037,p,4,13.1,25.7,-70.6,-21
105,106,2024-08-20 16:48:19,1724197699,1047,p,4,13.1,25.7,-70.6,-21
106,107,2024-08-20 16:48:29,1724197709,1057,p,4.01,13.1,25.7,-70.6,-21
107,108,2024-08-20 16:48:39,1724197719,1067,p,4,13.1,25.7,-70.6,-21
108,109,2024-08-20 16:48:49,1724197729,1077,p,4.01,13.1,25.7,-70.6,-21
109,110,2024-08-20 16:48:59,1724197739,1087,p,4,13.2,25.7,-70.6,-21
110,111,2024-08-20 16:49:09,1724197749,1097,p,4,13.2,25.7,-70.6,-21
111,112,2024-08-20 16:49:19,1724197759,1107,p,4,13.2,25.7,-70.6,-21
112,113,2024-08-20 16:49:29,1724197769,1117,p,3.98,13.2,25.7,-70.6,-21
113,114,2024-08-20 16:49:39,1724197779,1127,p,3.98,13.2,25.7,-70.6,-21
114,115,2024-08-20 16:49:49,1724197789,1137,p,4,13.1,25.7,-70.6,-21
115,116,2024-08-20 16:49:59,1724197799,1147,p,4,13.1,25.7,-70.6,-21
116,117,2024-08-20 16:50:09,1724197809,1157,p,4,13.1,25.7,-70.6,-21
117,118,2024-08-20 16:50:19,1724197819,1167,p,3.98,13.2,25.7,-70.6,-21
118,119,2024-08-20 16:50:29,1724197829,1177,p,3.99,13.2,25.7,-70.6,-21
119,120,2024-08-20 16:50:39,1724197839,1187,p,3.99,13.2,25.7,-70.6,-21
120,121,2024-08-20 16:50:49,1724197849,1197,p,3.99,13.2,25.7,-70.6,-21
121,122,2024-08-20 16:50:59,1724197859,1207,p,3.98,13.2,25.7,-70.6,-21
122,123,2024-08-20 16:51:09,1724197869,1217,p,3.96,13.1,25.7,-70.6,-21
123,124,2024-08-20 16:51:19,1724197879,1227,p,4,13.1,25.7,-70.6,-21
124,125,2024-08-20 16:51:29,1724197889,1237,p,3.97,13.1,25.7,-70.6,-21
125,126,2024-08-20 16:51:39,1724197899,1247,p,3.97,13.1,25.7,-70.6,-21
126,127,2024-08-20 16:51:48,1724197908,1256,p,3.98,13.2,25.7,-70.6,-21
127,128,2024-08-20 16:51:58,1724197918,1266,p,3.99,13.2,25.7,-70.6,-21
128,129,2024-08-20 16:52:08,1724197928,1276,p,3.98,13.2,25.7,-70.6,-21
129,130,2024-08-20 16:52:18,1724197938,1286,p,3.99,13.2,25.7,-70.6,-21
130,131,2024-08-20 16:52:28,1724197948,1296,p,3.99,13.1,25.7,-70.6,-21
131,132,2024-08-20 16:52:38,1724197958,1306,p,3.98,13.1,25.7,-70.6,-21
132,133,2024-08-20 16:52:48,1724197968,1316,p,3.98,13.1,25.7,-70.6,-21
133,134,2024-08-20 16:52:58,1724197978,1326,p,3.97,13.1,25.7,-70.6,-21
134,135,2024-08-20 16:53:08,1724197988,1336,p,3.98,13.1,25.7,-70.6,-21
135,136,2024-08-20 16:53:18,1724197998,1346,p,3.97,13.1,25.7,-70.6,-21
136,137,2024-08-20 16:53:28,1724198008,1356,p,3.96,13.1,25.7,-70.6,-21
137,138,2024-08-20 16:53:38,1724198018,1366,p,3.95,13.1,25.7,-70.6,-21
138,139,2024-08-20 16:53:48,1724198028,1376,p,3.95,13.1,25.7,-70.6,-21
139,140,2024-08-20 16:53:58,1724198038,1386,p,3.95,13.1,25.6,-70.5,-21.1
140,141,2024-08-20 16:54:08,1724198048,1396,p,3.95,13.1,25.6,-70.5,-21.1
141,142,2024-08-20 16:54:18,1724198058,1406,p,3.95,13.1,25.6,-70.5,-21.1
142,143,2024-08-20 16:54:28,1724198068,1416,p,3.96,13.1,25.6,-70.5,-21.1
143,144,2024-08-20 16:54:38,1724198078,1426,p,3.96,13.1,25.6,-70.5,-21.1
144,145,2024-08-20 16:54:48,1724198088,1436,p,3.97,13.1,25.6,-70.5,-21.1
145,146,2024-08-20 16:54:58,1724198098,1446,p,3.95,13.1,25.6,-70.5,-21.1
146,147,2024-08-20 16:55:08,1724198108,1456,p,3.96,13.1,25.6,-70.5,-21.1
147,148,2024-08-20 16:55:18,1724198118,1466,p,3.95,13.1,25.6,-70.5,-21.1
148,149,2024-08-20 16:55:28,1724198128,1476,p,3.95,13.1,25.6,-70.5,-21.1
149,150,2024-08-20 16:55:37,1724198137,1485,p,3.94,13.1,25.6,-70.5,-21.1
150,151,2024-08-20 16:55:47,1724198147,1495,p,3.94,13.1,25.6,-70.5,-21.1
151,152,2024-08-20 16:55:57,1724198157,1505,p,3.94,13.1,25.6,-70.5,-21.1
152,153,2024-08-20 16:56:07,1724198167,1515,p,3.94,13.1,25.6,-70.5,-21.1
153,154,2024-08-20 16:56:17,1724198177,1525,p,3.95,13.1,25.6,-70.5,-21.1
154,155,2024-08-20 16:56:27,1724198187,1535,p,3.95,13.1,25.6,-70.5,-21.1
155,156,2024-08-20 16:56:37,1724198197,1545,p,3.94,13.1,25.6,-70.5,-21.1
156,157,2024-08-20 16:56:47,1724198207,1555,p,3.93,13.1,25.6,-70.5,-21.1
157,158,2024-08-20 16:56:57,1724198217,1565,p,3.93,13.1,25.6,-70.5,-21.1
158,159,2024-08-20 16:57:07,1724198227,1575,p,3.93,13.1,25.6,-70.5,-21.1
159,160,2024-08-20 16:57:17,1724198237,1585,p,3.93,13.1,25.6,-70.5,-21.1
160,161,2024-08-20 16:57:27,1724198247,1595,p,3.92,13.1,25.6,-70.5,-21.1
161,162,2024-08-20 16:57:37,1724198257,1605,p,3.93,13.1,25.6,-70.5,-21.1
162,163,2024-08-20 16:57:47,1724198267,1615,p,3.92,13.1,25.6,-70.5,-21.1
163,164,2024-08-20 16:57:57,1724198277,1625,p,3.91,13.1,25.6,-70.5,-21.1
164,165,2024-08-20 16:58:07,1724198287,1635,p,3.92,13.1,25.6,-70.5,-21.1
165,166,2024-08-20 16:58:17,1724198297,1645,p,3.93,13.1,25.6,-70.5,-21.1
166,167,2024-08-20 16:58:27,1724198307,1655,p,3.93,13.1,25.6,-70.5,-21.1
167,168,2024-08-20 16:58:37,1724198317,1665,p,3.92,13.1,25.6,-70.5,-21.1
168,169,2024-08-20 16:58:47,1724198327,1675,p,3.92,13.1,25.6,-70.5,-21.1
169,170,2024-08-20 16:58:57,1724198337,1685,p,3.92,13.1,25.6,-70.5,-21.1
170,171,2024-08-20 16:59:07,1724198347,1695,p,3.91,13.1,25.6,-70.5,-21.1
171,172,2024-08-20 16:59:17,1724198357,1705,p,3.91,13.1,25.6,-70.5,-21.1
172,173,2024-08-20 16:59:26,1724198366,1714,p,3.91,13.1,25.6,-70.5,-21.1
173,174,2024-08-20 16:59:36,1724198376,1724,p,3.9,13.1,25.6,-70.5,-21.1
174,175,2024-08-20 16:59:46,1724198386,1734,p,3.9,13.1,25.6,-70.5,-21.1
175,176,2024-08-20 16:59:56,1724198396,1744,p,3.91,13.1,25.6,-70.5,-21.1
176,177,2024-08-20 17:00:06,1724198406,1754,p,3.9,13.1,25.6,-70.5,-21.1
177,178,2024-08-20 17:00:16,1724198416,1764,p,3.9,13.1,25.6,-70.5,-21.1
178,179,2024-08-20 17:00:26,1724198426,1774,p,3.91,13.1,25.6,-70.5,-21.1
179,180,2024-08-20 17:00:36,1724198436,1784,p,3.89,13.1,25.6,-70.5,-21.1
180,181,2024-08-20 17:00:46,1724198446,1794,p,3.89,13.1,25.6,-70.5,-21.1
181,182,2024-08-20 17:00:56,1724198456,1804,p,3.89,13.1,25.6,-70.5,-21.1
182,183,2024-08-20 17:01:06,1724198466,1814,p,3.89,13.1,25.6,-70.5,-21.1
183,184,2024-08-20 17:01:16,1724198476,1824,p,3.89,13.1,25.6,-70.5,-21.1
184,185,2024-08-20 17:01:26,1724198486,1834,p,3.9,13.1,25.6,-70.5,-21.1
185,186,2024-08-20 17:01:36,1724198496,1844,p,3.89,13.1,25.6,-70.5,-21.1
186,187,2024-08-20 17:01:46,1724198506,1854,p,3.89,13.1,25.6,-70.5,-21.1
187,188,2024-08-20 17:01:56,1724198516,1864,p,3.9,13.1,25.6,-70.5,-21.1
188,189,2024-08-20 17:02:06,1724198526,1874,p,3.9,13.1,25.6,-70.5,-21.1
189,190,2024-08-20 17:02:16,1724198536,1884,p,3.9,13.1,25.6,-70.5,-21.1
190,191,2024-08-20 17:02:26,1724198546,1894,p,3.9,13.1,25.6,-70.5,-21.1
191,192,2024-08-20 17:02:36,1724198556,1904,p,3.89,13.1,25.6,-70.5,-21.1
192,193,2024-08-20 17:02:46,1724198566,1914,p,3.88,13.1,25.6,-70.5,-21.1
193,194,2024-08-20 17:02:56,1724198576,1924,p,3.88,13.1,25.6,-70.5,-21.1
194,195,2024-08-20 17:03:05,1724198585,1933,p,3.87,13.1,25.6,-70.5,-21.1
195,196,2024-08-20 17:03:15,1724198595,1943,p,3.87,13.1,25.6,-70.5,-21.1
196,197,2024-08-20 17:03:25,1724198605,1953,p,3.88,13.1,25.6,-70.5,-21.1
197,198,2024-08-20 17:03:35,1724198615,1963,p,3.88,13.1,25.6,-70.5,-21.1
198,199,2024-08-20 17:03:45,1724198625,1973,p,3.89,13.1,25.6,-70.5,-21.1
199,200,2024-08-20 17:03:55,1724198635,1983,p,3.88,13.1,25.6,-70.5,-21.1
200,201,2024-08-20 17:04:05,1724198645,1993,p,3.88,13.1,25.6,-70.5,-21.1
201,202,2024-08-20 17:04:15,1724198655,2003,p,3.88,13.1,25.6,-70.5,-21.1
202,203,2024-08-20 17:04:25,1724198665,2013,p,3.87,13.2,25.6,-70.5,-21.1
203,204,2024-08-20 17:04:35,1724198675,2023,p,3.86,13.1,25.6,-70.5,-21.1
204,205,2024-08-20 17:04:45,1724198685,2033,p,3.85,13.1,25.6,-70.5,-21.1
205,206,2024-08-20 17:04:55,1724198695,2043,p,3.85,13.1,25.6,-70.4,-21.2
206,207,2024-08-20 17:05:05,1724198705,2053,p,3.86,13.1,25.6,-70.4,-21.2
207,208,2024-08-20 17:05:15,1724198715,2063,p,3.86,13.1,25.6,-70.4,-21.2
208,209,2024-08-20 17:05:25,1724198725,2073,p,3.87,13.1,25.6,-70.4,-21.2
209,210,2024-08-20 17:05:35,1724198735,2083,p,3.86,13.1,25.6,-70.4,-21.2
210,211,2024-08-20 17:05:45,1724198745,2093,p,3.86,13.1,25.6,-70.4,-21.2
211,212,2024-08-20 17:05:55,1724198755,2103,p,3.85,13.1,25.6,-70.4,-21.2
212,213,2024-08-20 17:06:05,1724198765,2113,p,3.86,13.1,25.6,-70.4,-21.2
213,214,2024-08-20 17:06:15,1724198775,2123,p,3.85,13.1,25.6,-70.4,-21.2
214,215,2024-08-20 17:06:25,1724198785,2133,p,3.85,13.1,25.6,-70.4,-21.2
215,216,2024-08-20 17:06:35,1724198795,2143,p,3.84,13.1,25.6,-70.4,-21.2
216,217,2024-08-20 17:06:44,1724198804,2152,p,3.84,13.1,25.6,-70.4,-21.2
217,218,2024-08-20 17:06:54,1724198814,2162,p,3.84,13.1,25.6,-70.4,-21.2
218,219,2024-08-20 17:07:04,1724198824,2172,p,3.84,13.1,25.6,-70.4,-21.2
219,220,2024-08-20 17:07:14,1724198834,2182,p,3.84,13.1,25.6,-70.4,-21.2
220,221,2024-08-20 17:07:24,1724198844,2192,p,3.84,13.1,25.6,-70.4,-21.2
221,222,2024-08-20 17:07:34,1724198854,2202,p,3.85,13.1,25.6,-70.4,-21.2
222,223,2024-08-20 17:07:44,1724198864,2212,p,3.85,13.1,25.6,-70.4,-21.2
223,224,2024-08-20 17:07:54,1724198874,2222,p,3.84,13.1,25.6,-70.4,-21.2
224,225,2024-08-20 17:08:04,1724198884,2232,p,3.85,13.2,25.6,-70.4,-21.2
225,226,2024-08-20 17:08:14,1724198894,2242,p,3.85,13.2,25.6,-70.4,-21.2
226,227,2024-08-20 17:08:24,1724198904,2252,p,3.84,13.2,25.6,-70.4,-21.2
227,228,2024-08-20 17:08:34,1724198914,2262,p,3.83,13.2,25.6,-70.4,-21.2
228,229,2024-08-20 17:08:44,1724198924,2272,p,3.82,13.2,25.6,-70.4,-21.2
229,230,2024-08-20 17:08:54,1724198934,2282,p,3.82,13.1,25.6,-70.4,-21.2
230,231,2024-08-20 17:09:04,1724198944,2292,p,3.81,13.1,25.6,-70.4,-21.2
231,232,2024-08-20 17:09:14,1724198954,2302,p,3.8,13.1,25.6,-70.4,-21.2
232,233,2024-08-20 17:09:24,1724198964,2312,p,3.82,13.1,25.6,-70.4,-21.2
233,234,2024-08-20 17:09:34,1724198974,2322,p,3.82,13.1,25.6,-70.4,-21.2
234,235,2024-08-20 17:09:44,1724198984,2332,p,3.83,13.1,25.6,-70.4,-21.2
235,236,2024-08-20 17:09:54,1724198994,2342,p,3.82,13.1,25.6,-70.4,-21.2
236,237,2024-08-20 17:10:04,1724199004,2352,p,3.82,13.1,25.6,-70.4,-21.2
237,238,2024-08-20 17:10:14,1724199014,2362,p,3.82,13.1,25.6,-70.4,-21.2
238,239,2024-08-20 17:10:24,1724199024,2372,p,3.82,13.1,25.6,-70.4,-21.2
239,240,2024-08-20 17:10:33,1724199033,2381,p,3.82,13.1,25.6,-70.4,-21.2
240,241,2024-08-20 17:10:43,1724199043,2391,p,3.82,13.1,25.6,-70.4,-21.2
241,242,2024-08-20 17:10:53,1724199053,2401,p,3.82,13.2,25.6,-70.4,-21.2
242,243,2024-08-20 17:11:03,1724199063,2411,p,3.82,13.2,25.6,-70.4,-21.2
243,244,2024-08-20 17:11:13,1724199073,2421,p,3.81,13.2,25.6,-70.4,-21.2
244,245,2024-08-20 17:11:23,1724199083,2431,p,3.8,13.2,25.6,-70.4,-21.2
245,246,2024-08-20 17:11:33,1724199093,2441,p,3.8,13.2,25.6,-70.4,-21.2
246,247,2024-08-20 17:11:43,1724199103,2451,p,3.8,13.1,25.6,-70.4,-21.2
247,248,2024-08-20 17:11:53,1724199113,2461,p,3.8,13.1,25.6,-70.4,-21.2
248,249,2024-08-20 17:12:03,1724199123,2471,p,3.8,13.1,25.6,-70.4,-21.2
249,250,2024-08-20 17:12:13,1724199133,2481,p,3.8,13.2,25.6,-70.4,-21.2
250,251,2024-08-20 17:12:23,1724199143,2491,p,3.8,13.2,25.6,-70.4,-21.2
251,252,2024-08-20 17:12:33,1724199153,2501,p,3.79,13.2,25.6,-70.4,-21.2
252,253,2024-08-20 17:12:43,1724199163,2511,p,3.79,13.2,25.6,-70.4,-21.2
253,254,2024-08-20 17:12:53,1724199173,2521,p,3.78,13.2,25.6,-70.4,-21.2
254,255,2024-08-20 17:13:03,1724199183,2531,p,3.78,13.2,25.6,-70.4,-21.2
255,256,2024-08-20 17:13:13,1724199193,2541,p,3.78,13.2,25.6,-70.4,-21.2
256,257,2024-08-20 17:13:23,1724199203,2551,p,3.78,13.2,25.6,-70.4,-21.2
257,258,2024-08-20 17:13:33,1724199213,2561,p,3.78,13.2,25.6,-70.4,-21.2
258,259,2024-08-20 17:13:43,1724199223,2571,p,3.8,13.2,25.6,-70.4,-21.2
259,260,2024-08-20 17:13:53,1724199233,2581,p,3.8,13.2,25.6,-70.4,-21.2
260,261,2024-08-20 17:14:03,1724199243,2591,p,3.8,13.2,25.6,-70.4,-21.2
261,262,2024-08-20 17:14:12,1724199252,2600,p,3.8,13.2,25.6,-70.4,-21.2
262,263,2024-08-20 17:14:22,1724199262,2610,p,3.79,13.2,25.6,-70.4,-21.2
263,264,2024-08-20 17:14:32,1724199272,2620,p,3.78,13.2,25.6,-70.4,-21.2
264,265,2024-08-20 17:14:42,1724199282,2630,p,3.78,13.2,25.6,-70.4,-21.2
265,266,2024-08-20 17:14:52,1724199292,2640,p,3.78,13.2,25.6,-70.4,-21.2
266,267,2024-08-20 17:15:02,1724199302,2650,p,3.78,13.2,25.6,-70.4,-21.2
267,268,2024-08-20 17:15:12,1724199312,2660,p,3.78,13.2,25.6,-70.4,-21.2
268,269,2024-08-20 17:15:22,1724199322,2670,p,3.77,13.2,25.6,-70.4,-21.2
269,270,2024-08-20 17:15:32,1724199332,2680,p,3.77,13.2,25.6,-70.4,-21.2
270,271,2024-08-20 17:15:42,1724199342,2690,p,3.76,13.2,25.6,-70.4,-21.2
271,272,2024-08-20 17:15:52,1724199352,2700,p,3.77,13.2,25.5,-70.4,-21.3
272,273,2024-08-20 17:16:02,1724199362,2710,p,3.78,13.2,25.5,-70.4,-21.3
273,274,2024-08-20 17:16:12,1724199372,2720,p,3.78,13.2,25.5,-70.4,-21.3
274,275,2024-08-20 17:16:22,1724199382,2730,p,3.77,13.2,25.5,-70.4,-21.3
275,276,2024-08-20 17:16:32,1724199392,2740,p,3.76,13.2,25.5,-70.4,-21.3
276,277,2024-08-20 17:16:42,1724199402,2750,p,3.76,13.2,25.5,-70.4,-21.3
277,278,2024-08-20 17:16:52,1724199412,2760,p,3.75,13.2,25.5,-70.4,-21.3
278,279,2024-08-20 17:17:02,1724199422,2770,p,3.75,13.2,25.5,-70.4,-21.3
279,280,2024-08-20 17:17:12,1724199432,2780,p,3.76,13.2,25.5,-70.4,-21.3
280,281,2024-08-20 17:17:22,1724199442,2790,p,3.77,13.2,25.5,-70.4,-21.3
281,282,2024-08-20 17:17:32,1724199452,2800,p,3.77,13.2,25.5,-70.4,-21.3
282,283,2024-08-20 17:17:42,1724199462,2810,p,3.77,13.2,25.5,-70.4,-21.3
283,284,2024-08-20 17:17:52,1724199472,2820,p,3.76,13.2,25.5,-70.4,-21.3
284,285,2024-08-20 17:18:01,1724199481,2829,p,3.76,13.2,25.5,-70.4,-21.3
285,286,2024-08-20 17:18:11,1724199491,2839,p,3.75,13.2,25.5,-70.4,-21.3
286,287,2024-08-20 17:18:21,1724199501,2849,p,3.76,13.2,25.5,-70.4,-21.3
287,288,2024-08-20 17:18:31,1724199511,2859,p,3.76,13.2,25.5,-70.4,-21.3
288,289,2024-08-20 17:18:41,1724199521,2869,p,3.75,13.2,25.5,-70.4,-21.3
289,290,2024-08-20 17:18:51,1724199531,2879,p,3.74,13.2,25.5,-70.4,-21.3
290,291,2024-08-20 17:19:01,1724199541,2889,p,3.74,13.2,25.5,-70.4,-21.3
291,292,2024-08-20 17:19:11,1724199551,2899,p,3.74,13.2,25.5,-70.4,-21.3
292,293,2024-08-20 17:19:21,1724199561,2909,p,3.74,13.2,25.5,-70.4,-21.3
293,294,2024-08-20 17:19:31,1724199571,2919,p,3.75,13.2,25.5,-70.4,-21.3
294,295,2024-08-20 17:19:41,1724199581,2929,p,3.74,13.2,25.5,-70.4,-21.3
295,296,2024-08-20 17:19:51,1724199591,2939,p,3.75,13.2,25.5,-70.4,-21.3
296,297,2024-08-20 17:20:01,1724199601,2949,p,3.75,13.2,25.5,-70.4,-21.3
297,298,2024-08-20 17:20:11,1724199611,2959,p,3.74,13.2,25.5,-70.4,-21.3
298,299,2024-08-20 17:20:21,1724199621,2969,p,3.74,13.2,25.5,-70.4,-21.3
299,300,2024-08-20 17:20:31,1724199631,2979,p,3.74,13.2,25.5,-70.4,-21.3
300,301,2024-08-20 17:20:41,1724199641,2989,p,3.74,13.2,25.5,-70.4,-21.3
301,302,2024-08-20 17:20:51,1724199651,2999,p,3.73,13.2,25.5,-70.4,-21.3
302,303,2024-08-20 17:21:01,1724199661,3009,p,3.73,13.2,25.5,-70.4,-21.3
303,304,2024-08-20 17:21:11,1724199671,3019,p,3.73,13.2,25.5,-70.4,-21.3
304,305,2024-08-20 17:21:21,1724199681,3029,p,3.73,13.2,25.5,-70.4,-21.3
305,306,2024-08-20 17:21:31,1724199691,3039,p,3.73,13.2,25.5,-70.4,-21.3
306,307,2024-08-20 17:21:40,1724199700,3048,p,3.73,13.2,25.5,-70.4,-21.3
307,308,2024-08-20 17:21:50,1724199710,3058,p,3.73,13.2,25.5,-70.4,-21.3
308,309,2024-08-20 17:22:00,1724199720,3068,p,3.73,13.2,25.5,-70.4,-21.3
309,310,2024-08-20 17:22:10,1724199730,3078,p,3.72,13.2,25.5,-70.4,-21.3
310,311,2024-08-20 17:22:20,1724199740,3088,p,3.71,13.2,25.5,-70.4,-21.3
311,312,2024-08-20 17:22:30,1724199750,3098,p,3.72,13.2,25.5,-70.4,-21.3
312,313,2024-08-20 17:22:40,1724199760,3108,p,3.73,13.2,25.5,-70.4,-21.3
313,314,2024-08-20 17:22:50,1724199770,3118,p,3.72,13.2,25.5,-70.4,-21.3
314,315,2024-08-20 17:23:00,1724199780,3128,p,3.72,13.2,25.5,-70.4,-21.3
315,316,2024-08-20 17:23:10,1724199790,3138,p,3.72,13.2,25.5,-70.4,-21.3
316,317,2024-08-20 17:23:20,1724199800,3148,p,3.72,13.2,25.5,-70.4,-21.3
317,318,2024-08-20 17:23:30,1724199810,3158,p,3.71,13.2,25.5,-70.4,-21.3
318,319,2024-08-20 17:23:40,1724199820,3168,p,3.71,13.2,25.5,-70.4,-21.3
319,320,2024-08-20 17:23:50,1724199830,3178,p,3.71,13.2,25.5,-70.4,-21.3
320,321,2024-08-20 17:24:00,1724199840,3188,p,3.7,13.2,25.5,-70.4,-21.3
321,322,2024-08-20 17:24:10,1724199850,3198,p,3.71,13.2,25.5,-70.4,-21.3
322,323,2024-08-20 17:24:20,1724199860,3208,p,3.7,13.3,25.5,-70.4,-21.3
323,324,2024-08-20 17:24:30,1724199870,3218,p,3.71,13.3,25.5,-70.4,-21.3
324,325,2024-08-20 17:24:40,1724199880,3228,p,3.71,13.2,25.5,-70.4,-21.3
325,326,2024-08-20 17:24:50,1724199890,3238,p,3.71,13.2,25.5,-70.4,-21.3
326,327,2024-08-20 17:25:00,1724199900,3248,p,3.71,13.2,25.5,-70.4,-21.3
327,328,2024-08-20 17:25:10,1724199910,3258,p,3.71,13.2,25.5,-70.4,-21.3
328,329,2024-08-20 17:25:19,1724199919,3267,p,3.71,13.2,25.5,-70.4,-21.3
329,330,2024-08-20 17:25:29,1724199929,3277,p,3.7,13.2,25.5,-70.4,-21.3
330,331,2024-08-20 17:25:39,1724199939,3287,p,3.7,13.2,25.5,-70.4,-21.3
331,332,2024-08-20 17:25:49,1724199949,3297,p,3.69,13.2,25.5,-70.4,-21.3
332,333,2024-08-20 17:25:59,1724199959,3307,p,3.68,13.2,25.5,-70.4,-21.3
333,334,2024-08-20 17:26:09,1724199969,3317,p,3.68,13.2,25.5,-70.4,-21.3
334,335,2024-08-20 17:26:19,1724199979,3327,p,3.67,13.2,25.5,-70.4,-21.3
335,336,2024-08-20 17:26:29,1724199989,3337,p,3.68,13.2,25.5,-70.4,-21.3
336,337,2024-08-20 17:26:39,1724199999,3347,p,3.68,13.2,25.5,-70.2,-21.4
337,338,2024-08-20 17:26:49,1724200009,3357,p,3.68,13.2,25.5,-70.2,-21.4
338,339,2024-08-20 17:26:59,1724200019,3367,p,3.69,13.2,25.5,-70.2,-21.4
339,340,2024-08-20 17:27:09,1724200029,3377,p,3.69,13.3,25.5,-70.2,-21.4
340,341,2024-08-20 17:27:19,1724200039,3387,p,3.68,13.3,25.5,-70.2,-21.4
341,342,2024-08-20 17:27:29,1724200049,3397,p,3.68,13.3,25.5,-70.2,-21.4
342,343,2024-08-20 17:27:39,1724200059,3407,p,3.68,13.3,25.5,-70.2,-21.4
343,344,2024-08-20 17:27:49,1724200069,3417,p,3.68,13.3,25.5,-70.2,-21.4
344,345,2024-08-20 17:27:59,1724200079,3427,p,3.68,13.3,25.5,-70.2,-21.4
345,346,2024-08-20 17:28:09,1724200089,3437,p,3.68,13.3,25.5,-70.2,-21.4
346,347,2024-08-20 17:28:19,1724200099,3447,p,3.67,13.3,25.5,-70.2,-21.4
347,348,2024-08-20 17:28:29,1724200109,3457,p,3.67,13.3,25.5,-70.2,-21.4
348,349,2024-08-20 17:28:39,1724200119,3467,p,3.67,13.3,25.5,-70.2,-21.4
349,350,2024-08-20 17:28:49,1724200129,3477,p,3.66,13.3,25.5,-70.2,-21.4
350,351,2024-08-20 17:28:58,1724200138,3486,p,3.66,13.3,25.5,-70.2,-21.4
351,352,2024-08-20 17:29:08,1724200148,3496,p,3.66,13.3,25.5,-70.2,-21.4
352,353,2024-08-20 17:29:18,1724200158,3506,p,3.66,13.3,25.5,-70.2,-21.4
353,354,2024-08-20 17:29:28,1724200168,3516,p,3.66,13.3,25.5,-70.2,-21.4
354,355,2024-08-20 17:29:38,1724200178,3526,p,3.66,13.3,25.5,-70.2,-21.4
355,356,2024-08-20 17:29:48,1724200188,3536,p,3.66,13.3,25.5,-70.2,-21.4
356,357,2024-08-20 17:29:58,1724200198,3546,p,3.65,13.3,25.5,-70.2,-21.4
357,358,2024-08-20 17:30:08,1724200208,3556,p,3.65,13.3,25.5,-70.2,-21.4
358,359,2024-08-20 17:30:18,1724200218,3566,p,3.66,13.3,25.5,-70.2,-21.4
359,360,2024-08-20 17:30:28,1724200228,3576,p,3.67,13.3,25.5,-70.2,-21.4
360,361,2024-08-20 17:30:38,1724200238,3586,p,3.66,13.3,25.5,-70.2,-21.4
361,362,2024-08-20 17:30:48,1724200248,3596,p,3.66,13.3,25.5,-70.2,-21.4
362,363,2024-08-20 17:30:58,1724200258,3606,p,3.65,13.3,25.5,-70.2,-21.4
363,364,2024-08-20 17:31:08,1724200268,3616,p,3.65,13.3,25.5,-70.2,-21.4
364,365,2024-08-20 17:31:18,1724200278,3626,p,3.65,13.3,25.5,-70.2,-21.4
365,366,2024-08-20 17:31:28,1724200288,3636,p,3.64,13.3,25.5,-70.2,-21.4
366,367,2024-08-20 17:31:38,1724200298,3646,p,3.64,13.3,25.5,-70.2,-21.4
367,368,2024-08-20 17:31:48,1724200308,3656,p,3.64,13.3,25.5,-70.2,-21.4
368,369,2024-08-20 17:31:58,1724200318,3666,p,3.65,13.3,25.5,-70.2,-21.4
369,370,2024-08-20 17:32:08,1724200328,3676,p,3.65,13.3,25.5,-70.2,-21.4
370,371,2024-08-20 17:32:18,1724200338,3686,p,3.65,13.3,25.5,-70.2,-21.4
371,372,2024-08-20 17:32:28,1724200348,3696,p,3.65,13.3,25.5,-70.2,-21.4
372,373,2024-08-20 17:32:38,1724200358,3706,p,3.65,13.3,25.5,-70.2,-21.4
373,374,2024-08-20 17:32:47,1724200367,3715,p,3.65,13.3,25.5,-70.2,-21.4
374,375,2024-08-20 17:32:57,1724200377,3725,p,3.64,13.3,25.5,-70.2,-21.4
375,376,2024-08-20 17:33:07,1724200387,3735,p,3.64,13.3,25.5,-70.2,-21.4
376,377,2024-08-20 17:33:17,1724200397,3745,p,3.63,13.3,25.5,-70.2,-21.4
377,378,2024-08-20 17:33:27,1724200407,3755,p,3.63,13.3,25.5,-70.2,-21.4
378,379,2024-08-20 17:33:37,1724200417,3765,p,3.63,13.3,25.5,-70.2,-21.4
379,380,2024-08-20 17:33:47,1724200427,3775,p,3.63,13.3,25.5,-70.2,-21.4
380,381,2024-08-20 17:33:57,1724200437,3785,p,3.62,13.3,25.5,-70.2,-21.4
381,382,2024-08-20 17:34:07,1724200447,3795,p,3.61,13.3,25.5,-70.2,-21.4
382,383,2024-08-20 17:34:17,1724200457,3805,p,3.62,13.3,25.5,-70.2,-21.4
383,384,2024-08-20 17:34:27,1724200467,3815,p,3.63,13.3,25.5,-70.2,-21.4
384,385,2024-08-20 17:34:37,1724200477,3825,p,3.63,13.3,25.5,-70.2,-21.4
385,386,2024-08-20 17:34:47,1724200487,3835,p,3.63,13.3,25.5,-70.2,-21.4
386,387,2024-08-20 17:34:57,1724200497,3845,p,3.64,13.3,25.5,-70.2,-21.4
387,388,2024-08-20 17:35:07,1724200507,3855,p,3.64,13.3,25.5,-70.2,-21.4
388,389,2024-08-20 17:35:17,1724200517,3865,p,3.63,13.3,25.5,-70.2,-21.4
389,390,2024-08-20 17:35:27,1724200527,3875,p,3.62,13.3,25.5,-70.2,-21.4
390,391,2024-08-20 17:35:37,1724200537,3885,p,3.62,13.3,25.5,-70.2,-21.4
391,392,2024-08-20 17:35:47,1724200547,3895,p,3.62,13.3,25.5,-70.2,-21.4
392,393,2024-08-20 17:35:57,1724200557,3905,p,3.61,13.3,25.5,-70.2,-21.4
393,394,2024-08-20 17:36:07,1724200567,3915,p,3.61,13.3,25.5,-70.2,-21.4
394,395,2024-08-20 17:36:17,1724200577,3925,p,3.61,13.3,25.5,-70.2,-21.4
395,396,2024-08-20 17:36:26,1724200586,3934,p,3.6,13.3,25.5,-70.2,-21.4
396,397,2024-08-20 17:36:36,1724200596,3944,p,3.6,13.3,25.5,-70.2,-21.4
397,398,2024-08-20 17:36:46,1724200606,3954,p,3.6,13.3,25.5,-70.2,-21.4
398,399,2024-08-20 17:36:56,1724200616,3964,p,3.6,13.3,25.5,-70.2,-21.4
399,400,2024-08-20 17:37:06,1724200626,3974,p,3.61,13.3,25.5,-70.2,-21.4
400,401,2024-08-20 17:37:16,1724200636,3984,p,3.62,13.3,25.5,-70.2,-21.4
401,402,2024-08-20 17:37:26,1724200646,3994,p,3.62,13.3,25.5,-70.2,-21.4
402,403,2024-08-20 17:37:36,1724200656,4004,p,3.62,13.3,25.4,-70.2,-21.5
403,404,2024-08-20 17:37:46,1724200666,4014,p,3.61,13.3,25.4,-70.2,-21.5
404,405,2024-08-20 17:37:56,1724200676,4024,p,3.61,13.3,25.4,-70.2,-21.5
405,406,2024-08-20 17:38:06,1724200686,4034,p,3.61,13.3,25.4,-70.2,-21.5
406,407,2024-08-20 17:38:16,1724200696,4044,p,3.61,13.3,25.4,-70.2,-21.5
407,408,2024-08-20 17:38:26,1724200706,4054,p,3.6,13.3,25.4,-70.2,-21.5
408,409,2024-08-20 17:38:36,1724200716,4064,p,3.6,13.3,25.4,-70.2,-21.5
409,410,2024-08-20 17:38:46,1724200726,4074,p,3.6,13.3,25.4,-70.2,-21.5
410,411,2024-08-20 17:38:56,1724200736,4084,p,3.6,13.3,25.4,-70.2,-21.5
411,412,2024-08-20 17:39:06,1724200746,4094,p,3.6,13.3,25.4,-70.2,-21.5
412,413,2024-08-20 17:39:16,1724200756,4104,p,3.59,13.3,25.4,-70.2,-21.5
413,414,2024-08-20 17:39:26,1724200766,4114,p,3.6,13.3,25.4,-70.2,-21.5
414,415,2024-08-20 17:39:36,1724200776,4124,p,3.6,13.3,25.4,-70.2,-21.5
415,416,2024-08-20 17:39:46,1724200786,4134,p,3.6,13.3,25.4,-70.2,-21.5
416,417,2024-08-20 17:39:56,1724200796,4144,p,3.6,13.3,25.4,-70.2,-21.5
417,418,2024-08-20 17:40:05,1724200805,4153,p,3.59,13.3,25.4,-70.2,-21.5
418,419,2024-08-20 17:40:15,1724200815,4163,p,3.59,13.3,25.4,-70.2,-21.5
419,420,2024-08-20 17:40:25,1724200825,4173,p,3.59,13.3,25.4,-70.2,-21.5
420,421,2024-08-20 17:40:35,1724200835,4183,p,3.58,13.3,25.4,-70.2,-21.5
421,422,2024-08-20 17:40:45,1724200845,4193,p,3.58,13.3,25.4,-70.2,-21.5
422,423,2024-08-20 17:40:55,1724200855,4203,p,3.59,13.3,25.4,-70.2,-21.5
423,424,2024-08-20 17:41:05,1724200865,4213,p,3.59,13.3,25.4,-70.2,-21.5
424,425,2024-08-20 17:41:15,1724200875,4223,p,3.59,13.3,25.4,-70.2,-21.5
425,426,2024-08-20 17:41:25,1724200885,4233,p,3.59,13.3,25.4,-70.2,-21.5
426,427,2024-08-20 17:41:35,1724200895,4243,p,3.58,13.3,25.4,-70.2,-21.5
427,428,2024-08-20 17:41:45,1724200905,4253,p,3.59,13.3,25.4,-70.2,-21.5
428,429,2024-08-20 17:41:55,1724200915,4263,p,3.58,13.3,25.4,-70.2,-21.5
429,430,2024-08-20 17:42:05,1724200925,4273,p,3.57,13.3,25.4,-70.2,-21.5
430,431,2024-08-20 17:42:15,1724200935,4283,p,3.57,13.3,25.4,-70.2,-21.5
431,432,2024-08-20 17:42:25,1724200945,4293,p,3.56,13.3,25.4,-70.2,-21.5
432,433,2024-08-20 17:42:35,1724200955,4303,p,3.56,13.3,25.4,-70.2,-21.5
433,434,2024-08-20 17:42:45,1724200965,4313,p,3.57,13.3,25.4,-70.2,-21.5
434,435,2024-08-20 17:42:55,1724200975,4323,p,3.57,13.3,25.4,-70.2,-21.5
435,436,2024-08-20 17:43:05,1724200985,4333,p,3.57,13.3,25.4,-70.2,-21.5
436,437,2024-08-20 17:43:15,1724200995,4343,p,3.57,13.3,25.4,-70.2,-21.5
437,438,2024-08-20 17:43:25,1724201005,4353,p,3.56,13.3,25.4,-70.2,-21.5
438,439,2024-08-20 17:43:35,1724201015,4363,p,3.57,13.3,25.4,-70.2,-21.5
439,440,2024-08-20 17:43:45,1724201025,4373,p,3.57,13.3,25.4,-70.2,-21.5
440,441,2024-08-20 17:43:54,1724201034,4382,p,3.57,13.3,25.4,-70.2,-21.5
441,442,2024-08-20 17:44:04,1724201044,4392,p,3.57,13.3,25.4,-70.2,-21.5
442,443,2024-08-20 17:44:14,1724201054,4402,p,3.56,13.3,25.4,-70.2,-21.5
443,444,2024-08-20 17:44:24,1724201064,4412,p,3.56,13.3,25.4,-70.2,-21.5
444,445,2024-08-20 17:44:34,1724201074,4422,p,3.56,13.3,25.4,-70.2,-21.5
445,446,2024-08-20 17:44:44,1724201084,4432,p,3.55,13.3,25.4,-70.2,-21.5
446,447,2024-08-20 17:44:54,1724201094,4442,p,3.56,13.3,25.4,-70.2,-21.5
447,448,2024-08-20 17:45:04,1724201104,4452,p,3.56,13.3,25.4,-70.2,-21.5
448,449,2024-08-20 17:45:14,1724201114,4462,p,3.56,13.3,25.4,-70.2,-21.5
449,450,2024-08-20 17:45:24,1724201124,4472,p,3.56,13.3,25.4,-70.2,-21.5
450,451,2024-08-20 17:45:34,1724201134,4482,p,3.56,13.3,25.4,-70.2,-21.5
451,452,2024-08-20 17:45:44,1724201144,4492,p,3.57,13.3,25.4,-70.2,-21.5
452,453,2024-08-20 17:45:54,1724201154,4502,p,3.57,13.3,25.4,-70.2,-21.5
453,454,2024-08-20 17:46:04,1724201164,4512,p,3.56,13.3,25.4,-70.2,-21.5
454,455,2024-08-20 17:46:14,1724201174,4522,p,3.55,13.3,25.4,-70.2,-21.5
455,456,2024-08-20 17:46:24,1724201184,4532,p,3.55,13.3,25.4,-70.2,-21.5
456,457,2024-08-20 17:46:34,1724201194,4542,p,3.55,13.3,25.4,-70.2,-21.5
457,458,2024-08-20 17:46:44,1724201204,4552,p,3.56,13.3,25.4,-70.2,-21.5
458,459,2024-08-20 17:46:54,1724201214,4562,p,3.56,13.3,25.4,-70.2,-21.5
459,460,2024-08-20 17:47:04,1724201224,4572,p,3.56,13.3,25.4,-70.2,-21.5
460,461,2024-08-20 17:47:14,1724201234,4582,p,3.56,13.3,25.4,-70.2,-21.5
461,462,2024-08-20 17:47:23,1724201243,4591,p,3.56,13.3,25.4,-70.2,-21.5
462,463,2024-08-20 17:47:33,1724201253,4601,p,3.55,13.3,25.4,-70.2,-21.5
463,464,2024-08-20 17:47:43,1724201263,4611,p,3.55,13.3,25.4,-70.2,-21.5
464,465,2024-08-20 17:47:53,1724201273,4621,p,3.55,13.3,25.4,-70.2,-21.5
465,466,2024-08-20 17:48:03,1724201283,4631,p,3.54,13.3,25.4,-70.2,-21.5
466,467,2024-08-20 17:48:13,1724201293,4641,p,3.54,13.3,25.4,-70.2,-21.5
467,468,2024-08-20 17:48:23,1724201303,4651,p,3.54,13.3,25.4,-70.2,-21.5
468,469,2024-08-20 17:48:33,1724201313,4661,p,3.54,13.3,25.4,-70.2,-21.6
469,470,2024-08-20 17:48:43,1724201323,4671,p,3.54,13.3,25.4,-70.2,-21.6
470,471,2024-08-20 17:48:53,1724201333,4681,p,3.53,13.3,25.4,-70.2,-21.6
471,472,2024-08-20 17:49:03,1724201343,4691,p,3.54,13.3,25.4,-70.2,-21.6
472,473,2024-08-20 17:49:13,1724201353,4701,p,3.54,13.3,25.4,-70.2,-21.6
473,474,2024-08-20 17:49:23,1724201363,4711,p,3.54,13.3,25.4,-70.2,-21.6
474,475,2024-08-20 17:49:33,1724201373,4721,p,3.54,13.3,25.4,-70.2,-21.6
475,476,2024-08-20 17:49:43,1724201383,4731,p,3.54,13.3,25.4,-70.2,-21.6
476,477,2024-08-20 17:49:53,1724201393,4741,p,3.53,13.3,25.4,-70.2,-21.6
477,478,2024-08-20 17:50:03,1724201403,4751,p,3.53,13.3,25.4,-70.2,-21.6
478,479,2024-08-20 17:50:13,1724201413,4761,p,3.53,13.3,25.4,-70.2,-21.6
479,480,2024-08-20 17:50:23,1724201423,4771,p,3.52,13.3,25.4,-70.2,-21.6
480,481,2024-08-20 17:50:33,1724201433,4781,p,3.52,13.3,25.4,-70.2,-21.6
481,482,2024-08-20 17:50:43,1724201443,4791,p,3.52,13.3,25.4,-70.2,-21.6
482,483,2024-08-20 17:50:53,1724201453,4801,p,3.52,13.3,25.4,-70.2,-21.6
483,484,2024-08-20 17:51:03,1724201463,4811,p,3.52,13.3,25.4,-70.2,-21.6
484,485,2024-08-20 17:51:12,1724201472,4820,p,3.52,13.3,25.4,-70.2,-21.6
485,486,2024-08-20 17:51:22,1724201482,4830,p,3.53,13.3,25.4,-70.2,-21.6
486,487,2024-08-20 17:51:32,1724201492,4840,p,3.53,13.3,25.4,-70.2,-21.6
487,488,2024-08-20 17:51:42,1724201502,4850,p,3.53,13.3,25.4,-70.2,-21.6
488,489,2024-08-20 17:51:52,1724201512,4860,p,3.53,13.3,25.4,-70.2,-21.6
489,490,2024-08-20 17:52:02,1724201522,4870,p,3.52,13.3,25.4,-70.2,-21.6
490,491,2024-08-20 17:52:12,1724201532,4880,p,3.52,13.3,25.4,-70.2,-21.6
491,492,2024-08-20 17:52:22,1724201542,4890,p,3.52,13.3,25.4,-70.2,-21.6
492,493,2024-08-20 17:52:32,1724201552,4900,p,3.51,13.3,25.4,-70.2,-21.6
493,494,2024-08-20 17:52:42,1724201562,4910,p,3.51,13.3,25.4,-70.2,-21.6
494,495,2024-08-20 17:52:52,1724201572,4920,p,3.5,13.3,25.4,-70.2,-21.6
495,496,2024-08-20 17:53:02,1724201582,4930,p,3.5,13.3,25.4,-70.2,-21.6
496,497,2024-08-20 17:53:12,1724201592,4940,p,3.5,13.3,25.4,-70.2,-21.6
497,498,2024-08-20 17:53:22,1724201602,4950,p,3.51,13.3,25.4,-70.2,-21.6
498,499,2024-08-20 17:53:32,1724201612,4960,p,3.51,13.3,25.4,-70.2,-21.6
499,500,2024-08-20 17:53:42,1724201622,4970,p,3.51,13.3,25.4,-70.2,-21.6
500,501,2024-08-20 17:53:52,1724201632,4980,p,3.51,13.3,25.4,-70.2,-21.6
501,502,2024-08-20 17:54:02,1724201642,4990,p,3.52,13.3,25.4,-70.2,-21.6
502,503,2024-08-20 17:54:12,1724201652,5000,p,3.52,13.3,25.4,-70.2,-21.6
503,504,2024-08-20 17:54:22,1724201662,5010,p,3.51,13.3,25.4,-70.2,-21.6
504,505,2024-08-20 17:54:32,1724201672,5020,p,3.5,13.3,25.4,-70.2,-21.6
505,506,2024-08-20 17:54:42,1724201682,5030,p,3.5,13.3,25.4,-70.2,-21.6
506,507,2024-08-20 17:54:51,1724201691,5039,p,3.49,13.3,25.4,-70.2,-21.6
507,508,2024-08-20 17:55:01,1724201701,5049,p,3.5,13.3,25.4,-70.2,-21.6
508,509,2024-08-20 17:55:11,1724201711,5059,p,3.5,13.3,25.4,-70.2,-21.6
509,510,2024-08-20 17:55:21,1724201721,5069,p,3.51,13.3,25.4,-70.2,-21.6
510,511,2024-08-20 17:55:31,1724201731,5079,p,3.51,13.3,25.4,-70.2,-21.6
511,512,2024-08-20 17:55:41,1724201741,5089,p,3.51,13.3,25.4,-70.2,-21.6
512,513,2024-08-20 17:55:51,1724201751,5099,p,3.51,13.3,25.4,-70.2,-21.6
513,514,2024-08-20 17:56:01,1724201761,5109,p,3.5,13.3,25.4,-70.2,-21.6
514,515,2024-08-20 17:56:11,1724201771,5119,p,3.5,13.3,25.4,-70.2,-21.6
515,516,2024-08-20 17:56:21,1724201781,5129,p,3.5,13.3,25.4,-70.2,-21.6
516,517,2024-08-20 17:56:31,1724201791,5139,p,3.49,13.3,25.4,-70.2,-21.6
517,518,2024-08-20 17:56:41,1724201801,5149,p,3.49,13.3,25.4,-70.2,-21.6
518,519,2024-08-20 17:56:51,1724201811,5159,p,3.5,13.3,25.4,-70.2,-21.6
519,520,2024-08-20 17:57:01,1724201821,5169,p,3.49,13.3,25.4,-70.2,-21.6
520,521,2024-08-20 17:57:11,1724201831,5179,p,3.5,13.3,25.4,-70.2,-21.6
521,522,2024-08-20 17:57:21,1724201841,5189,p,3.5,13.3,25.4,-70.2,-21.6
522,523,2024-08-20 17:57:31,1724201851,5199,p,3.5,13.3,25.4,-70.2,-21.6
523,524,2024-08-20 17:57:41,1724201861,5209,p,3.5,13.3,25.4,-70.2,-21.6
524,525,2024-08-20 17:57:51,1724201871,5219,p,3.5,13.3,25.4,-70.2,-21.6
525,526,2024-08-20 17:58:01,1724201881,5229,p,3.5,13.3,25.4,-70.2,-21.6
526,527,2024-08-20 17:58:11,1724201891,5239,p,3.49,13.3,25.4,-70.2,-21.6
527,528,2024-08-20 17:58:21,1724201901,5249,p,3.49,13.3,25.4,-70.2,-21.6
528,529,2024-08-20 17:58:30,1724201910,5258,p,3.49,13.3,25.4,-70.2,-21.6
529,530,2024-08-20 17:58:40,1724201920,5268,p,3.49,13.3,25.4,-70.2,-21.6
530,531,2024-08-20 17:58:50,1724201930,5278,p,3.49,13.3,25.4,-70.2,-21.6
531,532,2024-08-20 17:59:00,1724201940,5288,p,3.49,13.3,25.4,-70.2,-21.6
532,533,2024-08-20 17:59:10,1724201950,5298,p,3.49,13.3,25.4,-70.2,-21.6
533,534,2024-08-20 17:59:20,1724201960,5308,p,3.49,13.3,25.4,-70.2,-21.6
534,535,2024-08-20 17:59:30,1724201970,5318,p,3.48,13.3,25.4,-70.1,-21.6
535,536,2024-08-20 17:59:40,1724201980,5328,p,3.48,13.3,25.4,-70.1,-21.6
536,537,2024-08-20 17:59:50,1724201990,5338,p,3.48,13.3,25.4,-70.1,-21.6
537,538,2024-08-20 18:00:00,1724202000,5348,p,3.48,13.3,25.4,-70.1,-21.6
538,539,2024-08-20 18:00:10,1724202010,5358,p,3.47,13.3,25.4,-70.1,-21.6
539,540,2024-08-20 18:00:20,1724202020,5368,p,3.48,13.3,25.4,-70.1,-21.6
540,541,2024-08-20 18:00:30,1724202030,5378,p,3.48,13.3,25.4,-70.1,-21.6
541,542,2024-08-20 18:00:40,1724202040,5388,p,3.48,13.3,25.4,-70.1,-21.6
542,543,2024-08-20 18:00:50,1724202050,5398,p,3.48,13.3,25.4,-70.1,-21.6
543,544,2024-08-20 18:01:00,1724202060,5408,p,3.48,13.3,25.4,-70.1,-21.6
544,545,2024-08-20 18:01:10,1724202070,5418,p,3.48,13.3,25.4,-70.1,-21.6
545,546,2024-08-20 18:01:20,1724202080,5428,p,3.47,13.3,25.4,-70.1,-21.6
546,547,2024-08-20 18:01:30,1724202090,5438,p,3.47,13.3,25.4,-70.1,-21.6
547,548,2024-08-20 18:01:40,1724202100,5448,p,3.47,13.3,25.4,-70.1,-21.6
548,549,2024-08-20 18:01:50,1724202110,5458,p,3.46,13.3,25.4,-70.1,-21.6
549,550,2024-08-20 18:02:00,1724202120,5468,p,3.47,13.3,25.4,-70.1,-21.6
550,551,2024-08-20 18:02:09,1724202129,5477,p,3.47,13.3,25.4,-70.2,-21.6
551,552,2024-08-20 18:02:19,1724202139,5487,p,3.47,13.3,25.4,-70.1,-21.5
552,553,2024-08-20 18:02:29,1724202149,5497,p,3.48,13.3,25.4,-70.1,-21.5
553,554,2024-08-20 18:02:39,1724202159,5507,p,3.47,13.3,25.4,-70.1,-21.5
554,555,2024-08-20 18:02:49,1724202169,5517,p,3.47,13.3,25.4,-70.1,-21.5
555,556,2024-08-20 18:02:59,1724202179,5527,p,3.46,13.3,25.4,-70.1,-21.5
556,557,2024-08-20 18:03:09,1724202189,5537,p,3.46,13.3,25.4,-70.1,-21.5
557,558,2024-08-20 18:03:19,1724202199,5547,p,3.46,13.3,25.4,-70.1,-21.5
558,559,2024-08-20 18:03:29,1724202209,5557,p,3.46,13.3,25.4,-70.1,-21.5
559,560,2024-08-20 18:03:39,1724202219,5567,p,3.46,13.3,25.4,-70.1,-21.5
560,561,2024-08-20 18:03:49,1724202229,5577,p,3.47,13.3,25.4,-70.1,-21.5
561,562,2024-08-20 18:03:59,1724202239,5587,p,3.47,13.3,25.4,-70.1,-21.5
562,563,2024-08-20 18:04:09,1724202249,5597,p,3.46,13.3,25.4,-70.1,-21.5
563,564,2024-08-20 18:04:19,1724202259,5607,p,3.46,13.3,25.4,-70.1,-21.5
564,565,2024-08-20 18:04:29,1724202269,5617,p,3.46,13.3,25.4,-70.1,-21.5
565,566,2024-08-20 18:04:39,1724202279,5627,p,3.46,13.3,25.4,-70.1,-21.5
566,567,2024-08-20 18:04:49,1724202289,5637,p,3.46,13.3,25.4,-70.1,-21.5
567,568,2024-08-20 18:04:59,1724202299,5647,p,3.45,13.3,25.4,-70.1,-21.5
568,569,2024-08-20 18:05:09,1724202309,5657,p,3.45,13.3,25.4,-70.1,-21.5
569,570,2024-08-20 18:05:19,1724202319,5667,p,3.45,13.3,25.4,-70.1,-21.5
570,571,2024-08-20 18:05:29,1724202329,5677,p,3.45,13.3,25.4,-70.1,-21.5
571,572,2024-08-20 18:05:39,1724202339,5687,p,3.45,13.3,25.4,-70.1,-21.4
572,573,2024-08-20 18:05:48,1724202348,5696,p,3.45,13.3,25.4,-70.1,-21.4
573,574,2024-08-20 18:05:58,1724202358,5706,p,3.45,13.3,25.4,-70.1,-21.4
574,575,2024-08-20 18:06:08,1724202368,5716,p,3.44,13.3,25.4,-70.1,-21.4
575,576,2024-08-20 18:06:18,1724202378,5726,p,3.44,13.3,25.4,-70.1,-21.4
576,577,2024-08-20 18:06:28,1724202388,5736,p,3.44,13.3,25.4,-70.1,-21.4
577,578,2024-08-20 18:06:38,1724202398,5746,p,3.45,13.3,25.4,-70.1,-21.4
578,579,2024-08-20 18:06:48,1724202408,5756,p,3.45,13.3,25.4,-70.1,-21.4
579,580,2024-08-20 18:06:58,1724202418,5766,p,3.46,13.3,25.5,-70.1,-21.2
580,581,2024-08-20 18:07:08,1724202428,5776,p,3.45,13.3,25.5,-70.1,-21.2
581,582,2024-08-20 18:07:18,1724202438,5786,p,3.45,13.3,25.5,-70.1,-21.2
582,583,2024-08-20 18:07:28,1724202448,5796,p,3.45,13.3,25.5,-70.1,-21.2
583,584,2024-08-20 18:07:38,1724202458,5806,p,3.45,13.3,25.5,-70.1,-21.2
584,585,2024-08-20 18:07:48,1724202468,5816,p,3.45,13.3,25.5,-70.1,-21.2
585,586,2024-08-20 18:07:58,1724202478,5826,p,3.45,13.3,25.5,-70.1,-21.2
586,587,2024-08-20 18:08:08,1724202488,5836,p,3.45,13.3,25.5,-70.1,-21.2
587,588,2024-08-20 18:08:18,1724202498,5846,p,3.44,13.3,25.5,-70.1,-21.2
588,589,2024-08-20 18:08:28,1724202508,5856,p,3.45,13.3,25.5,-70.1,-21.2
589,590,2024-08-20 18:08:38,1724202518,5866,p,3.45,13.3,25.5,-70.1,-21.2
590,591,2024-08-20 18:08:48,1724202528,5876,p,3.45,13.3,25.5,-70.1,-21.2
591,592,2024-08-20 18:08:58,1724202538,5886,p,3.45,13.3,25.5,-70.1,-21.2
592,593,2024-08-20 18:09:08,1724202548,5896,p,3.45,13.3,25.5,-70.1,-21.2
593,594,2024-08-20 18:09:18,1724202558,5906,p,3.44,13.3,25.5,-70.1,-21.2
594,595,2024-08-20 18:09:28,1724202568,5916,p,3.45,13.3,25.5,-70.1,-21.2
595,596,2024-08-20 18:09:37,1724202577,5925,p,3.44,13.3,25.5,-70.1,-21.2
596,597,2024-08-20 18:09:47,1724202587,5935,p,3.45,13.3,25.6,-70.1,-21.2
597,598,2024-08-20 18:09:57,1724202597,5945,p,3.45,13.3,25.6,-70.1,-21.2
598,599,2024-08-20 18:10:07,1724202607,5955,p,3.44,13.3,25.6,-70.1,-21.1
599,600,2024-08-20 18:10:17,1724202617,5965,p,3.44,13.3,25.6,-70.1,-20.9
600,601,2024-08-20 18:10:27,1724202627,5975,p,3.44,13.3,25.6,-70.1,-21.1
601,602,2024-08-20 18:10:37,1724202637,5985,p,3.44,13.3,25.6,-70.1,-21.1
602,603,2024-08-20 18:10:47,1724202647,5995,p,3.44,13.3,25.6,-70.1,-21.1
603,604,2024-08-20 18:10:57,1724202657,6005,p,3.44,13.3,25.6,-70.1,-21.1
604,605,2024-08-20 18:11:07,1724202667,6015,p,3.44,13.3,25.6,-70.1,-21.1
605,606,2024-08-20 18:11:17,1724202677,6025,p,3.43,13.3,25.6,-70.1,-21.1
606,607,2024-08-20 18:11:27,1724202687,6035,p,3.44,13.3,25.6,-70.1,-21
607,608,2024-08-20 18:11:37,1724202697,6045,p,3.43,13.3,25.6,-70.1,-21
608,609,2024-08-20 18:11:47,1724202707,6055,p,3.43,13.3,25.6,-70.1,-21
609,610,2024-08-20 18:11:57,1724202717,6065,p,3.44,13.3,25.6,-70.1,-21
610,611,2024-08-20 18:12:07,1724202727,6075,p,3.43,13.3,25.6,-70,-20.9
611,612,2024-08-20 18:12:17,1724202737,6085,p,3.43,13.3,25.6,-70,-20.9
612,613,2024-08-20 18:12:27,1724202747,6095,p,3.44,13.3,25.6,-69.9,-20.8
613,614,2024-08-20 18:12:37,1724202757,6105,p,3.43,13.3,25.6,-69.9,-20.8
614,615,2024-08-20 18:12:47,1724202767,6115,p,3.43,13.3,25.7,-69.9,-20.7
615,616,2024-08-20 18:12:57,1724202777,6125,p,3.43,13.3,25.7,-69.9,-20.7
616,617,2024-08-20 18:13:07,1724202787,6135,p,3.43,13.3,25.7,-69.9,-20.6
617,618,2024-08-20 18:13:16,1724202796,6144,p,3.43,13.3,25.8,-69.9,-20.5
618,619,2024-08-20 18:13:26,1724202806,6154,p,3.43,13.3,25.8,-69.8,-20.4
619,620,2024-08-20 18:13:36,1724202816,6164,p,3.42,13.3,25.8,-69.7,-20.2
620,621,2024-08-20 18:13:46,1724202826,6174,p,3.42,13.3,25.8,-69.7,-20.2
621,622,2024-08-20 18:13:56,1724202836,6184,p,3.42,13.3,25.8,-69.7,-20.2
622,623,2024-08-20 18:14:06,1724202846,6194,p,3.42,13.3,25.9,-69.7,-20.1
623,624,2024-08-20 18:14:16,1724202856,6204,p,3.42,13.3,25.9,-69.7,-20.1
624,625,2024-08-20 18:14:26,1724202866,6214,p,3.42,13.3,25.9,-69.7,-20.1
625,626,2024-08-20 18:14:36,1724202876,6224,p,3.41,13.3,25.9,-69.6,-19.9
626,627,2024-08-20 18:14:46,1724202886,6234,p,3.41,13.3,25.9,-69.6,-19.8
627,628,2024-08-20 18:14:56,1724202896,6244,p,3.41,13.3,25.9,-69.6,-19.7
628,629,2024-08-20 18:15:06,1724202906,6254,p,3.4,13.3,25.9,-69.6,-19.7
629,630,2024-08-20 18:15:16,1724202916,6264,p,3.41,13.3,25.9,-69.5,-19.7
630,631,2024-08-20 18:15:26,1724202926,6274,p,3.41,13.3,25.9,-69.5,-19.7
631,632,2024-08-20 18:15:36,1724202936,6284,p,3.42,13.3,26,-69.6,-19.6
632,633,2024-08-20 18:15:46,1724202946,6294,p,3.42,13.3,26,-69.5,-19.4
633,634,2024-08-20 18:15:56,1724202956,6304,p,3.42,13.3,26.1,-69.5,-19.4
634,635,2024-08-20 18:16:06,1724202966,6314,p,3.42,13.3,26.1,-69.5,-19.4
635,636,2024-08-20 18:16:16,1724202976,6324,p,3.42,13.3,26.1,-69.4,-19.2
636,637,2024-08-20 18:16:26,1724202986,6334,p,3.42,13.3,25.9,-69.6,-20.2
637,638,2024-08-20 18:16:36,1724202996,6344,p,3.42,13.3,25.9,-69.6,-20.2
638,639,2024-08-20 18:16:46,1724203006,6354,p,3.42,13.3,26,-69.6,-20
639,640,2024-08-20 18:16:55,1724203015,6363,p,3.42,13.3,26,-69.6,-19.9
640,641,2024-08-20 18:17:05,1724203025,6373,p,3.42,13.3,26,-69.5,-19.8
641,642,2024-08-20 18:17:15,1724203035,6383,p,3.41,13.3,26.1,-69.4,-19.7
642,643,2024-08-20 18:17:25,1724203045,6393,p,3.41,13.3,26.1,-69.4,-19.6
643,644,2024-08-20 18:17:35,1724203055,6403,p,3.41,13.3,26.1,-69.3,-19.5
644,645,2024-08-20 18:17:45,1724203065,6413,p,3.41,13.3,26.1,-69.3,-19.4
645,646,2024-08-20 18:17:55,1724203075,6423,p,3.42,13.3,26,-69.5,-20.4
646,647,2024-08-20 18:18:05,1724203085,6433,p,3.42,13.3,26,-69.6,-20.3
647,648,2024-08-20 18:18:15,1724203095,6443,p,3.42,13.3,26,-69.6,-20.3
648,649,2024-08-20 18:18:25,1724203105,6453,p,3.42,13.3,26.1,-69.6,-20.2
649,650,2024-08-20 18:18:35,1724203115,6463,p,3.42,13.3,26.1,-69.6,-20.1
650,651,2024-08-20 18:18:45,1724203125,6473,p,3.41,13.4,26.1,-69.5,-20.1
651,652,2024-08-20 18:18:55,1724203135,6483,p,3.41,13.3,26.1,-69.5,-20
652,653,2024-08-20 18:19:05,1724203145,6493,p,3.41,13.3,26.1,-69.5,-19.9
653,654,2024-08-20 18:19:15,1724203155,6503,p,3.42,13.3,26.1,-69.4,-19.9
654,655,2024-08-20 18:19:25,1724203165,6513,p,3.42,13.3,26.2,-69.4,-19.7
655,656,2024-08-20 18:19:35,1724203175,6523,p,3.42,13.3,26.3,-69.3,-19.6
656,657,2024-08-20 18:19:45,1724203185,6533,p,3.42,13.3,26.3,-69.3,-19.4
657,658,2024-08-20 18:19:55,1724203195,6543,p,3.42,13.3,26.1,-69.6,-20.4
658,659,2024-08-20 18:20:05,1724203205,6553,p,3.42,13.3,26.2,-69.6,-20.2
659,660,2024-08-20 18:20:15,1724203215,6563,p,3.42,13.4,26.2,-69.5,-20.2
660,661,2024-08-20 18:20:25,1724203225,6573,p,3.42,13.3,26.2,-69.4,-20.1
661,662,2024-08-20 18:20:34,1724203234,6582,p,3.41,13.3,26.2,-69.4,-20.1
662,663,2024-08-20 18:20:44,1724203244,6592,p,3.41,13.4,26.2,-69.4,-20
663,664,2024-08-20 18:20:54,1724203254,6602,p,3.41,13.4,26.3,-69.4,-19.9
664,665,2024-08-20 18:21:04,1724203264,6612,p,3.41,13.4,26.3,-69.3,-19.8
665,666,2024-08-20 18:21:14,1724203274,6622,p,3.41,13.4,26.3,-69.3,-19.7
666,667,2024-08-20 18:21:24,1724203284,6632,p,3.42,13.4,26.3,-69.3,-19.7
667,668,2024-08-20 18:21:34,1724203294,6642,p,3.42,13.4,26.3,-69.3,-19.7
668,669,2024-08-20 18:21:44,1724203304,6652,p,3.42,13.4,26.3,-69.3,-19.6
669,670,2024-08-20 18:21:54,1724203314,6662,p,3.41,13.4,26.4,-69.2,-19.5
670,671,2024-08-20 18:22:04,1724203324,6672,p,3.42,13.4,26.3,-69.5,-20.4
671,672,2024-08-20 18:22:14,1724203334,6682,p,3.42,13.3,26.3,-69.5,-20.4
672,673,2024-08-20 18:22:24,1724203344,6692,p,3.41,13.3,26.3,-69.4,-20.3
673,674,2024-08-20 18:22:34,1724203354,6702,p,3.42,13.4,26.3,-69.4,-20.2
674,675,2024-08-20 18:22:44,1724203364,6712,p,3.42,13.4,26.4,-69.4,-20
675,676,2024-08-20 18:22:54,1724203374,6722,p,3.41,13.4,26.4,-69.3,-19.8
676,677,2024-08-20 18:23:04,1724203384,6732,p,3.41,13.4,26.4,-69.3,-19.7
677,678,2024-08-20 18:23:14,1724203394,6742,p,3.4,13.4,26.5,-69.2,-19.6
678,679,2024-08-20 18:23:24,1724203404,6752,p,3.4,13.4,26.5,-69.2,-19.5
679,680,2024-08-20 18:23:34,1724203414,6762,p,3.4,13.4,26.5,-69.2,-19.4
680,681,2024-08-20 18:23:44,1724203424,6772,p,3.4,13.3,26.4,-69.5,-20.4
681,682,2024-08-20 18:23:54,1724203434,6782,p,3.4,13.3,26.4,-69.5,-20.4
682,683,2024-08-20 18:24:04,1724203444,6792,p,3.4,13.3,26.4,-69.4,-20.2
683,684,2024-08-20 18:24:13,1724203453,6801,p,3.4,13.3,26.4,-69.4,-20.1
684,685,2024-08-20 18:24:23,1724203463,6811,p,3.4,13.3,26.5,-69.4,-19.9
685,686,2024-08-20 18:24:33,1724203473,6821,p,3.4,13.3,26.5,-69.3,-19.9
686,687,2024-08-20 18:24:43,1724203483,6831,p,3.39,13.3,26.6,-69.3,-19.9
687,688,2024-08-20 18:24:53,1724203493,6841,p,3.39,13.3,26.6,-69.3,-19.7
688,689,2024-08-20 18:25:03,1724203503,6851,p,3.4,13.3,26.6,-69.2,-19.7
689,690,2024-08-20 18:25:13,1724203513,6861,p,3.4,13.3,26.6,-69.2,-19.6
690,691,2024-08-20 18:25:23,1724203523,6871,p,3.39,13.3,26.5,-69.5,-20.4
691,692,2024-08-20 18:25:33,1724203533,6881,p,3.39,13.3,26.6,-69.4,-20.2
692,693,2024-08-20 18:25:43,1724203543,6891,p,3.4,13.3,26.6,-69.4,-20.2
693,694,2024-08-20 18:25:53,1724203553,6901,p,3.39,13.3,26.6,-69.4,-20.2
694,695,2024-08-20 18:26:03,1724203563,6911,p,3.39,13.3,26.7,-69.4,-19.9
695,696,2024-08-20 18:26:13,1724203573,6921,p,3.39,13.3,26.8,-69.4,-19.8
696,697,2024-08-20 18:26:23,1724203583,6931,p,3.39,13.3,26.8,-69.4,-19.7
697,698,2024-08-20 18:26:33,1724203593,6941,p,3.38,13.3,26.8,-69.4,-19.6
698,699,2024-08-20 18:26:43,1724203603,6951,p,3.39,13.3,26.9,-69.4,-19.5
699,700,2024-08-20 18:26:53,1724203613,6961,p,3.39,13.3,26.9,-69.4,-19.5
700,701,2024-08-20 18:27:03,1724203623,6971,p,3.39,13.3,26.8,-69.5,-19.6
701,702,2024-08-20 18:27:13,1724203633,6981,p,3.39,13.3,26.9,-69.4,-19.4
702,703,2024-08-20 18:27:23,1724203643,6991,p,3.39,13.3,26.9,-69.4,-19.4
703,704,2024-08-20 18:27:33,1724203653,7001,p,3.39,13.3,26.9,-69.4,-19.3
704,705,2024-08-20 18:27:43,1724203663,7011,p,3.39,13.3,26.8,-69.6,-20.3
705,706,2024-08-20 18:27:52,1724203672,7020,p,3.39,13.3,26.8,-69.5,-20.2
706,707,2024-08-20 18:28:02,1724203682,7030,p,3.39,13.3,26.8,-69.5,-20.2
707,708,2024-08-20 18:28:12,1724203692,7040,p,3.39,13.4,26.8,-69.4,-20.1
708,709,2024-08-20 18:28:22,1724203702,7050,p,3.39,13.4,26.8,-69.4,-20
709,710,2024-08-20 18:28:32,1724203712,7060,p,3.38,13.4,26.9,-69.5,-19.9
710,711,2024-08-20 18:28:42,1724203722,7070,p,3.39,13.4,26.9,-69.4,-19.9
711,712,2024-08-20 18:28:52,1724203732,7080,p,3.39,13.4,26.9,-69.4,-19.7
712,713,2024-08-20 18:29:02,1724203742,7090,p,3.39,13.3,26.9,-69.4,-19.7
713,714,2024-08-20 18:29:12,1724203752,7100,p,3.39,13.3,26.9,-69.4,-19.6
714,715,2024-08-20 18:29:22,1724203762,7110,p,3.39,13.3,27,-69.4,-19.6
715,716,2024-08-20 18:29:32,1724203772,7120,p,3.39,13.3,27,-69.4,-19.4
716,717,2024-08-20 18:29:42,1724203782,7130,p,3.39,13.3,27.1,-69.4,-19.4
717,718,2024-08-20 18:29:52,1724203792,7140,p,3.39,13.3,26.9,-69.6,-20.3
718,719,2024-08-20 18:30:02,1724203802,7150,p,3.39,13.3,26.9,-69.6,-20.1
719,720,2024-08-20 18:30:12,1724203812,7160,p,3.39,13.4,27,-69.6,-19.9
720,721,2024-08-20 18:30:22,1724203822,7170,p,3.39,13.4,27,-69.6,-19.9
721,722,2024-08-20 18:30:32,1724203832,7180,p,3.38,13.4,27.1,-69.6,-19.7
722,723,2024-08-20 18:30:42,1724203842,7190,p,3.38,13.3,27.1,-69.6,-19.6
723,724,2024-08-20 18:30:42,1724203842,7190,p,0,0,0,0,0
