Number,Id,Datetime,Timestamp,Runtime,Type,Depth,Temperature,Heading,Roll,Pitch
1,188,2024-09-23 20:49:58,1727149798,13,p,0.17,19.6,180,-86.3,2.1
2,189,2024-09-23 20:50:07,1727149807,22,p,0.17,19.6,177.9,-94.7,3.4
3,190,2024-09-23 20:50:17,1727149817,32,p,0.17,19.6,186.1,-91.7,1.7
4,191,2024-09-23 20:50:27,1727149827,42,p,0.92,15.1,195.6,-81.8,56.3
5,192,2024-09-23 20:50:37,1727149837,52,p,0.81,12.6,94.2,-88.3,-1.2
6,193,2024-09-23 20:50:47,1727149847,62,p,2.49,11.7,3.4,-85.4,-3.4
7,194,2024-09-23 20:50:57,1727149857,72,p,5.3,11.2,344.4,-65.9,13.8
8,195,2024-09-23 20:51:07,1727149867,82,p,5.3,10.9,344.4,-65.9,13.8
9,196,2024-09-23 20:51:17,1727149877,92,p,5.3,10.8,344.4,-65.9,13.8
10,197,2024-09-23 20:51:27,1727149887,102,p,5.3,10.7,344.4,-65.9,13.8
11,198,2024-09-23 20:51:37,1727149897,112,p,5.3,10.7,344.4,-65.9,13.8
12,199,2024-09-23 20:51:47,1727149907,122,p,5.31,10.7,344.4,-65.9,13.8
13,200,2024-09-23 20:51:57,1727149917,132,p,5.3,10.7,344.4,-65.9,13.8
14,201,2024-09-23 20:52:07,1727149927,142,p,5.31,10.7,344.4,-65.9,13.8
15,202,2024-09-23 20:52:17,1727149937,152,p,5.31,10.7,344.4,-65.9,13.8
16,203,2024-09-23 20:52:27,1727149947,162,p,5.32,10.7,344.4,-65.9,13.8
17,204,2024-09-23 20:52:37,1727149957,172,p,5.31,10.7,344.4,-65.9,13.8
18,205,2024-09-23 20:52:47,1727149967,182,p,5.31,10.7,344.4,-65.9,13.8
19,206,2024-09-23 20:52:57,1727149977,192,p,5.31,10.7,344.4,-65.9,13.8
20,207,2024-09-23 20:53:07,1727149987,202,p,5.31,10.6,344.4,-65.9,13.8
21,208,2024-09-23 20:53:17,1727149997,212,p,5.32,10.6,344.4,-65.9,13.8
22,209,2024-09-23 20:53:27,1727150007,222,p,5.33,10.6,344.4,-65.9,13.8
23,210,2024-09-23 20:53:37,1727150017,232,p,5.32,10.6,344.4,-65.9,13.8
24,211,2024-09-23 20:53:47,1727150027,242,p,5.33,10.6,344.4,-65.9,13.8
25,212,2024-09-23 20:53:57,1727150037,252,p,5.33,10.6,344.4,-65.9,13.8
26,213,2024-09-23 20:54:06,1727150046,261,p,5.33,10.6,344.4,-65.9,13.8
27,214,2024-09-23 20:54:16,1727150056,271,p,5.33,10.6,344.4,-65.9,13.8
28,215,2024-09-23 20:54:26,1727150066,281,p,5.33,10.6,344.4,-65.9,13.8
29,216,2024-09-23 20:54:36,1727150076,291,p,5.33,10.6,344.4,-65.9,13.8
30,217,2024-09-23 20:54:46,1727150086,301,p,5.35,10.6,344.4,-65.9,13.8
31,218,2024-09-23 20:54:56,1727150096,311,p,5.35,10.6,344.4,-65.9,13.8
32,219,2024-09-23 20:55:06,1727150106,321,p,5.35,10.6,344.4,-65.9,13.8
33,220,2024-09-23 20:55:16,1727150116,331,p,5.35,10.6,344.4,-65.9,13.8
34,221,2024-09-23 20:55:26,1727150126,341,p,5.35,10.6,344.4,-65.9,13.8
35,222,2024-09-23 20:55:36,1727150136,351,p,5.35,10.6,344.4,-65.9,13.8
36,223,2024-09-23 20:55:46,1727150146,361,p,5.35,10.6,344.4,-65.9,13.8
37,224,2024-09-23 20:55:56,1727150156,371,p,5.35,10.5,344.4,-65.9,13.8
38,225,2024-09-23 20:56:06,1727150166,381,p,5.35,10.5,344.4,-65.9,13.8
39,226,2024-09-23 20:56:16,1727150176,391,p,5.37,10.6,344.4,-65.9,13.8
40,227,2024-09-23 20:56:26,1727150186,401,p,5.37,10.6,344.4,-65.9,13.8
41,228,2024-09-23 20:56:36,1727150196,411,p,5.37,10.5,344.4,-65.9,13.8
42,229,2024-09-23 20:56:46,1727150206,421,p,5.37,10.5,344.4,-65.9,13.8
43,230,2024-09-23 20:56:56,1727150216,431,p,5.37,10.5,344.4,-65.9,13.8
44,231,2024-09-23 20:57:06,1727150226,441,p,5.37,10.5,344.4,-65.9,13.8
45,232,2024-09-23 20:57:16,1727150236,451,p,5.38,10.5,344.4,-65.9,13.8
46,233,2024-09-23 20:57:26,1727150246,461,p,5.38,10.5,344.4,-65.9,13.8
47,234,2024-09-23 20:57:36,1727150256,471,p,5.38,10.6,344.4,-65.9,13.8
48,235,2024-09-23 20:57:45,1727150265,480,p,5.38,10.6,344.4,-65.9,13.8
49,236,2024-09-23 20:57:55,1727150275,490,p,5.38,10.6,344.4,-65.9,13.8
50,237,2024-09-23 20:58:05,1727150285,500,p,5.38,10.6,344.4,-65.9,13.8
51,238,2024-09-23 20:58:15,1727150295,510,p,5.39,10.6,344.4,-65.9,13.8
52,239,2024-09-23 20:58:25,1727150305,520,p,5.4,10.6,344.4,-65.9,13.8
53,240,2024-09-23 20:58:35,1727150315,530,p,5.39,10.6,344.4,-65.9,13.8
54,241,2024-09-23 20:58:45,1727150325,540,p,5.39,10.6,344.4,-65.9,13.8
55,242,2024-09-23 20:58:55,1727150335,550,p,5.4,10.5,344.4,-65.9,13.8
56,243,2024-09-23 20:59:05,1727150345,560,p,5.4,10.6,344.4,-65.9,13.8
57,244,2024-09-23 20:59:15,1727150355,570,p,5.4,10.6,344.4,-65.9,13.8
58,245,2024-09-23 20:59:25,1727150365,580,p,5.41,10.6,344.4,-65.9,13.8
59,246,2024-09-23 20:59:35,1727150375,590,p,5.4,10.5,344.4,-65.9,13.8
60,247,2024-09-23 20:59:45,1727150385,600,p,5.4,10.5,344.4,-65.9,13.8
61,248,2024-09-23 20:59:55,1727150395,610,p,5.41,10.5,344.4,-65.9,13.8
62,249,2024-09-23 21:00:05,1727150405,620,p,5.41,10.5,344.4,-65.9,13.8
63,250,2024-09-23 21:00:15,1727150415,630,p,5.41,10.5,344.4,-65.9,13.8
64,251,2024-09-23 21:00:25,1727150425,640,p,5.41,10.6,344.4,-65.9,13.8
65,252,2024-09-23 21:00:35,1727150435,650,p,5.41,10.5,344.4,-65.9,13.8
66,253,2024-09-23 21:00:45,1727150445,660,p,5.41,10.6,344.4,-65.9,13.8
67,254,2024-09-23 21:00:55,1727150455,670,p,5.42,10.5,344.4,-65.9,13.8
68,255,2024-09-23 21:01:05,1727150465,680,p,5.41,10.5,344.4,-65.9,13.8
69,256,2024-09-23 21:01:15,1727150475,690,p,5.41,10.5,344.4,-65.9,13.8
70,257,2024-09-23 21:01:24,1727150484,699,p,5.41,10.5,344.4,-65.9,13.8
71,258,2024-09-23 21:01:34,1727150494,709,p,5.42,10.5,344.4,-65.9,13.8
72,259,2024-09-23 21:01:44,1727150504,719,p,5.42,10.5,344.4,-65.9,13.8
73,260,2024-09-23 21:01:54,1727150514,729,p,5.43,10.5,344.4,-65.9,13.8
74,261,2024-09-23 21:02:04,1727150524,739,p,5.43,10.5,344.4,-65.9,13.8
75,262,2024-09-23 21:02:14,1727150534,749,p,5.43,10.5,344.4,-65.9,13.8
76,263,2024-09-23 21:02:24,1727150544,759,p,5.43,10.5,344.4,-65.9,13.8
77,264,2024-09-23 21:02:34,1727150554,769,p,5.43,10.5,344.4,-65.9,13.8
78,265,2024-09-23 21:02:44,1727150564,779,p,5.42,10.5,344.4,-65.9,13.8
79,266,2024-09-23 21:02:54,1727150574,789,p,5.43,10.5,344.4,-65.9,13.8
80,267,2024-09-23 21:03:04,1727150584,799,p,5.44,10.5,344.4,-65.9,13.8
81,268,2024-09-23 21:03:14,1727150594,809,p,5.45,10.5,344.4,-65.9,13.8
82,269,2024-09-23 21:03:24,1727150604,819,p,5.43,10.5,344.4,-65.9,13.8
83,270,2024-09-23 21:03:34,1727150614,829,p,5.44,10.5,344.4,-65.9,13.7
84,271,2024-09-23 21:03:44,1727150624,839,p,5.45,10.5,344.4,-65.9,13.7
85,272,2024-09-23 21:03:54,1727150634,849,p,5.45,10.5,344.4,-65.9,13.7
86,273,2024-09-23 21:04:04,1727150644,859,p,5.44,10.5,344.4,-65.9,13.7
87,274,2024-09-23 21:04:14,1727150654,869,p,5.44,10.5,344.4,-65.9,13.7
88,275,2024-09-23 21:04:24,1727150664,879,p,5.44,10.5,344.4,-65.9,13.7
89,276,2024-09-23 21:04:34,1727150674,889,p,5.45,10.5,344.4,-65.9,13.7
90,277,2024-09-23 21:04:44,1727150684,899,p,5.45,10.5,344.4,-65.9,13.7
91,278,2024-09-23 21:04:54,1727150694,909,p,5.44,10.5,344.4,-65.9,13.7
92,279,2024-09-23 21:05:04,1727150704,919,p,5.44,10.5,344.4,-65.9,13.7
93,280,2024-09-23 21:05:13,1727150713,928,p,5.45,10.5,344.4,-65.9,13.7
94,281,2024-09-23 21:05:23,1727150723,938,p,5.45,10.5,344.4,-65.9,13.7
95,282,2024-09-23 21:05:33,1727150733,948,p,5.45,10.5,344.4,-65.9,13.7
96,283,2024-09-23 21:05:43,1727150743,958,p,5.45,10.5,344.4,-65.9,13.7
97,284,2024-09-23 21:05:53,1727150753,968,p,5.46,10.5,344.4,-65.9,13.7
98,285,2024-09-23 21:06:03,1727150763,978,p,5.45,10.5,344.4,-65.9,13.7
99,286,2024-09-23 21:06:13,1727150773,988,p,5.46,10.5,344.4,-65.9,13.7
100,287,2024-09-23 21:06:23,1727150783,998,p,5.46,10.5,344.4,-65.9,13.7
101,288,2024-09-23 21:06:33,1727150793,1008,p,5.47,10.5,344.4,-65.9,13.7
102,289,2024-09-23 21:06:43,1727150803,1018,p,5.46,10.5,344.4,-65.9,13.7
103,290,2024-09-23 21:06:53,1727150813,1028,p,5.46,10.5,344.4,-65.9,13.7
104,291,2024-09-23 21:07:03,1727150823,1038,p,5.47,10.5,344.4,-65.9,13.7
105,292,2024-09-23 21:07:13,1727150833,1048,p,5.46,10.5,344.4,-65.9,13.7
106,293,2024-09-23 21:07:23,1727150843,1058,p,5.46,10.5,344.4,-65.9,13.7
107,294,2024-09-23 21:07:33,1727150853,1068,p,5.46,10.5,344.4,-65.9,13.7
108,295,2024-09-23 21:07:43,1727150863,1078,p,5.47,10.5,344.4,-65.9,13.7
109,296,2024-09-23 21:07:53,1727150873,1088,p,5.47,10.5,344.4,-65.9,13.7
110,297,2024-09-23 21:08:03,1727150883,1098,p,5.47,10.5,344.4,-65.9,13.7
111,298,2024-09-23 21:08:13,1727150893,1108,p,5.47,10.5,344.4,-65.9,13.7
112,299,2024-09-23 21:08:23,1727150903,1118,p,5.48,10.5,344.4,-65.9,13.7
113,300,2024-09-23 21:08:33,1727150913,1128,p,5.48,10.5,344.4,-65.9,13.7
114,301,2024-09-23 21:08:43,1727150923,1138,p,5.47,10.6,344.4,-65.9,13.7
115,302,2024-09-23 21:08:53,1727150933,1148,p,5.48,10.6,344.4,-65.9,13.7
116,303,2024-09-23 21:09:02,1727150942,1157,p,5.49,10.5,344.4,-65.9,13.7
117,304,2024-09-23 21:09:12,1727150952,1167,p,5.48,10.5,344.4,-65.9,13.7
118,305,2024-09-23 21:09:22,1727150962,1177,p,5.48,10.5,344.4,-65.9,13.7
119,306,2024-09-23 21:09:32,1727150972,1187,p,5.49,10.5,344.4,-65.9,13.7
120,307,2024-09-23 21:09:42,1727150982,1197,p,5.49,10.5,344.4,-65.9,13.7
121,308,2024-09-23 21:09:52,1727150992,1207,p,5.49,10.5,344.4,-65.9,13.7
122,309,2024-09-23 21:10:02,1727151002,1217,p,5.48,10.5,344.4,-65.9,13.7
123,310,2024-09-23 21:10:12,1727151012,1227,p,5.49,10.5,344.4,-65.9,13.7
124,311,2024-09-23 21:10:22,1727151022,1237,p,5.5,10.5,344.4,-65.9,13.7
125,312,2024-09-23 21:10:32,1727151032,1247,p,5.49,10.5,344.4,-65.9,13.7
126,313,2024-09-23 21:10:42,1727151042,1257,p,5.49,10.5,344.4,-65.9,13.7
127,314,2024-09-23 21:10:52,1727151052,1267,p,5.49,10.5,344.4,-65.9,13.7
128,315,2024-09-23 21:11:02,1727151062,1277,p,5.49,10.5,344.4,-65.9,13.7
129,316,2024-09-23 21:11:12,1727151072,1287,p,5.5,10.5,344.4,-65.9,13.7
130,317,2024-09-23 21:11:22,1727151082,1297,p,5.5,10.5,344.4,-65.9,13.7
131,318,2024-09-23 21:11:32,1727151092,1307,p,5.5,10.5,344.4,-65.9,13.7
132,319,2024-09-23 21:11:42,1727151102,1317,p,5.5,10.5,344.4,-65.9,13.7
133,320,2024-09-23 21:11:52,1727151112,1327,p,5.49,10.5,344.4,-65.9,13.7
134,321,2024-09-23 21:12:02,1727151122,1337,p,5.51,10.5,344.4,-65.9,13.7
135,322,2024-09-23 21:12:12,1727151132,1347,p,5.5,10.5,344.4,-65.9,13.7
136,323,2024-09-23 21:12:22,1727151142,1357,p,5.5,10.5,344.4,-65.9,13.7
137,324,2024-09-23 21:12:32,1727151152,1367,p,5.51,10.5,344.4,-65.9,13.7
138,325,2024-09-23 21:12:41,1727151161,1376,p,5.51,10.5,344.4,-65.9,13.7
139,326,2024-09-23 21:12:51,1727151171,1386,p,5.51,10.5,344.3,-65.9,13.6
140,327,2024-09-23 21:13:01,1727151181,1396,p,5.51,10.5,344.3,-65.9,13.6
141,328,2024-09-23 21:13:11,1727151191,1406,p,5.51,10.5,344.3,-65.9,13.6
142,329,2024-09-23 21:13:21,1727151201,1416,p,5.52,10.5,344.3,-65.9,13.6
143,330,2024-09-23 21:13:31,1727151211,1426,p,5.52,10.5,344.3,-65.9,13.6
144,331,2024-09-23 21:13:41,1727151221,1436,p,5.52,10.5,344.3,-65.9,13.6
145,332,2024-09-23 21:13:51,1727151231,1446,p,5.51,10.5,344.3,-65.9,13.6
146,333,2024-09-23 21:14:01,1727151241,1456,p,5.51,10.5,344.3,-65.9,13.6
147,334,2024-09-23 21:14:11,1727151251,1466,p,5.51,10.5,344.3,-65.9,13.6
148,335,2024-09-23 21:14:21,1727151261,1476,p,5.52,10.5,344.3,-65.9,13.6
149,336,2024-09-23 21:14:31,1727151271,1486,p,5.52,10.5,344.3,-65.9,13.6
150,337,2024-09-23 21:14:41,1727151281,1496,p,5.51,10.5,344.3,-65.9,13.6
151,338,2024-09-23 21:14:51,1727151291,1506,p,5.52,10.5,344.3,-65.9,13.6
152,339,2024-09-23 21:15:01,1727151301,1516,p,5.52,10.5,344.3,-65.9,13.6
153,340,2024-09-23 21:15:11,1727151311,1526,p,5.53,10.5,344.3,-65.9,13.6
154,341,2024-09-23 21:15:21,1727151321,1536,p,5.52,10.5,344.3,-65.9,13.6
155,342,2024-09-23 21:15:31,1727151331,1546,p,5.52,10.5,344.3,-65.9,13.6
156,343,2024-09-23 21:15:41,1727151341,1556,p,5.53,10.5,344.3,-65.9,13.6
157,344,2024-09-23 21:15:51,1727151351,1566,p,5.53,10.5,344.3,-65.9,13.6
158,345,2024-09-23 21:16:01,1727151361,1576,p,5.54,10.5,344.3,-65.9,13.6
159,346,2024-09-23 21:16:11,1727151371,1586,p,5.53,10.5,344.3,-65.9,13.6
160,347,2024-09-23 21:16:20,1727151380,1595,p,5.54,10.5,344.3,-65.9,13.6
161,348,2024-09-23 21:16:30,1727151390,1605,p,5.53,10.5,344.3,-65.9,13.6
162,349,2024-09-23 21:16:40,1727151400,1615,p,5.53,10.5,344.3,-65.9,13.6
163,350,2024-09-23 21:16:50,1727151410,1625,p,5.54,10.5,344.3,-65.9,13.6
164,351,2024-09-23 21:17:00,1727151420,1635,p,5.54,10.5,344.3,-65.9,13.6
165,352,2024-09-23 21:17:10,1727151430,1645,p,5.53,10.5,344.3,-65.9,13.6
166,353,2024-09-23 21:17:20,1727151440,1655,p,5.54,10.5,344.3,-65.9,13.6
167,354,2024-09-23 21:17:30,1727151450,1665,p,5.54,10.5,344.3,-65.9,13.6
168,355,2024-09-23 21:17:40,1727151460,1675,p,5.55,10.5,344.3,-65.9,13.6
169,356,2024-09-23 21:17:50,1727151470,1685,p,5.55,10.5,344.3,-65.9,13.6
170,357,2024-09-23 21:18:00,1727151480,1695,p,5.55,10.5,344.3,-65.9,13.6
171,358,2024-09-23 21:18:10,1727151490,1705,p,5.55,10.5,344.3,-65.9,13.6
172,359,2024-09-23 21:18:20,1727151500,1715,p,5.55,10.5,344.3,-65.9,13.6
173,360,2024-09-23 21:18:30,1727151510,1725,p,5.55,10.5,344.3,-65.9,13.6
174,361,2024-09-23 21:18:40,1727151520,1735,p,5.55,10.5,344.3,-65.9,13.6
175,362,2024-09-23 21:18:50,1727151530,1745,p,5.55,10.5,344.3,-65.9,13.6
176,363,2024-09-23 21:19:00,1727151540,1755,p,5.55,10.5,344.3,-65.9,13.6
177,364,2024-09-23 21:19:10,1727151550,1765,p,5.55,10.5,344.3,-65.9,13.6
178,365,2024-09-23 21:19:20,1727151560,1775,p,5.55,10.5,344.3,-65.9,13.6
179,366,2024-09-23 21:19:30,1727151570,1785,p,5.55,10.5,344.3,-65.9,13.6
180,367,2024-09-23 21:19:40,1727151580,1795,p,5.55,10.5,344.3,-65.9,13.6
181,368,2024-09-23 21:19:50,1727151590,1805,p,5.56,10.5,344.3,-65.9,13.6
182,369,2024-09-23 21:20:00,1727151600,1815,p,5.55,10.5,344.3,-65.9,13.6
183,370,2024-09-23 21:20:09,1727151609,1824,p,5.55,10.5,344.3,-65.9,13.6
184,371,2024-09-23 21:20:19,1727151619,1834,p,5.55,10.5,344.3,-65.9,13.6
185,372,2024-09-23 21:20:29,1727151629,1844,p,5.55,10.5,344.3,-65.9,13.6
186,373,2024-09-23 21:20:39,1727151639,1854,p,5.55,10.5,344.3,-65.9,13.6
187,374,2024-09-23 21:20:49,1727151649,1864,p,5.56,10.5,344.3,-65.9,13.6
188,375,2024-09-23 21:20:59,1727151659,1874,p,5.56,10.5,344.3,-65.9,13.6
189,376,2024-09-23 21:21:09,1727151669,1884,p,5.55,10.5,344.3,-65.9,13.6
190,377,2024-09-23 21:21:19,1727151679,1894,p,5.56,10.5,344.3,-65.9,13.6
191,378,2024-09-23 21:21:29,1727151689,1904,p,5.55,10.5,344.3,-65.9,13.6
192,379,2024-09-23 21:21:39,1727151699,1914,p,5.55,10.5,344.3,-65.9,13.6
193,380,2024-09-23 21:21:49,1727151709,1924,p,5.55,10.5,344.3,-65.9,13.6
194,381,2024-09-23 21:21:59,1727151719,1934,p,5.56,10.5,344.3,-65.9,13.6
195,382,2024-09-23 21:22:09,1727151729,1944,p,5.55,10.5,344.3,-65.9,13.6
196,383,2024-09-23 21:22:19,1727151739,1954,p,5.56,10.5,344.3,-65.9,13.6
197,384,2024-09-23 21:22:29,1727151749,1964,p,5.56,10.5,344.3,-65.9,13.6
198,385,2024-09-23 21:22:39,1727151759,1974,p,5.56,10.5,344.3,-65.9,13.6
199,386,2024-09-23 21:22:49,1727151769,1984,p,5.56,10.5,344.3,-65.9,13.6
200,387,2024-09-23 21:22:59,1727151779,1994,p,5.57,10.5,344.3,-65.9,13.6
201,388,2024-09-23 21:23:09,1727151789,2004,p,5.56,10.5,344.3,-65.9,13.6
202,389,2024-09-23 21:23:19,1727151799,2014,p,5.57,10.5,344.3,-65.9,13.6
203,390,2024-09-23 21:23:29,1727151809,2024,p,5.57,10.5,344.3,-65.9,13.6
204,391,2024-09-23 21:23:39,1727151819,2034,p,5.58,10.5,344.3,-65.9,13.6
205,392,2024-09-23 21:23:48,1727151828,2043,p,5.57,10.5,344.3,-65.9,13.5
206,393,2024-09-23 21:23:58,1727151838,2053,p,5.57,10.5,344.3,-65.9,13.5
207,394,2024-09-23 21:24:08,1727151848,2063,p,5.57,10.5,344.3,-65.9,13.5
208,395,2024-09-23 21:24:18,1727151858,2073,p,5.57,10.5,344.3,-65.9,13.5
209,396,2024-09-23 21:24:28,1727151868,2083,p,5.57,10.5,344.3,-65.9,13.5
210,397,2024-09-23 21:24:38,1727151878,2093,p,5.58,10.5,344.3,-65.9,13.5
211,398,2024-09-23 21:24:48,1727151888,2103,p,5.58,10.5,344.3,-65.9,13.5
212,399,2024-09-23 21:24:58,1727151898,2113,p,5.58,10.5,344.3,-65.9,13.5
213,400,2024-09-23 21:25:08,1727151908,2123,p,5.59,10.5,344.3,-65.9,13.5
214,401,2024-09-23 21:25:18,1727151918,2133,p,5.59,10.5,344.3,-65.9,13.5
215,402,2024-09-23 21:25:28,1727151928,2143,p,5.58,10.5,344.3,-65.9,13.5
216,403,2024-09-23 21:25:38,1727151938,2153,p,5.58,10.5,344.3,-65.9,13.5
217,404,2024-09-23 21:25:48,1727151948,2163,p,5.6,10.5,344.3,-65.9,13.5
218,405,2024-09-23 21:25:58,1727151958,2173,p,5.59,10.5,344.3,-65.9,13.5
219,406,2024-09-23 21:26:08,1727151968,2183,p,5.59,10.5,344.3,-65.9,13.5
220,407,2024-09-23 21:26:18,1727151978,2193,p,5.6,10.5,344.3,-65.9,13.5
221,408,2024-09-23 21:26:28,1727151988,2203,p,5.59,10.5,344.3,-65.9,13.5
222,409,2024-09-23 21:26:38,1727151998,2213,p,5.58,10.5,344.3,-65.9,13.5
223,410,2024-09-23 21:26:48,1727152008,2223,p,5.6,10.5,344.3,-65.9,13.5
224,411,2024-09-23 21:26:58,1727152018,2233,p,5.59,10.5,344.3,-65.9,13.5
225,412,2024-09-23 21:27:08,1727152028,2243,p,5.59,10.5,344.3,-65.9,13.5
226,413,2024-09-23 21:27:18,1727152038,2253,p,5.6,10.5,344.3,-65.9,13.5
227,414,2024-09-23 21:27:28,1727152048,2263,p,5.59,10.5,344.3,-65.9,13.5
228,415,2024-09-23 21:27:37,1727152057,2272,p,5.6,10.5,344.3,-65.9,13.5
229,416,2024-09-23 21:27:47,1727152067,2282,p,5.59,10.5,344.3,-65.9,13.5
230,417,2024-09-23 21:27:57,1727152077,2292,p,5.59,10.5,344.3,-65.9,13.5
231,418,2024-09-23 21:28:07,1727152087,2302,p,5.59,10.5,344.3,-65.9,13.5
232,419,2024-09-23 21:28:17,1727152097,2312,p,5.6,10.5,344.3,-65.9,13.5
233,420,2024-09-23 21:28:27,1727152107,2322,p,5.6,10.5,344.3,-65.9,13.5
234,421,2024-09-23 21:28:37,1727152117,2332,p,5.61,10.5,344.3,-65.9,13.5
235,422,2024-09-23 21:28:47,1727152127,2342,p,5.6,10.5,344.3,-65.9,13.5
236,423,2024-09-23 21:28:57,1727152137,2352,p,5.6,10.5,344.3,-65.9,13.5
237,424,2024-09-23 21:29:07,1727152147,2362,p,5.59,10.5,344.3,-65.9,13.5
238,425,2024-09-23 21:29:17,1727152157,2372,p,5.59,10.5,344.3,-65.9,13.5
239,426,2024-09-23 21:29:27,1727152167,2382,p,5.61,10.5,344.3,-65.9,13.5
240,427,2024-09-23 21:29:37,1727152177,2392,p,5.59,10.5,344.3,-65.9,13.5
241,428,2024-09-23 21:29:47,1727152187,2402,p,5.6,10.5,344.3,-65.9,13.5
242,429,2024-09-23 21:29:57,1727152197,2412,p,5.6,10.5,344.3,-65.9,13.5
243,430,2024-09-23 21:30:07,1727152207,2422,p,5.6,10.6,344.3,-65.9,13.5
244,431,2024-09-23 21:30:17,1727152217,2432,p,5.6,10.5,344.3,-65.9,13.5
245,432,2024-09-23 21:30:27,1727152227,2442,p,5.6,10.6,344.3,-65.9,13.5
246,433,2024-09-23 21:30:37,1727152237,2452,p,5.6,10.5,344.3,-65.9,13.5
247,434,2024-09-23 21:30:47,1727152247,2462,p,5.6,10.5,344.3,-65.9,13.5
248,435,2024-09-23 21:30:57,1727152257,2472,p,5.6,10.5,344.3,-65.9,13.5
249,436,2024-09-23 21:31:07,1727152267,2482,p,5.6,10.5,344.3,-65.9,13.5
250,437,2024-09-23 21:31:16,1727152276,2491,p,5.61,10.5,344.3,-65.9,13.5
251,438,2024-09-23 21:31:26,1727152286,2501,p,5.6,10.5,344.3,-65.9,13.5
252,439,2024-09-23 21:31:36,1727152296,2511,p,5.59,10.5,344.3,-65.9,13.5
253,440,2024-09-23 21:31:46,1727152306,2521,p,5.61,10.5,344.3,-65.9,13.5
254,441,2024-09-23 21:31:56,1727152316,2531,p,5.61,10.5,344.3,-65.9,13.5
255,442,2024-09-23 21:32:06,1727152326,2541,p,5.61,10.5,344.3,-65.9,13.5
256,443,2024-09-23 21:32:16,1727152336,2551,p,5.6,10.5,344.3,-65.9,13.5
257,444,2024-09-23 21:32:26,1727152346,2561,p,5.62,10.5,344.3,-65.9,13.5
258,445,2024-09-23 21:32:36,1727152356,2571,p,5.62,10.5,344.3,-65.9,13.5
259,446,2024-09-23 21:32:46,1727152366,2581,p,5.61,10.5,344.3,-65.9,13.5
260,447,2024-09-23 21:32:56,1727152376,2591,p,5.61,10.5,344.3,-65.9,13.5
261,448,2024-09-23 21:33:06,1727152386,2601,p,5.62,10.6,344.3,-65.9,13.5
262,449,2024-09-23 21:33:16,1727152396,2611,p,5.62,10.6,344.3,-65.9,13.5
263,450,2024-09-23 21:33:26,1727152406,2621,p,5.61,10.6,344.3,-65.9,13.5
264,451,2024-09-23 21:33:36,1727152416,2631,p,5.61,10.6,344.3,-65.9,13.5
265,452,2024-09-23 21:33:46,1727152426,2641,p,5.62,10.6,344.3,-65.9,13.5
266,453,2024-09-23 21:33:56,1727152436,2651,p,5.61,10.6,344.3,-65.9,13.5
267,454,2024-09-23 21:34:06,1727152446,2661,p,5.61,10.5,344.3,-65.9,13.5
268,455,2024-09-23 21:34:16,1727152456,2671,p,5.61,10.5,344.3,-65.9,13.5
269,456,2024-09-23 21:34:26,1727152466,2681,p,5.62,10.5,344.3,-65.9,13.5
270,457,2024-09-23 21:34:36,1727152476,2691,p,5.62,10.5,344.3,-65.9,13.5
271,458,2024-09-23 21:34:46,1727152486,2701,p,5.62,10.5,344.3,-65.9,13.4
272,459,2024-09-23 21:34:56,1727152496,2711,p,5.62,10.5,344.3,-65.9,13.4
273,460,2024-09-23 21:35:05,1727152505,2720,p,5.62,10.5,344.3,-65.9,13.4
274,461,2024-09-23 21:35:15,1727152515,2730,p,5.62,10.5,344.3,-65.9,13.4
275,462,2024-09-23 21:35:25,1727152525,2740,p,5.63,10.5,344.3,-65.9,13.4
276,463,2024-09-23 21:35:35,1727152535,2750,p,5.61,10.5,344.3,-65.9,13.4
277,464,2024-09-23 21:35:45,1727152545,2760,p,5.62,10.5,344.3,-65.9,13.4
278,465,2024-09-23 21:35:55,1727152555,2770,p,5.63,10.5,344.3,-65.9,13.4
279,466,2024-09-23 21:36:05,1727152565,2780,p,5.62,10.5,344.3,-65.9,13.4
280,467,2024-09-23 21:36:15,1727152575,2790,p,5.62,10.5,344.3,-65.9,13.4
281,468,2024-09-23 21:36:25,1727152585,2800,p,5.63,10.5,344.3,-65.9,13.4
282,469,2024-09-23 21:36:35,1727152595,2810,p,5.63,10.5,344.3,-65.9,13.4
283,470,2024-09-23 21:36:45,1727152605,2820,p,5.63,10.5,344.3,-65.9,13.4
284,471,2024-09-23 21:36:55,1727152615,2830,p,5.63,10.5,344.3,-65.9,13.4
285,472,2024-09-23 21:37:05,1727152625,2840,p,5.63,10.5,344.3,-65.9,13.4
286,473,2024-09-23 21:37:15,1727152635,2850,p,5.63,10.5,344.3,-65.9,13.4
287,474,2024-09-23 21:37:25,1727152645,2860,p,5.63,10.5,344.3,-65.9,13.4
288,475,2024-09-23 21:37:35,1727152655,2870,p,5.64,10.5,344.3,-65.9,13.4
289,476,2024-09-23 21:37:45,1727152665,2880,p,5.64,10.5,344.3,-65.9,13.4
290,477,2024-09-23 21:37:55,1727152675,2890,p,5.64,10.5,344.3,-65.9,13.4
291,478,2024-09-23 21:38:05,1727152685,2900,p,5.64,10.5,344.3,-65.9,13.4
292,479,2024-09-23 21:38:15,1727152695,2910,p,5.64,10.5,344.3,-65.9,13.4
293,480,2024-09-23 21:38:25,1727152705,2920,p,5.65,10.5,344.3,-65.9,13.4
294,481,2024-09-23 21:38:35,1727152715,2930,p,5.65,10.5,344.3,-65.9,13.4
295,482,2024-09-23 21:38:44,1727152724,2939,p,5.64,10.5,344.3,-65.9,13.4
296,483,2024-09-23 21:38:54,1727152734,2949,p,5.64,10.5,344.3,-65.9,13.4
297,484,2024-09-23 21:39:04,1727152744,2959,p,5.64,10.5,344.3,-65.9,13.4
298,485,2024-09-23 21:39:14,1727152754,2969,p,5.65,10.5,344.3,-65.9,13.4
299,486,2024-09-23 21:39:24,1727152764,2979,p,5.64,10.5,344.3,-65.9,13.4
300,487,2024-09-23 21:39:34,1727152774,2989,p,5.64,10.5,344.3,-65.9,13.4
301,488,2024-09-23 21:39:44,1727152784,2999,p,5.65,10.5,344.3,-65.9,13.4
302,489,2024-09-23 21:39:54,1727152794,3009,p,5.64,10.5,344.3,-65.9,13.4
303,490,2024-09-23 21:40:04,1727152804,3019,p,5.64,10.5,344.3,-65.9,13.4
304,491,2024-09-23 21:40:14,1727152814,3029,p,5.65,10.5,344.3,-65.9,13.4
305,492,2024-09-23 21:40:24,1727152824,3039,p,5.64,10.5,344.3,-65.9,13.4
306,493,2024-09-23 21:40:34,1727152834,3049,p,5.65,10.5,344.3,-65.9,13.4
307,494,2024-09-23 21:40:44,1727152844,3059,p,5.64,10.5,344.3,-65.9,13.4
308,495,2024-09-23 21:40:54,1727152854,3069,p,5.64,10.5,344.3,-65.9,13.4
309,496,2024-09-23 21:41:04,1727152864,3079,p,5.65,10.5,344.3,-65.9,13.4
310,497,2024-09-23 21:41:14,1727152874,3089,p,5.64,10.5,344.3,-65.9,13.4
311,498,2024-09-23 21:41:24,1727152884,3099,p,5.64,10.5,344.3,-65.9,13.4
312,499,2024-09-23 21:41:34,1727152894,3109,p,5.65,10.5,344.3,-65.9,13.4
313,500,2024-09-23 21:41:44,1727152904,3119,p,5.65,10.5,344.3,-65.9,13.4
314,501,2024-09-23 21:41:54,1727152914,3129,p,5.66,10.5,344.3,-65.9,13.4
315,502,2024-09-23 21:42:04,1727152924,3139,p,5.65,10.5,344.3,-65.9,13.4
316,503,2024-09-23 21:42:14,1727152934,3149,p,5.65,10.5,344.3,-65.9,13.4
317,504,2024-09-23 21:42:23,1727152943,3158,p,5.65,10.5,344.3,-65.9,13.4
318,505,2024-09-23 21:42:33,1727152953,3168,p,5.65,10.5,344.3,-65.9,13.4
319,506,2024-09-23 21:42:43,1727152963,3178,p,5.65,10.5,344.3,-65.9,13.4
320,507,2024-09-23 21:42:53,1727152973,3188,p,5.65,10.5,344.3,-65.9,13.4
321,508,2024-09-23 21:43:03,1727152983,3198,p,5.66,10.5,344.3,-65.9,13.4
322,509,2024-09-23 21:43:13,1727152993,3208,p,5.66,10.5,344.3,-65.9,13.4
323,510,2024-09-23 21:43:23,1727153003,3218,p,5.65,10.5,344.3,-65.9,13.4
324,511,2024-09-23 21:43:33,1727153013,3228,p,5.66,10.5,344.3,-65.9,13.4
325,512,2024-09-23 21:43:43,1727153023,3238,p,5.66,10.5,344.3,-65.9,13.4
326,513,2024-09-23 21:43:53,1727153033,3248,p,5.66,10.5,344.3,-65.9,13.4
327,514,2024-09-23 21:44:03,1727153043,3258,p,5.65,10.5,344.3,-65.9,13.4
328,515,2024-09-23 21:44:13,1727153053,3268,p,5.66,10.5,344.3,-65.9,13.4
329,516,2024-09-23 21:44:23,1727153063,3278,p,5.66,10.5,344.3,-65.9,13.4
330,517,2024-09-23 21:44:33,1727153073,3288,p,5.66,10.5,344.3,-65.9,13.4
331,518,2024-09-23 21:44:43,1727153083,3298,p,5.65,10.5,344.3,-65.9,13.4
332,519,2024-09-23 21:44:53,1727153093,3308,p,5.66,10.5,344.3,-65.9,13.4
333,520,2024-09-23 21:45:03,1727153103,3318,p,5.66,10.5,344.3,-65.9,13.4
334,521,2024-09-23 21:45:13,1727153113,3328,p,5.66,10.5,344.3,-65.9,13.4
335,522,2024-09-23 21:45:23,1727153123,3338,p,5.66,10.5,344.3,-65.9,13.4
336,523,2024-09-23 21:45:33,1727153133,3348,p,5.66,10.5,344.3,-65.9,13.4
337,524,2024-09-23 21:45:43,1727153143,3358,p,5.66,10.5,344.3,-65.9,13.4
338,525,2024-09-23 21:45:53,1727153153,3368,p,5.67,10.5,344.3,-65.9,13.4
339,526,2024-09-23 21:46:02,1727153162,3377,p,5.67,10.5,344.3,-65.9,13.4
340,527,2024-09-23 21:46:12,1727153172,3387,p,5.67,10.5,344.3,-65.9,13.4
341,528,2024-09-23 21:46:22,1727153182,3397,p,5.66,10.5,344.3,-65.9,13.4
342,529,2024-09-23 21:46:32,1727153192,3407,p,5.67,10.5,344.3,-65.9,13.4
343,530,2024-09-23 21:46:42,1727153202,3417,p,5.66,10.5,344.3,-65.9,13.4
344,531,2024-09-23 21:46:52,1727153212,3427,p,5.67,10.6,344.3,-65.9,13.4
345,532,2024-09-23 21:47:02,1727153222,3437,p,5.67,10.6,344.3,-65.9,13.4
346,533,2024-09-23 21:47:12,1727153232,3447,p,5.67,10.6,344.3,-65.9,13.4
347,534,2024-09-23 21:47:22,1727153242,3457,p,5.68,10.6,344.3,-65.9,13.4
348,535,2024-09-23 21:47:32,1727153252,3467,p,5.67,10.6,344.3,-65.9,13.4
349,536,2024-09-23 21:47:42,1727153262,3477,p,5.67,10.6,344.3,-65.9,13.4
350,537,2024-09-23 21:47:52,1727153272,3487,p,5.67,10.6,344.3,-65.9,13.4
351,538,2024-09-23 21:48:02,1727153282,3497,p,5.67,10.6,344.3,-65.9,13.4
352,539,2024-09-23 21:48:12,1727153292,3507,p,5.67,10.6,344.3,-65.9,13.4
353,540,2024-09-23 21:48:22,1727153302,3517,p,5.67,10.6,344.3,-65.9,13.4
354,541,2024-09-23 21:48:32,1727153312,3527,p,5.68,10.6,344.3,-65.9,13.4
355,542,2024-09-23 21:48:42,1727153322,3537,p,5.68,10.6,344.3,-65.9,13.4
356,543,2024-09-23 21:48:52,1727153332,3547,p,5.68,10.6,344.3,-65.9,13.4
357,544,2024-09-23 21:49:02,1727153342,3557,p,5.68,10.6,344.3,-65.9,13.4
358,545,2024-09-23 21:49:12,1727153352,3567,p,5.69,10.6,344.3,-65.9,13.4
359,546,2024-09-23 21:49:22,1727153362,3577,p,5.68,10.6,344.3,-65.9,13.4
360,547,2024-09-23 21:49:32,1727153372,3587,p,5.68,10.6,344.3,-65.9,13.4
361,548,2024-09-23 21:49:41,1727153381,3596,p,5.69,10.6,344.3,-65.9,13.4
362,549,2024-09-23 21:49:51,1727153391,3606,p,5.69,10.6,344.3,-65.9,13.4
363,550,2024-09-23 21:50:01,1727153401,3616,p,5.69,10.6,344.3,-65.9,13.4
364,551,2024-09-23 21:50:11,1727153411,3626,p,5.69,10.6,344.3,-65.9,13.4
365,552,2024-09-23 21:50:21,1727153421,3636,p,5.7,10.6,344.3,-65.9,13.4
366,553,2024-09-23 21:50:31,1727153431,3646,p,5.69,10.6,344.3,-65.9,13.4
367,554,2024-09-23 21:50:41,1727153441,3656,p,5.69,10.6,344.3,-65.9,13.4
368,555,2024-09-23 21:50:51,1727153451,3666,p,5.69,10.6,344.3,-65.9,13.4
369,556,2024-09-23 21:51:01,1727153461,3676,p,5.7,10.6,344.3,-65.9,13.4
370,557,2024-09-23 21:51:11,1727153471,3686,p,5.7,10.5,344.3,-65.9,13.4
371,558,2024-09-23 21:51:21,1727153481,3696,p,5.7,10.5,344.3,-65.9,13.4
372,559,2024-09-23 21:51:31,1727153491,3706,p,5.7,10.5,344.3,-65.9,13.4
373,560,2024-09-23 21:51:41,1727153501,3716,p,5.7,10.5,344.3,-65.9,13.4
374,561,2024-09-23 21:51:51,1727153511,3726,p,5.7,10.5,344.3,-65.9,13.4
375,562,2024-09-23 21:52:01,1727153521,3736,p,5.7,10.5,344.3,-65.9,13.4
376,563,2024-09-23 21:52:11,1727153531,3746,p,5.69,10.5,344.3,-65.9,13.4
377,564,2024-09-23 21:52:21,1727153541,3756,p,5.7,10.5,344.3,-65.9,13.4
378,565,2024-09-23 21:52:31,1727153551,3766,p,5.71,10.5,344.3,-65.9,13.4
379,566,2024-09-23 21:52:41,1727153561,3776,p,5.7,10.5,344.3,-65.9,13.4
380,567,2024-09-23 21:52:51,1727153571,3786,p,5.7,10.5,344.3,-65.9,13.4
381,568,2024-09-23 21:53:01,1727153581,3796,p,5.7,10.6,344.3,-65.9,13.4
382,569,2024-09-23 21:53:11,1727153591,3806,p,5.7,10.5,344.3,-65.9,13.4
383,570,2024-09-23 21:53:20,1727153600,3815,p,5.7,10.6,344.3,-65.9,13.4
384,571,2024-09-23 21:53:30,1727153610,3825,p,5.7,10.6,344.3,-65.9,13.4
385,572,2024-09-23 21:53:40,1727153620,3835,p,5.7,10.6,344.3,-65.9,13.4
386,573,2024-09-23 21:53:50,1727153630,3845,p,5.71,10.6,344.3,-65.9,13.4
387,574,2024-09-23 21:54:00,1727153640,3855,p,5.69,10.6,344.3,-65.9,13.4
388,575,2024-09-23 21:54:10,1727153650,3865,p,5.69,10.6,344.3,-65.9,13.4
389,576,2024-09-23 21:54:20,1727153660,3875,p,5.69,10.6,344.3,-65.9,13.4
390,577,2024-09-23 21:54:30,1727153670,3885,p,5.7,10.6,344.3,-65.9,13.4
391,578,2024-09-23 21:54:40,1727153680,3895,p,5.7,10.6,344.3,-65.9,13.4
392,579,2024-09-23 21:54:50,1727153690,3905,p,5.7,10.6,344.3,-65.9,13.4
393,580,2024-09-23 21:55:00,1727153700,3915,p,5.69,10.6,344.3,-65.9,13.4
394,581,2024-09-23 21:55:10,1727153710,3925,p,5.7,10.6,344.3,-65.9,13.4
395,582,2024-09-23 21:55:20,1727153720,3935,p,5.7,10.6,344.3,-65.9,13.4
396,583,2024-09-23 21:55:30,1727153730,3945,p,5.7,10.6,344.3,-65.9,13.4
397,584,2024-09-23 21:55:40,1727153740,3955,p,5.7,10.6,344.3,-65.9,13.4
398,585,2024-09-23 21:55:50,1727153750,3965,p,5.7,10.6,344.3,-65.9,13.4
399,586,2024-09-23 21:56:00,1727153760,3975,p,5.71,10.6,344.3,-65.9,13.4
400,587,2024-09-23 21:56:10,1727153770,3985,p,5.71,10.6,344.3,-65.9,13.4
401,588,2024-09-23 21:56:20,1727153780,3995,p,5.7,10.6,344.3,-65.9,13.4
402,589,2024-09-23 21:56:30,1727153790,4005,p,5.7,10.6,344.3,-65.9,13.4
403,590,2024-09-23 21:56:40,1727153800,4015,p,5.71,10.6,344.3,-65.9,13.3
404,591,2024-09-23 21:56:50,1727153810,4025,p,5.71,10.6,344.3,-65.9,13.3
405,592,2024-09-23 21:56:59,1727153819,4034,p,5.71,10.6,344.3,-65.9,13.3
406,593,2024-09-23 21:57:09,1727153829,4044,p,5.72,10.6,344.3,-65.9,13.3
407,594,2024-09-23 21:57:19,1727153839,4054,p,5.71,10.6,344.3,-65.9,13.3
408,595,2024-09-23 21:57:29,1727153849,4064,p,5.71,10.6,344.3,-65.9,13.3
409,596,2024-09-23 21:57:39,1727153859,4074,p,5.72,10.6,344.3,-65.9,13.3
410,597,2024-09-23 21:57:49,1727153869,4084,p,5.71,10.6,344.3,-65.9,13.3
411,598,2024-09-23 21:57:59,1727153879,4094,p,5.72,10.6,344.3,-65.9,13.3
412,599,2024-09-23 21:58:09,1727153889,4104,p,5.72,10.6,344.3,-65.9,13.3
413,600,2024-09-23 21:58:19,1727153899,4114,p,5.72,10.6,344.3,-65.9,13.3
414,601,2024-09-23 21:58:29,1727153909,4124,p,5.72,10.6,344.3,-65.9,13.3
415,602,2024-09-23 21:58:39,1727153919,4134,p,5.72,10.6,344.3,-65.9,13.3
416,603,2024-09-23 21:58:49,1727153929,4144,p,5.71,10.6,344.3,-65.9,13.3
417,604,2024-09-23 21:58:59,1727153939,4154,p,5.72,10.7,344.3,-65.9,13.3
418,605,2024-09-23 21:59:09,1727153949,4164,p,5.73,10.7,344.3,-65.9,13.3
419,606,2024-09-23 21:59:19,1727153959,4174,p,5.72,10.7,344.3,-65.9,13.3
420,607,2024-09-23 21:59:29,1727153969,4184,p,5.73,10.7,344.3,-65.9,13.3
421,608,2024-09-23 21:59:39,1727153979,4194,p,5.72,10.7,344.3,-65.9,13.3
422,609,2024-09-23 21:59:49,1727153989,4204,p,5.73,10.7,344.3,-65.9,13.3
423,610,2024-09-23 21:59:59,1727153999,4214,p,5.73,10.7,344.3,-65.9,13.3
424,611,2024-09-23 22:00:09,1727154009,4224,p,5.71,10.7,344.3,-65.9,13.3
425,612,2024-09-23 22:00:19,1727154019,4234,p,5.72,10.7,344.3,-65.9,13.3
426,613,2024-09-23 22:00:29,1727154029,4244,p,5.73,10.7,344.3,-65.9,13.3
427,614,2024-09-23 22:00:39,1727154039,4254,p,5.72,10.6,344.3,-65.9,13.3
428,615,2024-09-23 22:00:48,1727154048,4263,p,5.73,10.6,344.3,-65.9,13.3
429,616,2024-09-23 22:00:58,1727154058,4273,p,5.72,10.6,344.3,-65.9,13.3
430,617,2024-09-23 22:01:08,1727154068,4283,p,5.72,10.6,344.3,-65.9,13.3
431,618,2024-09-23 22:01:18,1727154078,4293,p,5.72,10.6,344.3,-65.9,13.3
432,619,2024-09-23 22:01:28,1727154088,4303,p,5.72,10.6,344.3,-65.9,13.3
433,620,2024-09-23 22:01:38,1727154098,4313,p,5.73,10.6,344.3,-65.9,13.3
434,621,2024-09-23 22:01:48,1727154108,4323,p,5.73,10.6,344.3,-65.9,13.3
435,622,2024-09-23 22:01:58,1727154118,4333,p,5.72,10.6,344.3,-65.9,13.3
436,623,2024-09-23 22:02:08,1727154128,4343,p,5.72,10.6,344.3,-65.9,13.3
437,624,2024-09-23 22:02:18,1727154138,4353,p,5.74,10.6,344.3,-65.9,13.3
438,625,2024-09-23 22:02:28,1727154148,4363,p,5.73,10.6,344.3,-65.9,13.3
439,626,2024-09-23 22:02:38,1727154158,4373,p,5.73,10.6,344.3,-65.9,13.3
440,627,2024-09-23 22:02:48,1727154168,4383,p,5.73,10.6,344.3,-65.9,13.3
441,628,2024-09-23 22:02:58,1727154178,4393,p,5.74,10.6,344.3,-65.9,13.3
442,629,2024-09-23 22:03:08,1727154188,4403,p,5.74,10.6,344.3,-65.9,13.3
443,630,2024-09-23 22:03:18,1727154198,4413,p,5.73,10.6,344.3,-65.9,13.3
444,631,2024-09-23 22:03:28,1727154208,4423,p,5.73,10.6,344.3,-65.9,13.3
445,632,2024-09-23 22:03:38,1727154218,4433,p,5.74,10.6,344.3,-65.9,13.3
446,633,2024-09-23 22:03:48,1727154228,4443,p,5.73,10.6,344.3,-65.9,13.3
447,634,2024-09-23 22:03:58,1727154238,4453,p,5.73,10.6,344.3,-65.9,13.3
448,635,2024-09-23 22:04:08,1727154248,4463,p,5.74,10.6,344.3,-65.9,13.3
449,636,2024-09-23 22:04:18,1727154258,4473,p,5.73,10.6,344.3,-65.9,13.3
450,637,2024-09-23 22:04:28,1727154268,4483,p,5.74,10.6,344.3,-65.9,13.3
451,638,2024-09-23 22:04:37,1727154277,4492,p,5.74,10.7,344.3,-65.9,13.3
452,639,2024-09-23 22:04:47,1727154287,4502,p,5.74,10.7,344.3,-65.9,13.3
453,640,2024-09-23 22:04:57,1727154297,4512,p,5.74,10.7,344.3,-65.9,13.3
454,641,2024-09-23 22:05:07,1727154307,4522,p,5.75,10.7,344.3,-65.9,13.3
455,642,2024-09-23 22:05:17,1727154317,4532,p,5.74,10.7,344.3,-65.9,13.3
456,643,2024-09-23 22:05:27,1727154327,4542,p,5.74,10.7,344.3,-65.9,13.3
457,644,2024-09-23 22:05:37,1727154337,4552,p,5.74,10.7,344.3,-65.9,13.3
458,645,2024-09-23 22:05:47,1727154347,4562,p,5.74,10.6,344.3,-65.9,13.3
459,646,2024-09-23 22:05:57,1727154357,4572,p,5.74,10.6,344.3,-65.9,13.3
460,647,2024-09-23 22:06:07,1727154367,4582,p,5.74,10.6,344.3,-65.9,13.3
461,648,2024-09-23 22:06:17,1727154377,4592,p,5.74,10.6,344.3,-65.9,13.3
462,649,2024-09-23 22:06:27,1727154387,4602,p,5.75,10.6,344.3,-65.9,13.3
463,650,2024-09-23 22:06:37,1727154397,4612,p,5.75,10.6,344.3,-65.9,13.3
464,651,2024-09-23 22:06:47,1727154407,4622,p,5.75,10.6,344.3,-65.9,13.3
465,652,2024-09-23 22:06:57,1727154417,4632,p,5.74,10.6,344.3,-65.9,13.3
466,653,2024-09-23 22:07:07,1727154427,4642,p,5.75,10.6,344.3,-65.9,13.3
467,654,2024-09-23 22:07:17,1727154437,4652,p,5.74,10.6,344.3,-65.9,13.3
468,655,2024-09-23 22:07:27,1727154447,4662,p,5.74,10.6,344.3,-65.9,13.3
469,656,2024-09-23 22:07:37,1727154457,4672,p,5.74,10.6,344.3,-65.9,13.3
470,657,2024-09-23 22:07:47,1727154467,4682,p,5.74,10.6,344.3,-65.9,13.3
471,658,2024-09-23 22:07:57,1727154477,4692,p,5.75,10.6,344.3,-65.9,13.3
472,659,2024-09-23 22:08:07,1727154487,4702,p,5.74,10.6,344.3,-65.9,13.3
473,660,2024-09-23 22:08:17,1727154497,4712,p,5.74,10.6,344.3,-65.9,13.3
474,661,2024-09-23 22:08:26,1727154506,4721,p,5.74,10.6,344.3,-65.9,13.3
475,662,2024-09-23 22:08:36,1727154516,4731,p,5.74,10.6,344.3,-65.9,13.3
476,663,2024-09-23 22:08:46,1727154526,4741,p,5.74,10.6,344.3,-65.9,13.3
477,664,2024-09-23 22:08:56,1727154536,4751,p,5.75,10.6,344.3,-65.9,13.3
478,665,2024-09-23 22:09:06,1727154546,4761,p,5.74,10.6,344.3,-65.9,13.3
479,666,2024-09-23 22:09:16,1727154556,4771,p,5.74,10.6,344.3,-65.9,13.3
480,667,2024-09-23 22:09:26,1727154566,4781,p,5.74,10.6,344.3,-65.9,13.3
481,668,2024-09-23 22:09:36,1727154576,4791,p,5.74,10.6,344.3,-65.9,13.3
482,669,2024-09-23 22:09:46,1727154586,4801,p,5.75,10.6,344.3,-65.9,13.3
483,670,2024-09-23 22:09:56,1727154596,4811,p,5.75,10.6,344.3,-65.9,13.3
484,671,2024-09-23 22:10:06,1727154606,4821,p,5.75,10.6,344.3,-65.9,13.3
485,672,2024-09-23 22:10:16,1727154616,4831,p,5.74,10.6,344.3,-65.9,13.3
486,673,2024-09-23 22:10:26,1727154626,4841,p,5.75,10.6,344.3,-65.9,13.3
487,674,2024-09-23 22:10:36,1727154636,4851,p,5.75,10.6,344.3,-65.9,13.3
488,675,2024-09-23 22:10:46,1727154646,4861,p,5.76,10.7,344.3,-65.9,13.3
489,676,2024-09-23 22:10:56,1727154656,4871,p,5.75,10.7,344.3,-65.9,13.3
490,677,2024-09-23 22:11:06,1727154666,4881,p,5.75,10.7,344.3,-65.9,13.3
491,678,2024-09-23 22:11:16,1727154676,4891,p,5.76,10.6,344.3,-65.9,13.3
492,679,2024-09-23 22:11:26,1727154686,4901,p,5.75,10.6,344.3,-65.9,13.3
493,680,2024-09-23 22:11:36,1727154696,4911,p,5.75,10.6,344.3,-65.9,13.3
494,681,2024-09-23 22:11:46,1727154706,4921,p,5.75,10.6,344.3,-65.9,13.3
495,682,2024-09-23 22:11:56,1727154716,4931,p,5.76,10.6,344.3,-65.9,13.3
496,683,2024-09-23 22:12:05,1727154725,4940,p,5.76,10.6,344.3,-65.9,13.3
497,684,2024-09-23 22:12:15,1727154735,4950,p,5.75,10.6,344.3,-65.9,13.3
498,685,2024-09-23 22:12:25,1727154745,4960,p,5.75,10.6,344.3,-65.9,13.3
499,686,2024-09-23 22:12:35,1727154755,4970,p,5.75,10.6,344.3,-65.9,13.3
500,687,2024-09-23 22:12:45,1727154765,4980,p,5.76,10.6,344.3,-65.9,13.3
501,688,2024-09-23 22:12:55,1727154775,4990,p,5.76,10.6,344.3,-65.9,13.3
502,689,2024-09-23 22:13:05,1727154785,5000,p,5.76,10.6,344.3,-65.9,13.3
503,690,2024-09-23 22:13:15,1727154795,5010,p,5.76,10.6,344.3,-65.9,13.3
504,691,2024-09-23 22:13:25,1727154805,5020,p,5.76,10.7,344.3,-65.9,13.3
505,692,2024-09-23 22:13:35,1727154815,5030,p,5.77,10.7,344.3,-65.9,13.3
506,693,2024-09-23 22:13:45,1727154825,5040,p,5.77,10.7,344.3,-65.9,13.3
507,694,2024-09-23 22:13:55,1727154835,5050,p,5.76,10.7,344.3,-65.9,13.3
508,695,2024-09-23 22:14:05,1727154845,5060,p,5.76,10.7,344.3,-65.9,13.3
509,696,2024-09-23 22:14:15,1727154855,5070,p,5.77,10.7,344.3,-65.9,13.3
510,697,2024-09-23 22:14:25,1727154865,5080,p,5.77,10.7,344.3,-65.9,13.3
511,698,2024-09-23 22:14:35,1727154875,5090,p,5.76,10.7,344.3,-65.9,13.3
512,699,2024-09-23 22:14:45,1727154885,5100,p,5.77,10.7,344.3,-65.9,13.3
513,700,2024-09-23 22:14:55,1727154895,5110,p,5.76,10.7,344.3,-65.9,13.3
514,701,2024-09-23 22:15:05,1727154905,5120,p,5.76,10.7,344.3,-65.9,13.3
515,702,2024-09-23 22:15:15,1727154915,5130,p,5.76,10.7,344.3,-65.9,13.3
516,703,2024-09-23 22:15:25,1727154925,5140,p,5.76,10.7,344.3,-65.9,13.3
517,704,2024-09-23 22:15:35,1727154935,5150,p,5.76,10.7,344.3,-65.9,13.3
518,705,2024-09-23 22:15:44,1727154944,5159,p,5.77,10.7,344.3,-65.9,13.3
519,706,2024-09-23 22:15:54,1727154954,5169,p,5.76,10.7,344.3,-65.9,13.3
520,707,2024-09-23 22:16:04,1727154964,5179,p,5.76,10.7,344.3,-65.9,13.3
521,708,2024-09-23 22:16:14,1727154974,5189,p,5.76,10.7,344.3,-65.9,13.3
522,709,2024-09-23 22:16:24,1727154984,5199,p,5.77,10.7,344.3,-65.9,13.3
523,710,2024-09-23 22:16:34,1727154994,5209,p,5.76,10.7,344.3,-65.9,13.3
524,711,2024-09-23 22:16:44,1727155004,5219,p,5.76,10.7,344.3,-65.9,13.3
525,712,2024-09-23 22:16:54,1727155014,5229,p,5.77,10.7,344.3,-65.9,13.3
526,713,2024-09-23 22:17:04,1727155024,5239,p,5.77,10.7,344.3,-65.9,13.3
527,714,2024-09-23 22:17:14,1727155034,5249,p,5.77,10.7,344.3,-65.9,13.3
528,715,2024-09-23 22:17:24,1727155044,5259,p,5.77,10.7,344.3,-65.9,13.3
529,716,2024-09-23 22:17:34,1727155054,5269,p,5.77,10.7,344.3,-65.9,13.3
530,717,2024-09-23 22:17:44,1727155064,5279,p,5.77,10.7,344.3,-65.9,13.3
531,718,2024-09-23 22:17:54,1727155074,5289,p,5.77,10.7,344.3,-65.9,13.3
532,719,2024-09-23 22:18:04,1727155084,5299,p,5.77,10.7,344.3,-65.9,13.3
533,720,2024-09-23 22:18:14,1727155094,5309,p,5.77,10.7,344.3,-65.9,13.3
534,721,2024-09-23 22:18:24,1727155104,5319,p,5.76,10.7,344.3,-65.9,13.3
535,722,2024-09-23 22:18:34,1727155114,5329,p,5.77,10.7,344.3,-65.9,13.3
536,723,2024-09-23 22:18:44,1727155124,5339,p,5.78,10.7,344.3,-65.9,13.3
537,724,2024-09-23 22:18:54,1727155134,5349,p,5.78,10.7,344.3,-65.9,13.3
538,725,2024-09-23 22:19:04,1727155144,5359,p,5.77,10.7,344.3,-65.9,13.3
539,726,2024-09-23 22:19:14,1727155154,5369,p,5.78,10.7,344.3,-65.9,13.3
540,727,2024-09-23 22:19:24,1727155164,5379,p,5.79,10.7,344.3,-65.9,13.3
541,728,2024-09-23 22:19:33,1727155173,5388,p,5.78,10.7,344.3,-65.9,13.3
542,729,2024-09-23 22:19:43,1727155183,5398,p,5.78,10.7,344.3,-65.9,13.3
543,730,2024-09-23 22:19:53,1727155193,5408,p,5.78,10.7,344.3,-65.9,13.3
544,731,2024-09-23 22:20:03,1727155203,5418,p,5.78,10.7,344.3,-65.9,13.3
545,732,2024-09-23 22:20:13,1727155213,5428,p,5.78,10.7,344.3,-65.9,13.3
546,733,2024-09-23 22:20:23,1727155223,5438,p,5.78,10.7,344.3,-65.9,13.3
547,734,2024-09-23 22:20:33,1727155233,5448,p,5.78,10.7,344.3,-65.9,13.3
548,735,2024-09-23 22:20:43,1727155243,5458,p,5.79,10.7,344.3,-65.9,13.3
549,736,2024-09-23 22:20:53,1727155253,5468,p,5.78,10.7,344.3,-65.9,13.3
550,737,2024-09-23 22:21:03,1727155263,5478,p,5.78,10.7,344.3,-65.9,13.3
551,738,2024-09-23 22:21:13,1727155273,5488,p,5.79,10.7,344.3,-65.9,13.3
552,739,2024-09-23 22:21:23,1727155283,5498,p,5.8,10.7,344.3,-65.9,13.3
553,740,2024-09-23 22:21:33,1727155293,5508,p,5.79,10.7,344.3,-65.9,13.3
554,741,2024-09-23 22:21:43,1727155303,5518,p,5.77,10.7,344.3,-65.9,13.3
555,742,2024-09-23 22:21:53,1727155313,5528,p,5.79,10.7,344.3,-65.9,13.3
556,743,2024-09-23 22:22:03,1727155323,5538,p,5.78,10.7,344.3,-65.9,13.3
557,744,2024-09-23 22:22:13,1727155333,5548,p,5.79,10.7,344.3,-65.9,13.3
558,745,2024-09-23 22:22:23,1727155343,5558,p,5.78,10.7,344.3,-65.9,13.3
559,746,2024-09-23 22:22:33,1727155353,5568,p,5.78,10.7,344.3,-65.9,13.3
560,747,2024-09-23 22:22:43,1727155363,5578,p,5.79,10.7,344.3,-65.9,13.3
561,748,2024-09-23 22:22:53,1727155373,5588,p,5.78,10.7,344.3,-65.9,13.3
562,749,2024-09-23 22:23:03,1727155383,5598,p,5.78,10.7,344.3,-65.9,13.3
563,750,2024-09-23 22:23:13,1727155393,5608,p,5.79,10.7,344.3,-65.9,13.3
564,751,2024-09-23 22:23:22,1727155402,5617,p,5.78,10.7,344.3,-65.9,13.3
565,752,2024-09-23 22:23:32,1727155412,5627,p,5.79,10.7,344.3,-65.9,13.3
566,753,2024-09-23 22:23:42,1727155422,5637,p,5.79,10.7,344.3,-65.9,13.3
567,754,2024-09-23 22:23:52,1727155432,5647,p,5.79,10.7,344.3,-65.9,13.3
568,755,2024-09-23 22:24:02,1727155442,5657,p,5.79,10.7,344.3,-65.9,13.3
569,756,2024-09-23 22:24:12,1727155452,5667,p,5.8,10.7,344.3,-65.9,13.3
570,757,2024-09-23 22:24:22,1727155462,5677,p,5.79,10.7,344.3,-65.9,13.3
571,758,2024-09-23 22:24:32,1727155472,5687,p,5.79,10.7,344.3,-65.9,13.3
572,759,2024-09-23 22:24:42,1727155482,5697,p,5.79,10.7,344.3,-65.9,13.3
573,760,2024-09-23 22:24:52,1727155492,5707,p,5.79,10.7,344.3,-65.9,13.3
574,761,2024-09-23 22:25:02,1727155502,5717,p,5.79,10.7,344.3,-65.9,13.3
575,762,2024-09-23 22:25:12,1727155512,5727,p,5.79,10.7,344.3,-65.9,13.3
576,763,2024-09-23 22:25:22,1727155522,5737,p,5.79,10.7,344.3,-65.9,13.3
577,764,2024-09-23 22:25:32,1727155532,5747,p,5.79,10.7,344.3,-65.9,13.3
578,765,2024-09-23 22:25:42,1727155542,5757,p,5.78,10.7,344.3,-65.9,13.3
579,766,2024-09-23 22:25:52,1727155552,5767,p,5.8,10.7,344.3,-65.9,13.3
580,767,2024-09-23 22:26:02,1727155562,5777,p,5.8,10.7,344.3,-65.9,13.3
581,768,2024-09-23 22:26:12,1727155572,5787,p,5.79,10.7,344.3,-65.9,13.3
582,769,2024-09-23 22:26:22,1727155582,5797,p,5.79,10.7,344.3,-65.9,13.3
583,770,2024-09-23 22:26:32,1727155592,5807,p,5.79,10.7,344.3,-65.9,13.3
584,771,2024-09-23 22:26:42,1727155602,5817,p,5.8,10.7,344.3,-65.9,13.3
585,772,2024-09-23 22:26:52,1727155612,5827,p,5.79,10.7,344.3,-65.9,13.3
586,773,2024-09-23 22:27:01,1727155621,5836,p,5.79,10.7,344.3,-65.9,13.3
587,774,2024-09-23 22:27:11,1727155631,5846,p,5.8,10.7,344.3,-65.9,13.3
588,775,2024-09-23 22:27:21,1727155641,5856,p,5.79,10.7,344.3,-65.9,13.3
589,776,2024-09-23 22:27:31,1727155651,5866,p,5.79,10.7,344.3,-65.9,13.3
590,777,2024-09-23 22:27:41,1727155661,5876,p,5.8,10.7,344.3,-65.9,13.3
591,778,2024-09-23 22:27:51,1727155671,5886,p,5.79,10.7,344.3,-65.9,13.3
592,779,2024-09-23 22:28:01,1727155681,5896,p,5.8,10.7,344.3,-65.9,13.3
593,780,2024-09-23 22:28:11,1727155691,5906,p,5.8,10.7,344.3,-65.9,13.3
594,781,2024-09-23 22:28:21,1727155701,5916,p,5.79,10.7,344.3,-65.9,13.3
595,782,2024-09-23 22:28:31,1727155711,5926,p,5.8,10.7,344.3,-65.9,13.3
596,783,2024-09-23 22:28:41,1727155721,5936,p,5.8,10.7,344.3,-65.9,13.3
597,784,2024-09-23 22:28:51,1727155731,5946,p,5.8,10.7,344.3,-65.9,13.3
598,785,2024-09-23 22:29:01,1727155741,5956,p,5.79,10.7,344.3,-65.9,13.3
599,786,2024-09-23 22:29:11,1727155751,5966,p,5.8,10.7,344.3,-65.9,13.3
600,787,2024-09-23 22:29:21,1727155761,5976,p,5.81,10.7,344.3,-65.9,13.3
601,788,2024-09-23 22:29:31,1727155771,5986,p,5.81,10.7,344.2,-65.9,13.2
602,789,2024-09-23 22:29:41,1727155781,5996,p,5.81,10.7,344.2,-65.9,13.2
603,790,2024-09-23 22:29:51,1727155791,6006,p,5.8,10.7,344.2,-65.9,13.2
604,791,2024-09-23 22:30:01,1727155801,6016,p,5.81,10.7,344.2,-65.9,13.2
605,792,2024-09-23 22:30:11,1727155811,6026,p,5.81,10.7,344.2,-65.9,13.2
606,793,2024-09-23 22:30:21,1727155821,6036,p,5.8,10.7,344.2,-65.9,13.2
607,794,2024-09-23 22:30:31,1727155831,6046,p,5.8,10.7,344.2,-65.9,13.2
608,795,2024-09-23 22:30:41,1727155841,6056,p,5.8,10.7,344.2,-65.9,13.2
609,796,2024-09-23 22:30:50,1727155850,6065,p,5.81,10.7,344.2,-65.9,13.2
610,797,2024-09-23 22:31:00,1727155860,6075,p,5.79,10.7,344.2,-65.9,13.2
611,798,2024-09-23 22:31:10,1727155870,6085,p,5.8,10.7,344.2,-65.9,13.2
612,799,2024-09-23 22:31:20,1727155880,6095,p,5.8,10.7,344.2,-65.9,13.2
613,800,2024-09-23 22:31:30,1727155890,6105,p,5.8,10.7,344.2,-65.9,13.2
614,801,2024-09-23 22:31:40,1727155900,6115,p,5.79,10.7,344.2,-65.9,13.2
615,802,2024-09-23 22:31:50,1727155910,6125,p,5.8,10.7,344.2,-65.9,13.2
616,803,2024-09-23 22:32:00,1727155920,6135,p,5.8,10.7,344.2,-65.9,13.2
617,804,2024-09-23 22:32:10,1727155930,6145,p,5.81,10.7,344.2,-65.9,13.2
618,805,2024-09-23 22:32:20,1727155940,6155,p,5.81,10.7,344.2,-65.9,13.2
619,806,2024-09-23 22:32:30,1727155950,6165,p,5.81,10.7,344.2,-65.9,13.2
620,807,2024-09-23 22:32:40,1727155960,6175,p,5.82,10.7,344.2,-65.9,13.2
621,808,2024-09-23 22:32:50,1727155970,6185,p,5.81,10.7,344.2,-65.9,13.2
622,809,2024-09-23 22:33:00,1727155980,6195,p,5.81,10.7,344.2,-65.9,13.2
623,810,2024-09-23 22:33:10,1727155990,6205,p,5.81,10.7,344.2,-65.9,13.2
624,811,2024-09-23 22:33:20,1727156000,6215,p,5.81,10.7,344.2,-65.9,13.2
625,812,2024-09-23 22:33:30,1727156010,6225,p,5.81,10.7,344.2,-65.9,13.2
626,813,2024-09-23 22:33:40,1727156020,6235,p,5.8,10.7,344.2,-65.9,13.2
627,814,2024-09-23 22:33:50,1727156030,6245,p,5.8,10.7,344.2,-65.9,13.2
628,815,2024-09-23 22:34:00,1727156040,6255,p,5.81,10.7,344.2,-65.9,13.2
629,816,2024-09-23 22:34:10,1727156050,6265,p,5.81,10.7,344.2,-65.9,13.2
630,817,2024-09-23 22:34:20,1727156060,6275,p,5.81,10.7,344.2,-65.9,13.2
631,818,2024-09-23 22:34:30,1727156070,6285,p,5.81,10.7,344.2,-65.9,13.2
632,819,2024-09-23 22:34:39,1727156079,6294,p,5.8,10.7,344.2,-65.9,13.2
633,820,2024-09-23 22:34:49,1727156089,6304,p,5.8,10.7,344.2,-65.9,13.2
634,821,2024-09-23 22:34:59,1727156099,6314,p,5.8,10.7,344.2,-65.9,13.2
635,822,2024-09-23 22:35:09,1727156109,6324,p,5.8,10.7,344.2,-65.9,13.2
636,823,2024-09-23 22:35:19,1727156119,6334,p,5.81,10.7,344.2,-65.9,13.2
637,824,2024-09-23 22:35:29,1727156129,6344,p,5.81,10.7,344.2,-65.9,13.2
638,825,2024-09-23 22:35:39,1727156139,6354,p,5.82,10.7,344.2,-65.9,13.2
639,826,2024-09-23 22:35:49,1727156149,6364,p,5.81,10.7,344.2,-65.9,13.2
640,827,2024-09-23 22:35:59,1727156159,6374,p,5.82,10.7,344.2,-65.9,13.2
641,828,2024-09-23 22:36:09,1727156169,6384,p,5.82,10.7,344.2,-65.9,13.2
642,829,2024-09-23 22:36:19,1727156179,6394,p,5.82,10.7,344.2,-65.9,13.2
643,830,2024-09-23 22:36:29,1727156189,6404,p,5.82,10.7,344.2,-65.9,13.2
644,831,2024-09-23 22:36:39,1727156199,6414,p,5.81,10.7,344.2,-65.9,13.2
645,832,2024-09-23 22:36:49,1727156209,6424,p,5.81,10.7,344.2,-65.9,13.2
646,833,2024-09-23 22:36:59,1727156219,6434,p,5.81,10.7,344.2,-65.9,13.2
647,834,2024-09-23 22:37:09,1727156229,6444,p,5.82,10.7,344.2,-65.9,13.2
648,835,2024-09-23 22:37:19,1727156239,6454,p,5.81,10.7,344.2,-65.9,13.2
649,836,2024-09-23 22:37:29,1727156249,6464,p,5.81,10.7,344.2,-65.9,13.2
650,837,2024-09-23 22:37:39,1727156259,6474,p,5.82,10.7,344.2,-65.9,13.2
651,838,2024-09-23 22:37:49,1727156269,6484,p,5.83,10.7,344.2,-65.9,13.2
652,839,2024-09-23 22:37:59,1727156279,6494,p,5.81,10.7,344.2,-65.9,13.2
653,840,2024-09-23 22:38:09,1727156289,6504,p,5.82,10.7,344.2,-65.9,13.2
654,841,2024-09-23 22:38:18,1727156298,6513,p,5.83,10.7,344.2,-65.9,13.2
655,842,2024-09-23 22:38:28,1727156308,6523,p,5.82,10.7,344.2,-65.9,13.2
656,843,2024-09-23 22:38:38,1727156318,6533,p,5.83,10.7,344.2,-65.9,13.2
657,844,2024-09-23 22:38:48,1727156328,6543,p,5.82,10.7,344.2,-65.9,13.2
658,845,2024-09-23 22:38:58,1727156338,6553,p,5.82,10.7,344.2,-65.9,13.2
659,846,2024-09-23 22:39:08,1727156348,6563,p,5.83,10.7,344.2,-65.9,13.2
660,847,2024-09-23 22:39:18,1727156358,6573,p,5.82,10.7,344.2,-65.9,13.2
661,848,2024-09-23 22:39:28,1727156368,6583,p,5.82,10.7,344.2,-65.9,13.2
662,849,2024-09-23 22:39:38,1727156378,6593,p,5.82,10.7,344.2,-65.9,13.2
663,850,2024-09-23 22:39:48,1727156388,6603,p,5.82,10.7,344.2,-65.9,13.2
664,851,2024-09-23 22:39:58,1727156398,6613,p,5.82,10.7,344.2,-65.9,13.2
665,852,2024-09-23 22:40:08,1727156408,6623,p,5.82,10.7,344.2,-65.9,13.2
666,853,2024-09-23 22:40:18,1727156418,6633,p,5.82,10.7,344.2,-65.9,13.2
667,854,2024-09-23 22:40:28,1727156428,6643,p,5.83,10.7,344.2,-65.9,13.2
668,855,2024-09-23 22:40:38,1727156438,6653,p,5.81,10.7,344.2,-65.9,13.2
669,856,2024-09-23 22:40:48,1727156448,6663,p,5.81,10.7,344.2,-65.9,13.2
670,857,2024-09-23 22:40:58,1727156458,6673,p,5.82,10.7,344.2,-65.9,13.2
671,858,2024-09-23 22:41:08,1727156468,6683,p,5.81,10.7,344.2,-65.9,13.2
672,859,2024-09-23 22:41:18,1727156478,6693,p,5.82,10.7,344.2,-65.9,13.2
673,860,2024-09-23 22:41:28,1727156488,6703,p,5.81,10.7,344.2,-65.9,13.2
674,861,2024-09-23 22:41:38,1727156498,6713,p,5.81,10.7,344.2,-65.9,13.2
675,862,2024-09-23 22:41:48,1727156508,6723,p,5.83,10.7,344.2,-65.9,13.2
676,863,2024-09-23 22:41:58,1727156518,6733,p,5.82,10.7,344.2,-65.9,13.2
677,864,2024-09-23 22:42:07,1727156527,6742,p,5.82,10.7,344.2,-65.9,13.2
678,865,2024-09-23 22:42:17,1727156537,6752,p,5.84,10.7,344.2,-65.9,13.2
679,866,2024-09-23 22:42:27,1727156547,6762,p,5.82,10.7,344.2,-65.9,13.2
680,867,2024-09-23 22:42:37,1727156557,6772,p,5.82,10.7,344.2,-65.9,13.2
681,868,2024-09-23 22:42:47,1727156567,6782,p,5.83,10.7,344.2,-65.9,13.2
682,869,2024-09-23 22:42:57,1727156577,6792,p,5.83,10.7,344.2,-65.9,13.2
683,870,2024-09-23 22:43:07,1727156587,6802,p,5.82,10.7,344.2,-65.9,13.2
684,871,2024-09-23 22:43:17,1727156597,6812,p,5.83,10.7,344.2,-65.9,13.2
685,872,2024-09-23 22:43:27,1727156607,6822,p,5.83,10.7,344.2,-65.9,13.2
686,873,2024-09-23 22:43:37,1727156617,6832,p,5.82,10.7,344.2,-65.9,13.2
687,874,2024-09-23 22:43:47,1727156627,6842,p,5.82,10.7,344.2,-65.9,13.2
688,875,2024-09-23 22:43:57,1727156637,6852,p,5.83,10.7,344.2,-65.9,13.2
689,876,2024-09-23 22:44:07,1727156647,6862,p,5.83,10.7,344.2,-65.9,13.2
690,877,2024-09-23 22:44:17,1727156657,6872,p,5.83,10.7,344.2,-65.9,13.2
691,878,2024-09-23 22:44:27,1727156667,6882,p,5.82,10.7,344.2,-65.9,13.2
692,879,2024-09-23 22:44:37,1727156677,6892,p,5.82,10.7,344.2,-65.9,13.2
693,880,2024-09-23 22:44:47,1727156687,6902,p,5.83,10.7,344.2,-65.9,13.2
694,881,2024-09-23 22:44:57,1727156697,6912,p,5.82,10.7,344.2,-65.9,13.2
695,882,2024-09-23 22:45:07,1727156707,6922,p,5.84,10.7,344.2,-65.9,13.2
696,883,2024-09-23 22:45:17,1727156717,6932,p,5.83,10.7,344.2,-65.9,13.2
697,884,2024-09-23 22:45:27,1727156727,6942,p,5.82,10.7,344.2,-65.9,13.2
698,885,2024-09-23 22:45:37,1727156737,6952,p,5.83,10.7,344.2,-65.9,13.2
699,886,2024-09-23 22:45:47,1727156747,6962,p,5.84,10.7,344.2,-65.9,13.2
700,887,2024-09-23 22:45:56,1727156756,6971,p,5.82,10.7,344.2,-65.9,13.2
701,888,2024-09-23 22:46:06,1727156766,6981,p,5.82,10.7,344.2,-65.9,13.2
702,889,2024-09-23 22:46:16,1727156776,6991,p,5.83,10.7,344.2,-65.9,13.2
703,890,2024-09-23 22:46:26,1727156786,7001,p,5.82,10.7,344.2,-65.9,13.2
704,891,2024-09-23 22:46:36,1727156796,7011,p,5.83,10.7,344.2,-65.9,13.2
705,892,2024-09-23 22:46:46,1727156806,7021,p,5.83,10.7,344.2,-65.9,13.2
706,893,2024-09-23 22:46:56,1727156816,7031,p,5.82,10.7,344.2,-65.9,13.2
707,894,2024-09-23 22:47:06,1727156826,7041,p,5.82,10.7,344.2,-65.9,13.2
708,895,2024-09-23 22:47:16,1727156836,7051,p,5.82,10.7,344.2,-65.9,13.2
709,896,2024-09-23 22:47:26,1727156846,7061,p,5.82,10.7,344.2,-65.9,13.2
710,897,2024-09-23 22:47:36,1727156856,7071,p,5.83,10.7,344.2,-65.9,13.2
711,898,2024-09-23 22:47:46,1727156866,7081,p,5.83,10.7,344.2,-65.9,13.2
712,899,2024-09-23 22:47:56,1727156876,7091,p,5.83,10.7,344.2,-65.9,13.2
713,900,2024-09-23 22:48:06,1727156886,7101,p,5.83,10.7,344.2,-65.9,13.2
714,901,2024-09-23 22:48:16,1727156896,7111,p,5.83,10.7,344.2,-65.9,13.2
715,902,2024-09-23 22:48:26,1727156906,7121,p,5.83,10.7,344.2,-65.9,13.2
716,903,2024-09-23 22:48:36,1727156916,7131,p,5.83,10.7,344.2,-65.9,13.2
717,904,2024-09-23 22:48:46,1727156926,7141,p,5.83,10.7,344.2,-65.9,13.2
718,905,2024-09-23 22:48:56,1727156936,7151,p,5.84,10.7,344.2,-65.9,13.2
719,906,2024-09-23 22:49:06,1727156946,7161,p,5.83,10.7,344.2,-65.9,13.2
720,907,2024-09-23 22:49:16,1727156956,7171,p,5.84,10.7,344.2,-65.9,13.2
721,908,2024-09-23 22:49:26,1727156966,7181,p,5.84,10.7,344.2,-65.9,13.2
722,909,2024-09-23 22:49:35,1727156975,7190,p,5.84,10.7,344.2,-65.9,13.2
723,910,2024-09-23 22:49:45,1727156985,7200,p,5.84,10.7,344.2,-65.9,13.2
724,911,2024-09-23 22:49:55,1727156995,7210,p,5.84,10.7,344.2,-65.9,13.2
725,912,2024-09-23 22:50:05,1727157005,7220,p,5.84,10.7,344.2,-65.9,13.2
726,913,2024-09-23 22:50:15,1727157015,7230,p,5.84,10.7,344.2,-65.9,13.2
727,914,2024-09-23 22:50:25,1727157025,7240,p,5.83,10.7,344.2,-65.9,13.2
728,915,2024-09-23 22:50:35,1727157035,7250,p,5.85,10.7,344.2,-65.9,13.2
729,916,2024-09-23 22:50:45,1727157045,7260,p,5.84,10.7,344.2,-65.9,13.2
730,917,2024-09-23 22:50:55,1727157055,7270,p,5.84,10.7,344.2,-65.9,13.2
731,918,2024-09-23 22:51:05,1727157065,7280,p,5.83,10.7,344.2,-65.9,13.2
732,919,2024-09-23 22:51:15,1727157075,7290,p,5.84,10.7,344.2,-65.9,13.1
733,920,2024-09-23 22:51:25,1727157085,7300,p,5.84,10.7,344.2,-65.9,13.1
734,921,2024-09-23 22:51:35,1727157095,7310,p,5.84,10.7,344.2,-65.9,13.1
735,922,2024-09-23 22:51:45,1727157105,7320,p,5.84,10.7,344.2,-65.9,13.1
736,923,2024-09-23 22:51:55,1727157115,7330,p,5.83,10.7,344.2,-65.9,13.1
737,924,2024-09-23 22:52:05,1727157125,7340,p,5.83,10.7,344.2,-65.9,13.1
738,925,2024-09-23 22:52:15,1727157135,7350,p,5.83,10.7,344.2,-65.9,13.1
739,926,2024-09-23 22:52:25,1727157145,7360,p,5.83,10.7,344.2,-65.9,13.1
740,927,2024-09-23 22:52:35,1727157155,7370,p,5.83,10.7,344.2,-65.9,13.1
741,928,2024-09-23 22:52:45,1727157165,7380,p,5.84,10.7,344.2,-65.9,13.1
742,929,2024-09-23 22:52:55,1727157175,7390,p,5.83,10.7,344.2,-65.9,13.1
743,930,2024-09-23 22:53:05,1727157185,7400,p,5.84,10.7,344.2,-65.9,13.1
744,931,2024-09-23 22:53:15,1727157195,7410,p,5.84,10.7,344.2,-65.9,13.1
745,932,2024-09-23 22:53:24,1727157204,7419,p,5.84,10.7,344.2,-65.9,13.1
746,933,2024-09-23 22:53:34,1727157214,7429,p,5.84,10.7,344.2,-65.9,13.1
747,934,2024-09-23 22:53:44,1727157224,7439,p,5.84,10.7,344.2,-65.9,13.1
748,935,2024-09-23 22:53:54,1727157234,7449,p,5.85,10.7,344.2,-65.9,13.1
749,936,2024-09-23 22:54:04,1727157244,7459,p,5.84,10.7,344.2,-65.9,13.1
750,937,2024-09-23 22:54:14,1727157254,7469,p,5.84,10.7,344.2,-65.9,13.1
751,938,2024-09-23 22:54:24,1727157264,7479,p,5.84,10.7,344.2,-65.9,13.1
752,939,2024-09-23 22:54:34,1727157274,7489,p,5.85,10.7,344.2,-65.9,13.1
753,940,2024-09-23 22:54:44,1727157284,7499,p,5.85,10.7,344.2,-65.9,13.1
754,941,2024-09-23 22:54:54,1727157294,7509,p,5.84,10.7,344.2,-65.9,13.1
755,942,2024-09-23 22:55:04,1727157304,7519,p,5.84,10.7,344.2,-65.9,13.1
756,943,2024-09-23 22:55:14,1727157314,7529,p,5.84,10.7,344.2,-65.9,13.1
757,944,2024-09-23 22:55:24,1727157324,7539,p,5.85,10.7,344.2,-65.9,13.1
758,945,2024-09-23 22:55:34,1727157334,7549,p,5.85,10.7,344.2,-65.9,13.1
759,946,2024-09-23 22:55:44,1727157344,7559,p,5.85,10.7,344.2,-65.9,13.1
760,947,2024-09-23 22:55:54,1727157354,7569,p,5.84,10.7,344.2,-65.9,13.1
761,948,2024-09-23 22:56:04,1727157364,7579,p,5.85,10.7,344.2,-65.9,13.1
762,949,2024-09-23 22:56:14,1727157374,7589,p,5.85,10.7,344.2,-65.9,13.1
763,950,2024-09-23 22:56:24,1727157384,7599,p,5.84,10.7,344.2,-65.9,13.1
764,951,2024-09-23 22:56:34,1727157394,7609,p,5.85,10.7,344.2,-65.9,13.1
765,952,2024-09-23 22:56:44,1727157404,7619,p,5.85,10.7,344.2,-65.9,13.1
766,953,2024-09-23 22:56:54,1727157414,7629,p,5.85,10.7,344.2,-65.9,13.1
767,954,2024-09-23 22:57:04,1727157424,7639,p,5.85,10.7,344.2,-65.9,13.1
768,955,2024-09-23 22:57:13,1727157433,7648,p,5.85,10.7,344.2,-65.9,13.1
769,956,2024-09-23 22:57:23,1727157443,7658,p,5.84,10.7,344.2,-65.9,13.1
770,957,2024-09-23 22:57:33,1727157453,7668,p,5.85,10.7,344.2,-65.9,13.1
771,958,2024-09-23 22:57:43,1727157463,7678,p,5.85,10.7,344.2,-65.9,13.1
772,959,2024-09-23 22:57:53,1727157473,7688,p,5.85,10.8,344.2,-65.9,13.1
773,960,2024-09-23 22:58:03,1727157483,7698,p,5.85,10.8,344.2,-65.9,13.1
774,961,2024-09-23 22:58:13,1727157493,7708,p,5.85,10.8,344.2,-65.9,13.1
775,962,2024-09-23 22:58:23,1727157503,7718,p,5.85,10.8,344.2,-65.9,13.1
776,963,2024-09-23 22:58:33,1727157513,7728,p,5.85,10.7,344.2,-65.9,13.1
777,964,2024-09-23 22:58:43,1727157523,7738,p,5.85,10.8,344.2,-65.9,13.1
778,965,2024-09-23 22:58:53,1727157533,7748,p,5.85,10.7,344.2,-65.9,13.1
779,966,2024-09-23 22:59:03,1727157543,7758,p,5.85,10.7,344.2,-65.9,13.1
780,967,2024-09-23 22:59:13,1727157553,7768,p,5.85,10.7,344.2,-65.9,13.1
781,968,2024-09-23 22:59:23,1727157563,7778,p,5.85,10.7,344.2,-65.9,13.1
782,969,2024-09-23 22:59:33,1727157573,7788,p,5.85,10.7,344.2,-65.9,13.1
783,970,2024-09-23 22:59:43,1727157583,7798,p,5.85,10.7,344.2,-65.9,13.1
784,971,2024-09-23 22:59:53,1727157593,7808,p,5.84,10.7,344.2,-65.9,13.1
785,972,2024-09-23 23:00:03,1727157603,7818,p,5.85,10.7,344.2,-65.9,13.1
786,973,2024-09-23 23:00:13,1727157613,7828,p,5.84,10.8,344.2,-65.9,13.1
787,974,2024-09-23 23:00:23,1727157623,7838,p,5.84,10.8,344.2,-65.9,13.1
788,975,2024-09-23 23:00:33,1727157633,7848,p,5.85,10.8,344.2,-65.9,13.1
789,976,2024-09-23 23:00:43,1727157643,7858,p,5.84,10.8,344.2,-65.9,13.1
790,977,2024-09-23 23:00:52,1727157652,7867,p,5.84,10.8,344.2,-65.9,13.1
791,978,2024-09-23 23:01:02,1727157662,7877,p,5.84,10.8,344.2,-65.9,13.1
792,979,2024-09-23 23:01:12,1727157672,7887,p,5.86,10.8,344.2,-65.9,13.1
793,980,2024-09-23 23:01:22,1727157682,7897,p,5.86,10.8,344.2,-65.9,13.1
794,981,2024-09-23 23:01:32,1727157692,7907,p,5.85,10.8,344.2,-65.9,13.1
795,982,2024-09-23 23:01:42,1727157702,7917,p,5.85,10.8,344.2,-65.9,13.1
796,983,2024-09-23 23:01:52,1727157712,7927,p,5.85,10.8,344.2,-65.9,13.1
797,984,2024-09-23 23:02:02,1727157722,7937,p,5.85,10.7,344.2,-65.9,13.1
798,985,2024-09-23 23:02:12,1727157732,7947,p,5.85,10.7,344.2,-65.9,13.1
799,986,2024-09-23 23:02:22,1727157742,7957,p,5.85,10.7,344.2,-65.9,13.1
800,987,2024-09-23 23:02:32,1727157752,7967,p,5.85,10.8,344.2,-65.9,13.1
801,988,2024-09-23 23:02:42,1727157762,7977,p,5.85,10.8,344.2,-65.9,13.1
802,989,2024-09-23 23:02:52,1727157772,7987,p,5.85,10.7,344.2,-65.9,13.1
803,990,2024-09-23 23:03:02,1727157782,7997,p,5.85,10.7,344.2,-65.9,13.1
804,991,2024-09-23 23:03:12,1727157792,8007,p,5.86,10.7,344.2,-65.9,13.1
805,992,2024-09-23 23:03:22,1727157802,8017,p,5.85,10.7,344.2,-65.9,13.1
806,993,2024-09-23 23:03:32,1727157812,8027,p,5.85,10.7,344.2,-65.9,13.1
807,994,2024-09-23 23:03:42,1727157822,8037,p,5.86,10.7,344.2,-65.9,13.1
808,995,2024-09-23 23:03:52,1727157832,8047,p,5.86,10.7,344.2,-65.9,13.1
809,996,2024-09-23 23:04:02,1727157842,8057,p,5.85,10.7,344.2,-65.9,13.1
810,997,2024-09-23 23:04:12,1727157852,8067,p,5.86,10.7,344.2,-65.9,13.1
811,998,2024-09-23 23:04:22,1727157862,8077,p,5.85,10.7,344.2,-65.9,13.1
812,999,2024-09-23 23:04:32,1727157872,8087,p,5.86,10.7,344.2,-65.9,13.1
813,1000,2024-09-23 23:04:41,1727157881,8096,p,5.86,10.7,344.2,-65.9,13.1
814,1001,2024-09-23 23:04:51,1727157891,8106,p,5.85,10.7,344.2,-65.9,13.1
