Number,Id,Datetime,Timestamp,Runtime,Type,Depth,Temperature,Heading,Roll,Pitch
1,1088,2025-02-26 02:12:36,1740564756,12,p,0.24,18.2,180.6,-86.5,-1.4
2,1089,2025-02-26 02:12:46,1740564766,22,p,0.24,18.1,180.8,-86.1,-1.3
3,1090,2025-02-26 02:12:56,1740564776,32,p,0.23,18,179.5,-86.4,-2.6
4,1091,2025-02-26 02:13:06,1740564786,42,p,0.23,17.9,183.4,-85.7,-2.2
5,1092,2025-02-26 02:13:16,1740564796,52,p,0.23,17.8,184.1,-85,-1.9
6,1093,2025-02-26 02:13:26,1740564806,62,p,0.23,17.7,184.7,-85.5,-1.6
7,1094,2025-02-26 02:13:36,1740564816,72,p,0.67,16.2,201,-84,1.7
8,1095,2025-02-26 02:13:46,1740564826,82,p,1.08,11,119.4,-91.1,1.1
9,1096,2025-02-26 02:13:56,1740564836,92,p,1.06,9.6,117.1,-86.5,-0.1
10,1097,2025-02-26 02:14:06,1740564846,102,p,0.97,9,105.3,-92.2,2.1
11,1098,2025-02-26 02:14:16,1740564856,112,p,5.88,8.4,92.1,-98.7,40.9
12,1099,2025-02-26 02:14:25,1740564865,121,p,5.93,8.2,92.1,-105.2,18.4
13,1100,2025-02-26 02:14:35,1740564875,131,p,5.94,8,92.1,-105.2,18.4
14,1101,2025-02-26 02:14:45,1740564885,141,p,5.93,7.9,92.1,-105.2,18.4
15,1102,2025-02-26 02:14:55,1740564895,151,p,5.92,7.9,91.9,-105.6,17.5
16,1103,2025-02-26 02:15:05,1740564905,161,p,5.94,7.8,91.9,-105.6,17.5
17,1104,2025-02-26 02:15:15,1740564915,171,p,5.94,7.8,91.9,-105.6,17.5
18,1105,2025-02-26 02:15:25,1740564925,181,p,5.93,7.8,91.9,-105.6,17.5
19,1106,2025-02-26 02:15:35,1740564935,191,p,5.93,7.8,91.9,-105.6,17.5
20,1107,2025-02-26 02:15:45,1740564945,201,p,5.94,7.8,91.9,-105.6,17.5
21,1108,2025-02-26 02:15:55,1740564955,211,p,5.95,7.7,91.9,-105.6,17.5
22,1109,2025-02-26 02:16:05,1740564965,221,p,5.94,7.7,91.9,-105.6,17.5
23,1110,2025-02-26 02:16:15,1740564975,231,p,5.94,7.7,91.9,-105.6,17.5
24,1111,2025-02-26 02:16:25,1740564985,241,p,5.95,7.7,91.9,-105.6,17.5
25,1112,2025-02-26 02:16:35,1740564995,251,p,5.94,7.7,91.9,-105.6,17.5
26,1113,2025-02-26 02:16:45,1740565005,261,p,5.94,7.7,91.9,-105.6,17.5
27,1114,2025-02-26 02:16:55,1740565015,271,p,5.95,7.7,91.9,-105.6,17.5
28,1115,2025-02-26 02:17:05,1740565025,281,p,5.95,7.7,91.9,-105.6,17.5
29,1116,2025-02-26 02:17:15,1740565035,291,p,5.94,7.7,91.9,-105.6,17.5
30,1117,2025-02-26 02:17:25,1740565045,301,p,5.94,7.7,91.9,-105.6,17.5
31,1118,2025-02-26 02:17:35,1740565055,311,p,5.96,7.7,91.9,-105.6,17.5
32,1119,2025-02-26 02:17:45,1740565065,321,p,5.95,7.7,91.9,-105.6,17.5
33,1120,2025-02-26 02:17:54,1740565074,330,p,5.94,7.7,91.9,-105.6,17.5
34,1121,2025-02-26 02:18:04,1740565084,340,p,5.95,7.7,91.9,-105.6,17.5
35,1122,2025-02-26 02:18:14,1740565094,350,p,5.96,7.7,91.9,-105.6,17.5
36,1123,2025-02-26 02:18:24,1740565104,360,p,5.95,7.7,91.9,-105.6,17.5
37,1124,2025-02-26 02:18:34,1740565114,370,p,5.95,7.7,91.9,-105.6,17.5
38,1125,2025-02-26 02:18:44,1740565124,380,p,5.96,7.7,91.9,-105.6,17.5
39,1126,2025-02-26 02:18:54,1740565134,390,p,5.95,7.7,91.9,-105.6,17.5
40,1127,2025-02-26 02:19:04,1740565144,400,p,5.95,7.7,91.9,-105.6,17.5
41,1128,2025-02-26 02:19:14,1740565154,410,p,5.96,7.7,91.9,-105.6,17.5
42,1129,2025-02-26 02:19:24,1740565164,420,p,5.96,7.7,91.9,-105.6,17.5
43,1130,2025-02-26 02:19:34,1740565174,430,p,5.96,7.7,91.9,-105.6,17.5
44,1131,2025-02-26 02:19:44,1740565184,440,p,5.96,7.7,91.9,-105.6,17.5
45,1132,2025-02-26 02:19:54,1740565194,450,p,5.95,7.7,91.9,-105.6,17.5
46,1133,2025-02-26 02:20:04,1740565204,460,p,5.95,7.7,91.9,-105.6,17.5
47,1134,2025-02-26 02:20:14,1740565214,470,p,5.97,7.7,91.9,-105.6,17.5
48,1135,2025-02-26 02:20:24,1740565224,480,p,5.96,7.7,91.9,-105.6,17.5
49,1136,2025-02-26 02:20:34,1740565234,490,p,5.97,7.7,91.9,-105.6,17.5
50,1137,2025-02-26 02:20:44,1740565244,500,p,5.96,7.7,91.9,-105.6,17.5
51,1138,2025-02-26 02:20:54,1740565254,510,p,5.96,7.7,91.9,-105.6,17.5
52,1139,2025-02-26 02:21:04,1740565264,520,p,5.96,7.7,91.9,-105.6,17.5
53,1140,2025-02-26 02:21:14,1740565274,530,p,5.97,7.7,91.9,-105.6,17.5
54,1141,2025-02-26 02:21:24,1740565284,540,p,5.97,7.7,91.9,-105.6,17.5
55,1142,2025-02-26 02:21:33,1740565293,549,p,5.97,7.7,91.9,-105.6,17.5
56,1143,2025-02-26 02:21:43,1740565303,559,p,5.97,7.7,91.9,-105.6,17.5
57,1144,2025-02-26 02:21:53,1740565313,569,p,5.97,7.7,91.9,-105.6,17.5
58,1145,2025-02-26 02:22:03,1740565323,579,p,5.97,7.7,91.9,-105.6,17.5
59,1146,2025-02-26 02:22:13,1740565333,589,p,5.97,7.7,91.9,-105.6,17.5
60,1147,2025-02-26 02:22:23,1740565343,599,p,5.96,7.7,91.9,-105.6,17.5
61,1148,2025-02-26 02:22:33,1740565353,609,p,5.97,7.7,91.9,-105.6,17.5
62,1149,2025-02-26 02:22:43,1740565363,619,p,5.97,7.7,91.9,-105.6,17.5
63,1150,2025-02-26 02:22:53,1740565373,629,p,5.98,7.7,91.9,-105.6,17.5
64,1151,2025-02-26 02:23:03,1740565383,639,p,5.97,7.7,91.9,-105.6,17.5
65,1152,2025-02-26 02:23:13,1740565393,649,p,5.97,7.7,91.9,-105.6,17.5
66,1153,2025-02-26 02:23:23,1740565403,659,p,5.97,7.7,91.9,-105.6,17.5
67,1154,2025-02-26 02:23:33,1740565413,669,p,5.98,7.7,91.9,-105.6,17.5
68,1155,2025-02-26 02:23:43,1740565423,679,p,5.97,7.7,91.9,-105.6,17.5
69,1156,2025-02-26 02:23:53,1740565433,689,p,5.98,7.7,91.9,-105.6,17.5
70,1157,2025-02-26 02:24:03,1740565443,699,p,5.98,7.7,91.9,-105.6,17.5
71,1158,2025-02-26 02:24:13,1740565453,709,p,5.97,7.7,91.9,-105.6,17.5
72,1159,2025-02-26 02:24:23,1740565463,719,p,5.97,7.7,91.9,-105.6,17.5
73,1160,2025-02-26 02:24:33,1740565473,729,p,5.98,7.7,91.9,-105.6,17.5
74,1161,2025-02-26 02:24:43,1740565483,739,p,5.98,7.7,91.9,-105.6,17.5
75,1162,2025-02-26 02:24:53,1740565493,749,p,5.97,7.7,91.9,-105.6,17.5
76,1163,2025-02-26 02:25:02,1740565502,758,p,5.97,7.7,91.9,-105.6,17.5
77,1164,2025-02-26 02:25:12,1740565512,768,p,5.98,7.7,91.9,-105.6,17.5
78,1165,2025-02-26 02:25:22,1740565522,778,p,5.98,7.7,91.9,-105.6,17.5
79,1166,2025-02-26 02:25:32,1740565532,788,p,5.98,7.7,91.9,-105.6,17.5
80,1167,2025-02-26 02:25:42,1740565542,798,p,5.98,7.7,91.9,-105.6,17.5
81,1168,2025-02-26 02:25:52,1740565552,808,p,5.99,7.7,91.9,-105.7,17.2
82,1169,2025-02-26 02:26:02,1740565562,818,p,5.98,7.7,91.9,-105.7,17.2
83,1170,2025-02-26 02:26:12,1740565572,828,p,5.98,7.7,91.9,-105.7,17.2
84,1171,2025-02-26 02:26:22,1740565582,838,p,5.98,7.7,91.9,-105.7,17.2
85,1172,2025-02-26 02:26:32,1740565592,848,p,5.98,7.7,91.9,-105.7,17.2
86,1173,2025-02-26 02:26:42,1740565602,858,p,5.98,7.7,91.9,-105.7,17.2
87,1174,2025-02-26 02:26:52,1740565612,868,p,5.99,7.7,91.9,-105.7,17.2
88,1175,2025-02-26 02:27:02,1740565622,878,p,5.99,7.7,91.9,-105.7,17.2
89,1176,2025-02-26 02:27:12,1740565632,888,p,5.99,7.7,91.9,-105.7,17.2
90,1177,2025-02-26 02:27:22,1740565642,898,p,6,7.7,91.9,-105.7,17.2
91,1178,2025-02-26 02:27:32,1740565652,908,p,6,7.7,91.9,-105.7,17.2
92,1179,2025-02-26 02:27:42,1740565662,918,p,5.99,7.7,91.9,-105.7,17.2
93,1180,2025-02-26 02:27:52,1740565672,928,p,6,7.7,91.9,-105.7,17.2
94,1181,2025-02-26 02:28:02,1740565682,938,p,6,7.7,91.9,-105.7,17.2
95,1182,2025-02-26 02:28:12,1740565692,948,p,6,7.7,91.9,-105.7,17.2
96,1183,2025-02-26 02:28:22,1740565702,958,p,6,7.7,91.9,-105.7,17.2
97,1184,2025-02-26 02:28:31,1740565711,967,p,6,7.7,91.9,-105.7,17.2
98,1185,2025-02-26 02:28:41,1740565721,977,p,6.01,7.7,91.9,-105.7,17.2
99,1186,2025-02-26 02:28:51,1740565731,987,p,6.01,7.7,91.9,-105.7,17.2
100,1187,2025-02-26 02:29:01,1740565741,997,p,6.01,7.7,91.9,-105.7,17.2
101,1188,2025-02-26 02:29:11,1740565751,1007,p,6.02,7.7,91.9,-105.7,17.2
102,1189,2025-02-26 02:29:21,1740565761,1017,p,6.02,7.7,91.9,-105.7,17.2
103,1190,2025-02-26 02:29:31,1740565771,1027,p,6.02,7.7,91.9,-105.7,17.2
104,1191,2025-02-26 02:29:41,1740565781,1037,p,6.02,7.7,91.9,-105.7,17.2
105,1192,2025-02-26 02:29:51,1740565791,1047,p,6.02,7.7,91.9,-105.7,17.2
106,1193,2025-02-26 02:30:01,1740565801,1057,p,6.02,7.7,91.9,-105.7,17.2
107,1194,2025-02-26 02:30:11,1740565811,1067,p,6.02,7.7,91.9,-105.7,17.2
108,1195,2025-02-26 02:30:21,1740565821,1077,p,6.02,7.7,91.9,-105.7,17.2
109,1196,2025-02-26 02:30:31,1740565831,1087,p,6.01,7.7,91.9,-105.7,17.2
110,1197,2025-02-26 02:30:41,1740565841,1097,p,6.02,7.7,91.9,-105.7,17.2
111,1198,2025-02-26 02:30:51,1740565851,1107,p,6.02,7.7,91.9,-105.7,17.2
112,1199,2025-02-26 02:31:01,1740565861,1117,p,6.02,7.7,91.9,-105.7,17.2
113,1200,2025-02-26 02:31:11,1740565871,1127,p,6.02,7.7,91.9,-105.7,17.2
114,1201,2025-02-26 02:31:21,1740565881,1137,p,6.01,7.7,91.9,-105.7,17.2
115,1202,2025-02-26 02:31:31,1740565891,1147,p,6.02,7.7,91.9,-105.7,17.2
116,1203,2025-02-26 02:31:41,1740565901,1157,p,6.02,7.7,91.9,-105.7,17.2
117,1204,2025-02-26 02:31:51,1740565911,1167,p,6.02,7.7,91.9,-105.7,17.2
118,1205,2025-02-26 02:32:01,1740565921,1177,p,6.02,7.7,91.9,-105.7,17.2
119,1206,2025-02-26 02:32:10,1740565930,1186,p,6.02,7.7,91.9,-105.7,17.2
120,1207,2025-02-26 02:32:20,1740565940,1196,p,6.02,7.7,91.9,-105.7,17.2
121,1208,2025-02-26 02:32:30,1740565950,1206,p,6.03,7.7,91.9,-105.7,17.2
122,1209,2025-02-26 02:32:40,1740565960,1216,p,6.02,7.7,91.9,-105.7,17.2
123,1210,2025-02-26 02:32:50,1740565970,1226,p,6.03,7.7,91.9,-105.7,17.2
124,1211,2025-02-26 02:33:00,1740565980,1236,p,6.02,7.7,91.9,-105.7,17.2
125,1212,2025-02-26 02:33:10,1740565990,1246,p,6.02,7.7,91.9,-105.7,17.2
126,1213,2025-02-26 02:33:20,1740566000,1256,p,6.03,7.7,91.9,-105.7,17.2
127,1214,2025-02-26 02:33:30,1740566010,1266,p,6.03,7.7,91.9,-105.7,17.2
128,1215,2025-02-26 02:33:40,1740566020,1276,p,6.02,7.7,91.9,-105.7,17.2
129,1216,2025-02-26 02:33:50,1740566030,1286,p,6.03,7.7,91.9,-105.7,17.2
130,1217,2025-02-26 02:34:00,1740566040,1296,p,6.03,7.7,91.9,-105.7,17.2
131,1218,2025-02-26 02:34:10,1740566050,1306,p,6.03,7.7,91.9,-105.7,17.2
132,1219,2025-02-26 02:34:20,1740566060,1316,p,6.02,7.7,91.9,-105.7,17.2
133,1220,2025-02-26 02:34:30,1740566070,1326,p,6.03,7.7,91.9,-105.7,17.2
134,1221,2025-02-26 02:34:40,1740566080,1336,p,6.02,7.7,91.9,-105.7,17.2
135,1222,2025-02-26 02:34:50,1740566090,1346,p,6.03,7.7,91.9,-105.7,17.2
136,1223,2025-02-26 02:35:00,1740566100,1356,p,6.03,7.7,91.9,-105.7,17.2
137,1224,2025-02-26 02:35:10,1740566110,1366,p,6.04,7.7,91.9,-105.7,17.2
138,1225,2025-02-26 02:35:20,1740566120,1376,p,6.03,7.7,91.9,-105.7,17.2
139,1226,2025-02-26 02:35:30,1740566130,1386,p,6.03,7.7,91.9,-105.7,17.2
140,1227,2025-02-26 02:35:39,1740566139,1395,p,6.04,7.7,91.9,-105.7,17.2
141,1228,2025-02-26 02:35:49,1740566149,1405,p,6.04,7.7,91.9,-105.7,17.2
142,1229,2025-02-26 02:35:59,1740566159,1415,p,6.03,7.7,91.9,-105.7,17.2
143,1230,2025-02-26 02:36:09,1740566169,1425,p,6.03,7.7,91.9,-105.7,17.2
144,1231,2025-02-26 02:36:19,1740566179,1435,p,6.05,7.7,91.9,-105.7,17.2
145,1232,2025-02-26 02:36:29,1740566189,1445,p,6.04,7.7,91.9,-105.7,17.2
146,1233,2025-02-26 02:36:39,1740566199,1455,p,6.03,7.7,91.9,-105.7,17.2
147,1234,2025-02-26 02:36:49,1740566209,1465,p,6.04,7.7,91.9,-105.8,17.1
148,1235,2025-02-26 02:36:59,1740566219,1475,p,6.04,7.7,91.9,-105.8,17.1
149,1236,2025-02-26 02:37:09,1740566229,1485,p,6.03,7.7,91.9,-105.8,17.1
150,1237,2025-02-26 02:37:19,1740566239,1495,p,6.03,7.7,91.9,-105.8,17.1
151,1238,2025-02-26 02:37:29,1740566249,1505,p,6.04,7.7,91.9,-105.8,17.1
152,1239,2025-02-26 02:37:39,1740566259,1515,p,6.04,7.7,91.9,-105.8,17.1
153,1240,2025-02-26 02:37:49,1740566269,1525,p,6.04,7.7,91.9,-105.8,17.1
154,1241,2025-02-26 02:37:59,1740566279,1535,p,6.04,7.7,91.9,-105.8,17.1
155,1242,2025-02-26 02:38:09,1740566289,1545,p,6.04,7.7,91.9,-105.8,17.1
156,1243,2025-02-26 02:38:19,1740566299,1555,p,6.04,7.7,91.9,-105.8,17.1
157,1244,2025-02-26 02:38:29,1740566309,1565,p,6.04,7.7,91.9,-105.8,17.1
158,1245,2025-02-26 02:38:39,1740566319,1575,p,6.04,7.7,91.9,-105.8,17.1
159,1246,2025-02-26 02:38:49,1740566329,1585,p,6.04,7.7,91.9,-105.8,17.1
160,1247,2025-02-26 02:38:59,1740566339,1595,p,6.05,7.7,91.9,-105.8,17.1
161,1248,2025-02-26 02:39:08,1740566348,1604,p,6.05,7.7,91.9,-105.8,17.1
162,1249,2025-02-26 02:39:18,1740566358,1614,p,6.04,7.7,91.9,-105.8,17.1
163,1250,2025-02-26 02:39:28,1740566368,1624,p,6.05,7.7,91.9,-105.8,17.1
164,1251,2025-02-26 02:39:38,1740566378,1634,p,6.05,7.7,91.9,-105.8,17.1
165,1252,2025-02-26 02:39:48,1740566388,1644,p,6.06,7.7,91.9,-105.8,17.1
166,1253,2025-02-26 02:39:58,1740566398,1654,p,6.06,7.7,91.9,-105.8,17.1
167,1254,2025-02-26 02:40:08,1740566408,1664,p,6.06,7.7,91.9,-105.8,17.1
168,1255,2025-02-26 02:40:18,1740566418,1674,p,6.06,7.7,91.9,-105.8,17.1
169,1256,2025-02-26 02:40:28,1740566428,1684,p,6.06,7.7,91.9,-105.8,17.1
170,1257,2025-02-26 02:40:38,1740566438,1694,p,6.06,7.7,91.9,-105.8,17.1
171,1258,2025-02-26 02:40:48,1740566448,1704,p,6.07,7.7,91.9,-105.8,17.1
172,1259,2025-02-26 02:40:58,1740566458,1714,p,6.06,7.7,91.9,-105.8,17.1
173,1260,2025-02-26 02:41:08,1740566468,1724,p,6.05,7.7,91.9,-105.8,17.1
174,1261,2025-02-26 02:41:18,1740566478,1734,p,6.06,7.7,91.9,-105.8,17.1
175,1262,2025-02-26 02:41:28,1740566488,1744,p,6.07,7.7,91.9,-105.8,17.1
176,1263,2025-02-26 02:41:38,1740566498,1754,p,6.06,7.7,91.9,-105.8,17.1
177,1264,2025-02-26 02:41:48,1740566508,1764,p,6.06,7.7,91.9,-105.8,17.1
178,1265,2025-02-26 02:41:58,1740566518,1774,p,6.06,7.7,91.9,-105.8,17.1
179,1266,2025-02-26 02:42:08,1740566528,1784,p,6.07,7.7,91.9,-105.8,17.1
180,1267,2025-02-26 02:42:18,1740566538,1794,p,6.06,7.7,91.9,-105.8,17.1
181,1268,2025-02-26 02:42:28,1740566548,1804,p,6.06,7.7,91.9,-105.8,17.1
182,1269,2025-02-26 02:42:38,1740566558,1814,p,6.07,7.7,91.9,-105.8,17.1
183,1270,2025-02-26 02:42:47,1740566567,1823,p,6.06,7.7,91.9,-105.8,17.1
184,1271,2025-02-26 02:42:57,1740566577,1833,p,6.06,7.7,91.9,-105.8,17.1
185,1272,2025-02-26 02:43:07,1740566587,1843,p,6.07,7.7,91.9,-105.8,17.1
186,1273,2025-02-26 02:43:17,1740566597,1853,p,6.07,7.7,91.9,-105.8,17.1
187,1274,2025-02-26 02:43:27,1740566607,1863,p,6.06,7.7,91.9,-105.8,17.1
188,1275,2025-02-26 02:43:37,1740566617,1873,p,6.06,7.7,91.9,-105.8,17.1
189,1276,2025-02-26 02:43:47,1740566627,1883,p,6.07,7.7,91.9,-105.8,17.1
190,1277,2025-02-26 02:43:57,1740566637,1893,p,6.06,7.7,91.9,-105.8,17.1
191,1278,2025-02-26 02:44:07,1740566647,1903,p,6.06,7.7,91.9,-105.8,17.1
192,1279,2025-02-26 02:44:17,1740566657,1913,p,6.07,7.7,91.9,-105.8,17.1
193,1280,2025-02-26 02:44:27,1740566667,1923,p,6.08,7.7,91.9,-105.8,17.1
194,1281,2025-02-26 02:44:37,1740566677,1933,p,6.07,7.7,91.9,-105.8,17.1
195,1282,2025-02-26 02:44:47,1740566687,1943,p,6.07,7.7,91.9,-105.8,17.1
196,1283,2025-02-26 02:44:57,1740566697,1953,p,6.06,7.7,91.9,-105.8,17.1
197,1284,2025-02-26 02:45:07,1740566707,1963,p,6.07,7.7,91.9,-105.8,17.1
198,1285,2025-02-26 02:45:17,1740566717,1973,p,6.08,7.7,91.9,-105.8,17.1
199,1286,2025-02-26 02:45:27,1740566727,1983,p,6.07,7.7,91.9,-105.8,17.1
200,1287,2025-02-26 02:45:37,1740566737,1993,p,6.07,7.7,91.9,-105.8,17.1
201,1288,2025-02-26 02:45:47,1740566747,2003,p,6.08,7.7,91.9,-105.8,17.1
202,1289,2025-02-26 02:45:57,1740566757,2013,p,6.08,7.7,91.9,-105.8,17.1
203,1290,2025-02-26 02:46:07,1740566767,2023,p,6.08,7.7,91.9,-105.8,17.1
204,1291,2025-02-26 02:46:17,1740566777,2033,p,6.08,7.7,91.9,-105.8,17.1
205,1292,2025-02-26 02:46:26,1740566786,2042,p,6.08,7.7,91.9,-105.8,17.1
206,1293,2025-02-26 02:46:36,1740566796,2052,p,6.08,7.7,91.9,-105.8,17.1
207,1294,2025-02-26 02:46:46,1740566806,2062,p,6.08,7.7,91.9,-105.8,17.1
208,1295,2025-02-26 02:46:56,1740566816,2072,p,6.08,7.7,91.9,-105.8,17.1
209,1296,2025-02-26 02:47:06,1740566826,2082,p,6.09,7.7,91.9,-105.8,17.1
210,1297,2025-02-26 02:47:16,1740566836,2092,p,6.09,7.7,91.9,-105.8,17.1
211,1298,2025-02-26 02:47:26,1740566846,2102,p,6.08,7.7,91.9,-105.8,17.1
212,1299,2025-02-26 02:47:36,1740566856,2112,p,6.08,7.7,91.9,-105.8,17.1
213,1300,2025-02-26 02:47:46,1740566866,2122,p,6.09,7.7,91.9,-105.9,17
214,1301,2025-02-26 02:47:56,1740566876,2132,p,6.08,7.7,91.9,-105.9,17
215,1302,2025-02-26 02:48:06,1740566886,2142,p,6.08,7.7,91.9,-105.9,17
216,1303,2025-02-26 02:48:16,1740566896,2152,p,6.08,7.7,91.9,-105.9,17
217,1304,2025-02-26 02:48:26,1740566906,2162,p,6.08,7.7,91.9,-105.9,17
218,1305,2025-02-26 02:48:36,1740566916,2172,p,6.08,7.7,91.9,-105.9,17
219,1306,2025-02-26 02:48:46,1740566926,2182,p,6.08,7.7,91.9,-105.9,17
220,1307,2025-02-26 02:48:56,1740566936,2192,p,6.08,7.7,91.9,-105.9,17
221,1308,2025-02-26 02:49:06,1740566946,2202,p,6.08,7.7,91.9,-105.9,17
222,1309,2025-02-26 02:49:16,1740566956,2212,p,6.09,7.7,91.9,-105.9,17
223,1310,2025-02-26 02:49:26,1740566966,2222,p,6.08,7.7,91.9,-105.9,17
224,1311,2025-02-26 02:49:36,1740566976,2232,p,6.08,7.7,91.9,-105.9,17
225,1312,2025-02-26 02:49:46,1740566986,2242,p,6.08,7.7,91.9,-105.9,17
226,1313,2025-02-26 02:49:55,1740566995,2251,p,6.08,7.7,91.9,-105.9,17
227,1314,2025-02-26 02:50:05,1740567005,2261,p,6.08,7.7,91.9,-105.9,17
228,1315,2025-02-26 02:50:15,1740567015,2271,p,6.09,7.7,91.9,-105.9,17
229,1316,2025-02-26 02:50:25,1740567025,2281,p,6.09,7.7,91.9,-105.9,17
230,1317,2025-02-26 02:50:35,1740567035,2291,p,6.09,7.7,91.9,-105.9,17
231,1318,2025-02-26 02:50:45,1740567045,2301,p,6.09,7.7,91.9,-105.9,17
232,1319,2025-02-26 02:50:55,1740567055,2311,p,6.09,7.7,91.9,-105.9,17
233,1320,2025-02-26 02:51:05,1740567065,2321,p,6.08,7.7,91.9,-105.9,17
234,1321,2025-02-26 02:51:15,1740567075,2331,p,6.09,7.7,91.9,-105.9,17
235,1322,2025-02-26 02:51:25,1740567085,2341,p,6.09,7.7,91.9,-105.9,17
236,1323,2025-02-26 02:51:35,1740567095,2351,p,6.1,7.7,91.9,-105.9,17
237,1324,2025-02-26 02:51:45,1740567105,2361,p,6.09,7.7,91.9,-105.9,17
238,1325,2025-02-26 02:51:55,1740567115,2371,p,6.08,7.7,91.9,-105.9,17
239,1326,2025-02-26 02:52:05,1740567125,2381,p,6.1,7.7,91.9,-105.9,17
240,1327,2025-02-26 02:52:15,1740567135,2391,p,6.11,7.7,91.9,-105.9,17
241,1328,2025-02-26 02:52:25,1740567145,2401,p,6.1,7.7,91.9,-105.9,17
242,1329,2025-02-26 02:52:35,1740567155,2411,p,6.1,7.7,91.9,-105.9,17
243,1330,2025-02-26 02:52:45,1740567165,2421,p,6.1,7.7,91.9,-105.9,17
244,1331,2025-02-26 02:52:55,1740567175,2431,p,6.1,7.7,91.9,-105.9,17
245,1332,2025-02-26 02:53:05,1740567185,2441,p,6.1,7.7,91.9,-105.9,17
246,1333,2025-02-26 02:53:15,1740567195,2451,p,6.1,7.7,91.9,-105.9,17
247,1334,2025-02-26 02:53:25,1740567205,2461,p,6.1,7.7,91.9,-105.9,17
248,1335,2025-02-26 02:53:35,1740567215,2471,p,6.1,7.7,91.9,-105.9,17
249,1336,2025-02-26 02:53:44,1740567224,2480,p,6.1,7.7,91.9,-105.9,17
250,1337,2025-02-26 02:53:54,1740567234,2490,p,6.11,7.7,91.9,-105.9,17
251,1338,2025-02-26 02:54:04,1740567244,2500,p,6.1,7.7,91.9,-105.9,17
252,1339,2025-02-26 02:54:14,1740567254,2510,p,6.11,7.7,91.9,-105.9,17
253,1340,2025-02-26 02:54:24,1740567264,2520,p,6.11,7.7,91.9,-105.9,17
254,1341,2025-02-26 02:54:34,1740567274,2530,p,6.1,7.7,91.9,-105.9,17
255,1342,2025-02-26 02:54:44,1740567284,2540,p,6.1,7.7,91.9,-105.9,17
256,1343,2025-02-26 02:54:54,1740567294,2550,p,6.11,7.7,91.9,-105.9,17
257,1344,2025-02-26 02:55:04,1740567304,2560,p,6.1,7.7,91.9,-105.9,17
258,1345,2025-02-26 02:55:14,1740567314,2570,p,6.1,7.7,91.9,-105.9,17
259,1346,2025-02-26 02:55:24,1740567324,2580,p,6.1,7.7,91.9,-105.9,17
260,1347,2025-02-26 02:55:34,1740567334,2590,p,6.1,7.7,91.9,-105.9,17
261,1348,2025-02-26 02:55:44,1740567344,2600,p,6.1,7.7,91.9,-105.9,17
262,1349,2025-02-26 02:55:54,1740567354,2610,p,6.09,7.7,91.9,-105.9,17
263,1350,2025-02-26 02:56:04,1740567364,2620,p,6.09,7.7,91.9,-105.9,17
264,1351,2025-02-26 02:56:14,1740567374,2630,p,6.09,7.7,91.9,-105.9,17
265,1352,2025-02-26 02:56:24,1740567384,2640,p,6.1,7.7,91.9,-105.9,17
266,1353,2025-02-26 02:56:34,1740567394,2650,p,6.1,7.7,91.9,-105.9,17
267,1354,2025-02-26 02:56:44,1740567404,2660,p,6.09,7.7,91.9,-105.9,17
268,1355,2025-02-26 02:56:54,1740567414,2670,p,6.09,7.7,91.9,-105.9,17
269,1356,2025-02-26 02:57:04,1740567424,2680,p,6.11,7.7,91.9,-105.9,17
270,1357,2025-02-26 02:57:14,1740567434,2690,p,6.11,7.7,91.9,-105.9,17
271,1358,2025-02-26 02:57:23,1740567443,2699,p,6.09,7.7,91.9,-105.9,17
272,1359,2025-02-26 02:57:33,1740567453,2709,p,6.1,7.7,91.9,-105.9,17
273,1360,2025-02-26 02:57:43,1740567463,2719,p,6.11,7.7,91.9,-105.9,17
274,1361,2025-02-26 02:57:53,1740567473,2729,p,6.1,7.7,91.9,-105.9,17
275,1362,2025-02-26 02:58:03,1740567483,2739,p,6.1,7.7,91.9,-105.9,17
276,1363,2025-02-26 02:58:13,1740567493,2749,p,6.11,7.7,91.9,-105.9,17
277,1364,2025-02-26 02:58:23,1740567503,2759,p,6.11,7.7,91.9,-105.9,17
278,1365,2025-02-26 02:58:33,1740567513,2769,p,6.11,7.7,91.9,-105.9,17
279,1366,2025-02-26 02:58:43,1740567523,2779,p,6.11,7.7,91.9,-105.9,16.9
280,1367,2025-02-26 02:58:53,1740567533,2789,p,6.11,7.7,91.9,-105.9,16.9
281,1368,2025-02-26 02:59:03,1740567543,2799,p,6.11,7.7,91.9,-105.9,16.9
282,1369,2025-02-26 02:59:13,1740567553,2809,p,6.12,7.7,91.9,-105.9,16.9
283,1370,2025-02-26 02:59:23,1740567563,2819,p,6.11,7.7,91.9,-105.9,16.9
284,1371,2025-02-26 02:59:33,1740567573,2829,p,6.11,7.7,91.9,-105.9,16.9
285,1372,2025-02-26 02:59:43,1740567583,2839,p,6.11,7.7,91.9,-105.9,16.9
286,1373,2025-02-26 02:59:53,1740567593,2849,p,6.11,7.7,91.9,-105.9,16.9
287,1374,2025-02-26 03:00:03,1740567603,2859,p,6.11,7.7,91.9,-105.9,16.9
288,1375,2025-02-26 03:00:13,1740567613,2869,p,6.11,7.7,91.9,-105.9,16.9
289,1376,2025-02-26 03:00:23,1740567623,2879,p,6.12,7.7,91.9,-105.9,16.9
290,1377,2025-02-26 03:00:33,1740567633,2889,p,6.11,7.7,91.9,-105.9,16.9
291,1378,2025-02-26 03:00:43,1740567643,2899,p,6.11,7.7,91.9,-105.9,16.9
292,1379,2025-02-26 03:00:52,1740567652,2908,p,6.11,7.7,91.9,-105.9,16.9
293,1380,2025-02-26 03:01:02,1740567662,2918,p,6.11,7.7,91.9,-105.9,16.9
294,1381,2025-02-26 03:01:12,1740567672,2928,p,6.1,7.7,91.9,-105.9,16.9
295,1382,2025-02-26 03:01:22,1740567682,2938,p,6.11,7.7,91.9,-105.9,16.9
296,1383,2025-02-26 03:01:32,1740567692,2948,p,6.1,7.7,91.9,-105.9,16.9
297,1384,2025-02-26 03:01:42,1740567702,2958,p,6.11,7.7,91.9,-105.9,16.9
298,1385,2025-02-26 03:01:52,1740567712,2968,p,6.11,7.7,91.9,-105.9,16.9
299,1386,2025-02-26 03:02:02,1740567722,2978,p,6.1,7.7,91.9,-105.9,16.9
300,1387,2025-02-26 03:02:12,1740567732,2988,p,6.11,7.7,91.9,-105.9,16.9
301,1388,2025-02-26 03:02:22,1740567742,2998,p,6.1,7.7,91.9,-105.9,16.9
302,1389,2025-02-26 03:02:32,1740567752,3008,p,6.1,7.7,91.9,-105.9,16.9
303,1390,2025-02-26 03:02:42,1740567762,3018,p,6.1,7.7,91.9,-105.9,16.9
304,1391,2025-02-26 03:02:52,1740567772,3028,p,6.1,7.7,91.9,-105.9,16.9
305,1392,2025-02-26 03:03:02,1740567782,3038,p,6.1,7.7,91.9,-105.9,16.9
306,1393,2025-02-26 03:03:12,1740567792,3048,p,6.1,7.7,91.9,-105.9,16.9
307,1394,2025-02-26 03:03:22,1740567802,3058,p,6.1,7.7,91.9,-105.9,16.9
308,1395,2025-02-26 03:03:32,1740567812,3068,p,6.1,7.7,91.9,-105.9,16.9
309,1396,2025-02-26 03:03:42,1740567822,3078,p,6.11,7.7,91.9,-105.9,16.9
310,1397,2025-02-26 03:03:52,1740567832,3088,p,6.1,7.7,91.9,-105.9,16.9
311,1398,2025-02-26 03:04:02,1740567842,3098,p,6.11,7.7,91.9,-105.9,16.9
312,1399,2025-02-26 03:04:12,1740567852,3108,p,6.1,7.7,91.9,-105.9,16.9
313,1400,2025-02-26 03:04:22,1740567862,3118,p,6.09,7.7,91.9,-105.9,16.9
314,1401,2025-02-26 03:04:31,1740567871,3127,p,6.1,7.7,91.9,-105.9,16.9
315,1402,2025-02-26 03:04:41,1740567881,3137,p,6.11,7.7,91.9,-105.9,16.9
316,1403,2025-02-26 03:04:51,1740567891,3147,p,6.11,7.7,91.9,-105.9,16.9
317,1404,2025-02-26 03:05:01,1740567901,3157,p,6.1,7.7,91.9,-105.9,16.9
318,1405,2025-02-26 03:05:11,1740567911,3167,p,6.1,7.7,91.9,-105.9,16.9
319,1406,2025-02-26 03:05:21,1740567921,3177,p,6.11,7.7,91.9,-105.9,16.9
320,1407,2025-02-26 03:05:31,1740567931,3187,p,6.11,7.7,91.9,-105.9,16.9
321,1408,2025-02-26 03:05:41,1740567941,3197,p,6.11,7.7,91.9,-105.9,16.9
322,1409,2025-02-26 03:05:51,1740567951,3207,p,6.11,7.7,91.9,-105.9,16.9
323,1410,2025-02-26 03:06:01,1740567961,3217,p,6.11,7.7,91.9,-105.9,16.9
324,1411,2025-02-26 03:06:11,1740567971,3227,p,6.11,7.7,91.9,-105.9,16.9
325,1412,2025-02-26 03:06:21,1740567981,3237,p,6.11,7.7,91.9,-105.9,16.9
326,1413,2025-02-26 03:06:31,1740567991,3247,p,6.11,7.7,91.9,-105.9,16.9
327,1414,2025-02-26 03:06:41,1740568001,3257,p,6.12,7.7,91.9,-105.9,16.9
328,1415,2025-02-26 03:06:51,1740568011,3267,p,6.12,7.7,91.9,-105.9,16.9
329,1416,2025-02-26 03:07:01,1740568021,3277,p,6.11,7.7,91.9,-105.9,16.9
330,1417,2025-02-26 03:07:11,1740568031,3287,p,6.12,7.7,91.9,-105.9,16.9
331,1418,2025-02-26 03:07:21,1740568041,3297,p,6.12,7.7,91.9,-105.9,16.9
332,1419,2025-02-26 03:07:31,1740568051,3307,p,6.11,7.7,91.9,-105.9,16.9
333,1420,2025-02-26 03:07:41,1740568061,3317,p,6.11,7.7,91.9,-105.9,16.9
334,1421,2025-02-26 03:07:51,1740568071,3327,p,6.12,7.7,91.9,-105.9,16.9
335,1422,2025-02-26 03:08:01,1740568081,3337,p,6.12,7.7,91.9,-105.9,16.9
336,1423,2025-02-26 03:08:10,1740568090,3346,p,6.12,7.7,91.9,-105.9,16.9
337,1424,2025-02-26 03:08:20,1740568100,3356,p,6.12,7.7,91.9,-105.9,16.9
338,1425,2025-02-26 03:08:30,1740568110,3366,p,6.12,7.7,91.9,-105.9,16.9
339,1426,2025-02-26 03:08:40,1740568120,3376,p,6.12,7.7,91.9,-105.9,16.9
340,1427,2025-02-26 03:08:50,1740568130,3386,p,6.12,7.7,91.9,-105.9,16.9
341,1428,2025-02-26 03:09:00,1740568140,3396,p,6.12,7.7,91.9,-105.9,16.9
342,1429,2025-02-26 03:09:10,1740568150,3406,p,6.12,7.7,91.9,-105.9,16.9
343,1430,2025-02-26 03:09:20,1740568160,3416,p,6.12,7.7,91.9,-105.9,16.9
344,1431,2025-02-26 03:09:30,1740568170,3426,p,6.12,7.8,91.9,-105.9,16.9
345,1432,2025-02-26 03:09:40,1740568180,3436,p,6.13,7.7,91.9,-106,16.9
346,1433,2025-02-26 03:09:50,1740568190,3446,p,6.12,7.7,91.9,-106,16.9
347,1434,2025-02-26 03:10:00,1740568200,3456,p,6.12,7.7,91.9,-106,16.9
348,1435,2025-02-26 03:10:10,1740568210,3466,p,6.13,7.7,91.9,-106,16.9
349,1436,2025-02-26 03:10:20,1740568220,3476,p,6.12,7.7,91.9,-106,16.9
350,1437,2025-02-26 03:10:30,1740568230,3486,p,6.12,7.7,91.9,-106,16.9
351,1438,2025-02-26 03:10:40,1740568240,3496,p,6.12,7.7,91.9,-106,16.9
352,1439,2025-02-26 03:10:50,1740568250,3506,p,6.12,7.7,91.9,-106,16.9
353,1440,2025-02-26 03:11:00,1740568260,3516,p,6.12,7.7,91.9,-106,16.9
354,1441,2025-02-26 03:11:10,1740568270,3526,p,6.12,7.7,91.9,-106,16.9
355,1442,2025-02-26 03:11:20,1740568280,3536,p,6.13,7.7,91.9,-106,16.9
356,1443,2025-02-26 03:11:30,1740568290,3546,p,6.12,7.7,91.9,-106,16.9
357,1444,2025-02-26 03:11:39,1740568299,3555,p,6.12,7.7,91.9,-106,16.9
358,1445,2025-02-26 03:11:49,1740568309,3565,p,6.12,7.7,91.9,-106,16.9
359,1446,2025-02-26 03:11:59,1740568319,3575,p,6.12,7.7,91.9,-106,16.9
360,1447,2025-02-26 03:12:09,1740568329,3585,p,6.12,7.7,91.9,-106,16.9
361,1448,2025-02-26 03:12:19,1740568339,3595,p,6.12,7.7,91.9,-106,16.9
362,1449,2025-02-26 03:12:29,1740568349,3605,p,6.12,7.7,91.9,-106,16.9
363,1450,2025-02-26 03:12:39,1740568359,3615,p,6.12,7.7,91.9,-106,16.9
364,1451,2025-02-26 03:12:49,1740568369,3625,p,6.12,7.7,91.9,-106,16.9
365,1452,2025-02-26 03:12:59,1740568379,3635,p,6.12,7.7,91.9,-106,16.9
366,1453,2025-02-26 03:13:09,1740568389,3645,p,6.12,7.7,91.9,-106,16.9
367,1454,2025-02-26 03:13:19,1740568399,3655,p,6.13,7.7,91.9,-106,16.9
368,1455,2025-02-26 03:13:29,1740568409,3665,p,6.12,7.7,91.9,-106,16.9
369,1456,2025-02-26 03:13:39,1740568419,3675,p,6.12,7.7,91.9,-106,16.9
370,1457,2025-02-26 03:13:49,1740568429,3685,p,6.11,7.7,91.9,-106,16.9
371,1458,2025-02-26 03:13:59,1740568439,3695,p,6.13,7.7,91.9,-106,16.9
372,1459,2025-02-26 03:14:09,1740568449,3705,p,6.12,7.7,91.9,-106,16.9
373,1460,2025-02-26 03:14:19,1740568459,3715,p,6.12,7.7,91.9,-106,16.9
374,1461,2025-02-26 03:14:29,1740568469,3725,p,6.12,7.7,91.9,-106,16.9
375,1462,2025-02-26 03:14:39,1740568479,3735,p,6.13,7.7,91.9,-106,16.9
376,1463,2025-02-26 03:14:49,1740568489,3745,p,6.12,7.7,91.9,-106,16.9
377,1464,2025-02-26 03:14:59,1740568499,3755,p,6.12,7.7,91.9,-106,16.9
378,1465,2025-02-26 03:15:09,1740568509,3765,p,6.11,7.7,91.9,-106,16.9
379,1466,2025-02-26 03:15:18,1740568518,3774,p,6.11,7.7,91.9,-106,16.9
380,1467,2025-02-26 03:15:28,1740568528,3784,p,6.12,7.7,91.9,-106,16.9
381,1468,2025-02-26 03:15:38,1740568538,3794,p,6.12,7.7,91.9,-106,16.9
382,1469,2025-02-26 03:15:48,1740568548,3804,p,6.12,7.7,91.9,-106,16.9
383,1470,2025-02-26 03:15:58,1740568558,3814,p,6.12,7.7,91.9,-106,16.9
384,1471,2025-02-26 03:16:08,1740568568,3824,p,6.12,7.7,91.9,-106,16.9
385,1472,2025-02-26 03:16:18,1740568578,3834,p,6.12,7.7,91.9,-106,16.9
386,1473,2025-02-26 03:16:28,1740568588,3844,p,6.12,7.7,91.9,-106,16.9
387,1474,2025-02-26 03:16:38,1740568598,3854,p,6.11,7.7,91.9,-106,16.9
388,1475,2025-02-26 03:16:48,1740568608,3864,p,6.11,7.7,91.9,-106,16.9
389,1476,2025-02-26 03:16:58,1740568618,3874,p,6.12,7.7,91.9,-106,16.9
390,1477,2025-02-26 03:17:08,1740568628,3884,p,6.12,7.7,91.9,-106,16.9
391,1478,2025-02-26 03:17:18,1740568638,3894,p,6.12,7.7,91.9,-106,16.9
392,1479,2025-02-26 03:17:28,1740568648,3904,p,6.13,7.7,91.9,-106,16.9
393,1480,2025-02-26 03:17:38,1740568658,3914,p,6.13,7.7,91.9,-106,16.9
394,1481,2025-02-26 03:17:48,1740568668,3924,p,6.12,7.7,91.9,-106,16.9
395,1482,2025-02-26 03:17:58,1740568678,3934,p,6.13,7.7,91.9,-106,16.9
396,1483,2025-02-26 03:18:08,1740568688,3944,p,6.13,7.7,91.9,-106,16.9
397,1484,2025-02-26 03:18:18,1740568698,3954,p,6.13,7.7,91.9,-106,16.9
398,1485,2025-02-26 03:18:28,1740568708,3964,p,6.12,7.7,91.9,-106,16.9
399,1486,2025-02-26 03:18:38,1740568718,3974,p,6.13,7.7,91.9,-106,16.9
400,1487,2025-02-26 03:18:48,1740568728,3984,p,6.13,7.7,91.9,-106,16.9
401,1488,2025-02-26 03:18:57,1740568737,3993,p,6.13,7.7,91.9,-106,16.9
402,1489,2025-02-26 03:19:07,1740568747,4003,p,6.13,7.7,91.9,-106,16.9
403,1490,2025-02-26 03:19:17,1740568757,4013,p,6.14,7.7,91.9,-106,16.9
404,1491,2025-02-26 03:19:27,1740568767,4023,p,6.13,7.7,91.9,-106,16.9
405,1492,2025-02-26 03:19:37,1740568777,4033,p,6.13,7.7,91.9,-106,16.9
406,1493,2025-02-26 03:19:47,1740568787,4043,p,6.13,7.7,91.9,-106,16.9
407,1494,2025-02-26 03:19:57,1740568797,4053,p,6.14,7.7,91.9,-106,16.9
408,1495,2025-02-26 03:20:07,1740568807,4063,p,6.14,7.7,91.9,-106,16.9
409,1496,2025-02-26 03:20:17,1740568817,4073,p,6.13,7.7,91.9,-106,16.9
410,1497,2025-02-26 03:20:27,1740568827,4083,p,6.13,7.7,91.9,-106,16.9
411,1498,2025-02-26 03:20:37,1740568837,4093,p,6.14,7.7,91.9,-106.1,16.8
412,1499,2025-02-26 03:20:47,1740568847,4103,p,6.13,7.7,91.9,-106.1,16.8
413,1500,2025-02-26 03:20:57,1740568857,4113,p,6.13,7.7,91.9,-106.1,16.8
414,1501,2025-02-26 03:21:07,1740568867,4123,p,6.13,7.7,91.9,-106.1,16.8
415,1502,2025-02-26 03:21:17,1740568877,4133,p,6.14,7.7,91.9,-106.1,16.8
416,1503,2025-02-26 03:21:27,1740568887,4143,p,6.13,7.7,91.9,-106.1,16.8
417,1504,2025-02-26 03:21:37,1740568897,4153,p,6.13,7.7,91.9,-106.1,16.8
418,1505,2025-02-26 03:21:47,1740568907,4163,p,6.14,7.7,91.9,-106.1,16.8
419,1506,2025-02-26 03:21:57,1740568917,4173,p,6.13,7.7,91.9,-106.1,16.8
420,1507,2025-02-26 03:22:07,1740568927,4183,p,6.13,7.7,91.9,-106.1,16.8
421,1508,2025-02-26 03:22:17,1740568937,4193,p,6.14,7.7,91.9,-106.1,16.8
422,1509,2025-02-26 03:22:26,1740568946,4202,p,6.14,7.7,91.9,-106.1,16.8
423,1510,2025-02-26 03:22:36,1740568956,4212,p,6.14,7.7,91.9,-106.1,16.8
424,1511,2025-02-26 03:22:46,1740568966,4222,p,6.15,7.7,91.9,-106.1,16.8
425,1512,2025-02-26 03:22:56,1740568976,4232,p,6.14,7.7,91.9,-106.1,16.8
426,1513,2025-02-26 03:23:06,1740568986,4242,p,6.14,7.7,91.9,-106.1,16.8
427,1514,2025-02-26 03:23:16,1740568996,4252,p,6.14,7.7,91.9,-106.1,16.8
428,1515,2025-02-26 03:23:26,1740569006,4262,p,6.14,7.7,91.9,-106.1,16.8
429,1516,2025-02-26 03:23:36,1740569016,4272,p,6.14,7.7,91.9,-106.1,16.8
430,1517,2025-02-26 03:23:46,1740569026,4282,p,6.14,7.7,91.9,-106.1,16.8
431,1518,2025-02-26 03:23:56,1740569036,4292,p,6.14,7.7,91.9,-106.1,16.8
432,1519,2025-02-26 03:24:06,1740569046,4302,p,6.13,7.7,91.9,-106.1,16.8
433,1520,2025-02-26 03:24:16,1740569056,4312,p,6.14,7.7,91.9,-106.1,16.8
434,1521,2025-02-26 03:24:26,1740569066,4322,p,6.14,7.7,91.9,-106.1,16.8
435,1522,2025-02-26 03:24:36,1740569076,4332,p,6.14,7.7,91.9,-106.1,16.8
436,1523,2025-02-26 03:24:46,1740569086,4342,p,6.14,7.7,91.9,-106.1,16.8
437,1524,2025-02-26 03:24:56,1740569096,4352,p,6.15,7.7,91.9,-106.1,16.8
438,1525,2025-02-26 03:25:06,1740569106,4362,p,6.14,7.7,91.9,-106.1,16.8
439,1526,2025-02-26 03:25:16,1740569116,4372,p,6.14,7.7,91.9,-106.1,16.8
440,1527,2025-02-26 03:25:26,1740569126,4382,p,6.14,7.8,91.9,-106.1,16.8
441,1528,2025-02-26 03:25:36,1740569136,4392,p,6.14,7.7,91.9,-106.1,16.8
442,1529,2025-02-26 03:25:46,1740569146,4402,p,6.13,7.7,91.9,-106.1,16.8
443,1530,2025-02-26 03:25:55,1740569155,4411,p,6.14,7.7,91.9,-106.1,16.8
444,1531,2025-02-26 03:26:05,1740569165,4421,p,6.14,7.7,91.9,-106.1,16.8
445,1532,2025-02-26 03:26:15,1740569175,4431,p,6.14,7.7,91.9,-106.1,16.8
446,1533,2025-02-26 03:26:25,1740569185,4441,p,6.13,7.7,91.9,-106.1,16.8
447,1534,2025-02-26 03:26:35,1740569195,4451,p,6.13,7.7,91.9,-106.1,16.8
448,1535,2025-02-26 03:26:45,1740569205,4461,p,6.14,7.8,91.9,-106.1,16.8
449,1536,2025-02-26 03:26:55,1740569215,4471,p,6.14,7.8,91.9,-106.1,16.8
450,1537,2025-02-26 03:27:05,1740569225,4481,p,6.13,7.8,91.9,-106.1,16.8
451,1538,2025-02-26 03:27:15,1740569235,4491,p,6.14,7.7,91.9,-106.1,16.8
452,1539,2025-02-26 03:27:25,1740569245,4501,p,6.14,7.7,91.9,-106.1,16.8
453,1540,2025-02-26 03:27:35,1740569255,4511,p,6.13,7.8,91.9,-106.1,16.8
454,1541,2025-02-26 03:27:45,1740569265,4521,p,6.13,7.8,91.9,-106.1,16.8
455,1542,2025-02-26 03:27:55,1740569275,4531,p,6.13,7.8,91.9,-106.1,16.8
456,1543,2025-02-26 03:28:05,1740569285,4541,p,6.13,7.7,91.9,-106.1,16.8
457,1544,2025-02-26 03:28:15,1740569295,4551,p,6.13,7.7,91.9,-106.1,16.8
458,1545,2025-02-26 03:28:25,1740569305,4561,p,6.13,7.7,91.9,-106.1,16.8
459,1546,2025-02-26 03:28:35,1740569315,4571,p,6.13,7.7,91.9,-106.1,16.8
460,1547,2025-02-26 03:28:45,1740569325,4581,p,6.13,7.7,91.9,-106.1,16.8
461,1548,2025-02-26 03:28:55,1740569335,4591,p,6.13,7.7,91.9,-106.1,16.8
462,1549,2025-02-26 03:29:05,1740569345,4601,p,6.13,7.7,91.9,-106.1,16.8
463,1550,2025-02-26 03:29:15,1740569355,4611,p,6.13,7.7,91.9,-106.1,16.8
464,1551,2025-02-26 03:29:24,1740569364,4620,p,6.13,7.7,91.9,-106.1,16.8
465,1552,2025-02-26 03:29:34,1740569374,4630,p,6.14,7.7,91.9,-106.1,16.8
466,1553,2025-02-26 03:29:44,1740569384,4640,p,6.13,7.7,91.9,-106.1,16.8
467,1554,2025-02-26 03:29:54,1740569394,4650,p,6.13,7.7,91.9,-106.1,16.8
468,1555,2025-02-26 03:30:04,1740569404,4660,p,6.14,7.7,91.9,-106.1,16.8
469,1556,2025-02-26 03:30:14,1740569414,4670,p,6.14,7.7,91.9,-106.1,16.8
470,1557,2025-02-26 03:30:24,1740569424,4680,p,6.13,7.7,91.9,-106.1,16.8
471,1558,2025-02-26 03:30:34,1740569434,4690,p,6.13,7.7,91.9,-106.1,16.8
472,1559,2025-02-26 03:30:44,1740569444,4700,p,6.14,7.7,91.9,-106.1,16.8
473,1560,2025-02-26 03:30:54,1740569454,4710,p,6.13,7.7,91.9,-106.1,16.8
474,1561,2025-02-26 03:31:04,1740569464,4720,p,6.14,7.7,91.9,-106.1,16.8
475,1562,2025-02-26 03:31:14,1740569474,4730,p,6.14,7.7,91.9,-106.1,16.8
476,1563,2025-02-26 03:31:24,1740569484,4740,p,6.15,7.7,91.9,-106.1,16.8
477,1564,2025-02-26 03:31:34,1740569494,4750,p,6.14,7.7,91.9,-106.1,16.7
478,1565,2025-02-26 03:31:44,1740569504,4760,p,6.15,7.7,91.9,-106.1,16.7
479,1566,2025-02-26 03:31:54,1740569514,4770,p,6.15,7.7,91.9,-106.1,16.7
480,1567,2025-02-26 03:32:04,1740569524,4780,p,6.16,7.7,91.9,-106.1,16.7
481,1568,2025-02-26 03:32:14,1740569534,4790,p,6.15,7.7,91.9,-106.1,16.7
482,1569,2025-02-26 03:32:24,1740569544,4800,p,6.15,7.7,91.9,-106.1,16.7
483,1570,2025-02-26 03:32:34,1740569554,4810,p,6.15,7.7,91.9,-106.1,16.7
484,1571,2025-02-26 03:32:44,1740569564,4820,p,6.14,7.7,91.9,-106.1,16.7
485,1572,2025-02-26 03:32:53,1740569573,4829,p,6.15,7.7,91.9,-106.1,16.7
486,1573,2025-02-26 03:33:03,1740569583,4839,p,6.16,7.7,91.9,-106.1,16.7
487,1574,2025-02-26 03:33:13,1740569593,4849,p,6.15,7.7,91.9,-106.1,16.7
488,1575,2025-02-26 03:33:23,1740569603,4859,p,6.16,7.7,91.9,-106.1,16.7
489,1576,2025-02-26 03:33:33,1740569613,4869,p,6.16,7.7,91.9,-106.1,16.7
490,1577,2025-02-26 03:33:43,1740569623,4879,p,6.15,7.7,91.9,-106.1,16.7
491,1578,2025-02-26 03:33:53,1740569633,4889,p,6.15,7.7,91.9,-106.1,16.7
492,1579,2025-02-26 03:34:03,1740569643,4899,p,6.16,7.7,91.9,-106.1,16.7
493,1580,2025-02-26 03:34:13,1740569653,4909,p,6.16,7.7,91.9,-106.1,16.7
494,1581,2025-02-26 03:34:23,1740569663,4919,p,6.16,7.7,91.9,-106.1,16.7
495,1582,2025-02-26 03:34:33,1740569673,4929,p,6.16,7.7,91.9,-106.1,16.7
496,1583,2025-02-26 03:34:43,1740569683,4939,p,6.16,7.7,91.9,-106.1,16.7
497,1584,2025-02-26 03:34:53,1740569693,4949,p,6.16,7.7,91.9,-106.1,16.7
498,1585,2025-02-26 03:35:03,1740569703,4959,p,6.15,7.7,91.9,-106.1,16.7
499,1586,2025-02-26 03:35:13,1740569713,4969,p,6.15,7.6,91.9,-106.1,16.7
500,1587,2025-02-26 03:35:23,1740569723,4979,p,6.15,7.6,91.9,-106.1,16.7
501,1588,2025-02-26 03:35:33,1740569733,4989,p,6.15,7.6,91.9,-106.1,16.7
502,1589,2025-02-26 03:35:43,1740569743,4999,p,6.15,7.6,91.9,-106.1,16.7
503,1590,2025-02-26 03:35:53,1740569753,5009,p,6.15,7.6,91.9,-106.1,16.7
504,1591,2025-02-26 03:36:03,1740569763,5019,p,6.15,7.6,91.9,-106.1,16.7
505,1592,2025-02-26 03:36:13,1740569773,5029,p,6.15,7.6,91.9,-106.1,16.7
506,1593,2025-02-26 03:36:23,1740569783,5039,p,6.15,7.6,91.9,-106.1,16.7
507,1594,2025-02-26 03:36:32,1740569792,5048,p,6.14,7.6,91.9,-106.1,16.7
508,1595,2025-02-26 03:36:42,1740569802,5058,p,6.14,7.6,91.9,-106.1,16.7
509,1596,2025-02-26 03:36:52,1740569812,5068,p,6.14,7.6,91.9,-106.1,16.7
510,1597,2025-02-26 03:37:02,1740569822,5078,p,6.15,7.6,91.9,-106.1,16.7
511,1598,2025-02-26 03:37:12,1740569832,5088,p,6.14,7.6,91.9,-106.1,16.7
512,1599,2025-02-26 03:37:22,1740569842,5098,p,6.14,7.7,91.9,-106.1,16.7
513,1600,2025-02-26 03:37:32,1740569852,5108,p,6.15,7.7,91.9,-106.1,16.7
514,1601,2025-02-26 03:37:42,1740569862,5118,p,6.14,7.6,91.9,-106.1,16.7
515,1602,2025-02-26 03:37:52,1740569872,5128,p,6.15,7.6,91.9,-106.1,16.7
516,1603,2025-02-26 03:38:02,1740569882,5138,p,6.14,7.6,91.9,-106.1,16.7
517,1604,2025-02-26 03:38:12,1740569892,5148,p,6.15,7.6,91.9,-106.1,16.7
518,1605,2025-02-26 03:38:22,1740569902,5158,p,6.15,7.7,91.9,-106.1,16.7
519,1606,2025-02-26 03:38:32,1740569912,5168,p,6.15,7.7,91.9,-106.1,16.7
520,1607,2025-02-26 03:38:42,1740569922,5178,p,6.14,7.7,91.9,-106.1,16.7
521,1608,2025-02-26 03:38:52,1740569932,5188,p,6.14,7.7,91.9,-106.1,16.7
522,1609,2025-02-26 03:39:02,1740569942,5198,p,6.13,7.7,91.9,-106.1,16.7
523,1610,2025-02-26 03:39:12,1740569952,5208,p,6.14,7.7,91.9,-106.1,16.7
524,1611,2025-02-26 03:39:22,1740569962,5218,p,6.14,7.7,91.9,-106.1,16.7
525,1612,2025-02-26 03:39:32,1740569972,5228,p,6.14,7.7,91.9,-106.1,16.7
526,1613,2025-02-26 03:39:42,1740569982,5238,p,6.13,7.7,91.9,-106.1,16.7
527,1614,2025-02-26 03:39:52,1740569992,5248,p,6.14,7.7,91.9,-106.1,16.7
528,1615,2025-02-26 03:40:02,1740570002,5258,p,6.14,7.7,91.9,-106.1,16.7
529,1616,2025-02-26 03:40:11,1740570011,5267,p,6.14,7.7,91.9,-106.1,16.7
530,1617,2025-02-26 03:40:21,1740570021,5277,p,6.14,7.7,91.9,-106.1,16.7
531,1618,2025-02-26 03:40:31,1740570031,5287,p,6.14,7.7,91.9,-106.1,16.7
532,1619,2025-02-26 03:40:41,1740570041,5297,p,6.14,7.7,91.9,-106.1,16.7
533,1620,2025-02-26 03:40:51,1740570051,5307,p,6.15,7.7,91.9,-106.1,16.7
534,1621,2025-02-26 03:41:01,1740570061,5317,p,6.15,7.7,91.9,-106.1,16.7
535,1622,2025-02-26 03:41:11,1740570071,5327,p,6.14,7.7,91.9,-106.1,16.7
536,1623,2025-02-26 03:41:21,1740570081,5337,p,6.15,7.7,91.9,-106.1,16.7
537,1624,2025-02-26 03:41:31,1740570091,5347,p,6.15,7.7,91.9,-106.1,16.7
538,1625,2025-02-26 03:41:41,1740570101,5357,p,6.14,7.7,91.9,-106.1,16.7
539,1626,2025-02-26 03:41:51,1740570111,5367,p,6.15,7.7,91.9,-106.1,16.7
540,1627,2025-02-26 03:42:01,1740570121,5377,p,6.15,7.7,91.9,-106.1,16.7
541,1628,2025-02-26 03:42:11,1740570131,5387,p,6.15,7.7,91.9,-106.1,16.7
542,1629,2025-02-26 03:42:21,1740570141,5397,p,6.14,7.6,91.9,-106.1,16.7
543,1630,2025-02-26 03:42:31,1740570151,5407,p,6.15,7.7,91.9,-106.1,16.7
544,1631,2025-02-26 03:42:41,1740570161,5417,p,6.16,7.7,91.9,-106.1,16.7
545,1632,2025-02-26 03:42:51,1740570171,5427,p,6.15,7.7,91.9,-106.1,16.7
546,1633,2025-02-26 03:43:01,1740570181,5437,p,6.15,7.7,91.9,-106.1,16.7
547,1634,2025-02-26 03:43:11,1740570191,5447,p,6.15,7.7,91.9,-106.1,16.7
548,1635,2025-02-26 03:43:21,1740570201,5457,p,6.16,7.7,91.9,-106.1,16.7
549,1636,2025-02-26 03:43:31,1740570211,5467,p,6.16,7.7,91.9,-106.1,16.7
550,1637,2025-02-26 03:43:40,1740570220,5476,p,6.16,7.7,91.9,-106.1,16.7
551,1638,2025-02-26 03:43:50,1740570230,5486,p,6.16,7.7,91.9,-106.1,16.7
552,1639,2025-02-26 03:44:00,1740570240,5496,p,6.15,7.7,91.9,-106.1,16.7
553,1640,2025-02-26 03:44:10,1740570250,5506,p,6.15,7.7,91.9,-106.1,16.7
554,1641,2025-02-26 03:44:20,1740570260,5516,p,6.15,7.7,91.9,-106.1,16.7
555,1642,2025-02-26 03:44:30,1740570270,5526,p,6.15,7.6,91.9,-106.1,16.7
556,1643,2025-02-26 03:44:40,1740570280,5536,p,6.15,7.7,91.9,-106.1,16.7
557,1644,2025-02-26 03:44:50,1740570290,5546,p,6.15,7.7,91.9,-106.1,16.7
558,1645,2025-02-26 03:45:00,1740570300,5556,p,6.16,7.7,91.9,-106.1,16.7
559,1646,2025-02-26 03:45:10,1740570310,5566,p,6.17,7.7,91.9,-106.1,16.7
560,1647,2025-02-26 03:45:20,1740570320,5576,p,6.15,7.7,91.9,-106.1,16.7
561,1648,2025-02-26 03:45:30,1740570330,5586,p,6.17,7.7,91.9,-106.1,16.7
562,1649,2025-02-26 03:45:40,1740570340,5596,p,6.17,7.7,91.9,-106.1,16.7
563,1650,2025-02-26 03:45:50,1740570350,5606,p,6.16,7.7,91.9,-106.1,16.7
564,1651,2025-02-26 03:46:00,1740570360,5616,p,6.16,7.7,91.9,-106.1,16.7
565,1652,2025-02-26 03:46:10,1740570370,5626,p,6.16,7.7,91.9,-106.1,16.7
566,1653,2025-02-26 03:46:20,1740570380,5636,p,6.16,7.7,91.9,-106.1,16.7
567,1654,2025-02-26 03:46:30,1740570390,5646,p,6.17,7.7,91.9,-106.1,16.7
568,1655,2025-02-26 03:46:40,1740570400,5656,p,6.17,7.7,91.9,-106.1,16.7
569,1656,2025-02-26 03:46:50,1740570410,5666,p,6.17,7.7,91.9,-106.1,16.7
570,1657,2025-02-26 03:47:00,1740570420,5676,p,6.17,7.7,91.9,-106.1,16.7
571,1658,2025-02-26 03:47:10,1740570430,5686,p,6.17,7.7,91.9,-106.1,16.7
572,1659,2025-02-26 03:47:19,1740570439,5695,p,6.17,7.7,91.9,-106.1,16.7
573,1660,2025-02-26 03:47:29,1740570449,5705,p,6.17,7.7,91.9,-106.1,16.7
574,1661,2025-02-26 03:47:39,1740570459,5715,p,6.18,7.7,91.9,-106.1,16.7
575,1662,2025-02-26 03:47:49,1740570469,5725,p,6.17,7.7,91.9,-106.1,16.7
576,1663,2025-02-26 03:47:59,1740570479,5735,p,6.17,7.7,91.9,-106.1,16.7
577,1664,2025-02-26 03:48:09,1740570489,5745,p,6.17,7.7,91.9,-106.1,16.7
578,1665,2025-02-26 03:48:19,1740570499,5755,p,6.17,7.7,91.9,-106.1,16.7
579,1666,2025-02-26 03:48:29,1740570509,5765,p,6.16,7.7,91.9,-106.1,16.7
580,1667,2025-02-26 03:48:39,1740570519,5775,p,6.16,7.7,91.9,-106.1,16.7
581,1668,2025-02-26 03:48:49,1740570529,5785,p,6.17,7.7,91.9,-106.1,16.7
582,1669,2025-02-26 03:48:59,1740570539,5795,p,6.17,7.7,91.9,-106.1,16.7
583,1670,2025-02-26 03:49:09,1740570549,5805,p,6.17,7.7,91.9,-106.1,16.7
584,1671,2025-02-26 03:49:19,1740570559,5815,p,6.17,7.7,91.9,-106.1,16.7
585,1672,2025-02-26 03:49:29,1740570569,5825,p,6.16,7.7,91.9,-106.1,16.7
586,1673,2025-02-26 03:49:39,1740570579,5835,p,6.16,7.7,91.9,-106.1,16.7
587,1674,2025-02-26 03:49:49,1740570589,5845,p,6.17,7.7,91.9,-106.1,16.7
588,1675,2025-02-26 03:49:59,1740570599,5855,p,6.17,7.7,91.9,-106.1,16.7
589,1676,2025-02-26 03:50:09,1740570609,5865,p,6.17,7.7,91.9,-106.1,16.7
590,1677,2025-02-26 03:50:19,1740570619,5875,p,6.16,7.7,91.9,-106.1,16.7
591,1678,2025-02-25 09:38:13,1740505093,-59651,p,6.17,7.7,91.9,-106.1,16.7
592,1679,2025-02-25 09:38:23,1740505103,-59641,p,6.16,7.7,91.9,-106.1,16.7
593,1680,2025-02-25 09:38:33,1740505113,-59631,p,6.16,7.7,91.9,-106.1,16.7
594,1681,2025-02-25 09:38:42,1740505122,-59622,p,6.17,7.7,91.9,-106.1,16.7
595,1682,2025-02-25 09:38:52,1740505132,-59612,p,6.17,7.7,91.9,-106.1,16.7
596,1683,2025-02-25 09:39:02,1740505142,-59602,p,6.17,7.7,91.9,-106.1,16.7
597,1684,2025-02-25 09:39:12,1740505152,-59592,p,6.17,7.7,91.9,-106.1,16.7
598,1685,2025-02-25 09:39:22,1740505162,-59582,p,6.16,7.7,91.9,-106.1,16.7
599,1686,2025-02-25 09:39:32,1740505172,-59572,p,6.17,7.7,91.9,-106.1,16.7
600,1687,2025-02-25 09:39:42,1740505182,-59562,p,6.16,7.7,91.9,-106.1,16.7
601,1688,2025-02-25 09:39:52,1740505192,-59552,p,6.17,7.7,91.9,-106.1,16.7
602,1689,2025-02-25 09:40:02,1740505202,-59542,p,6.16,7.7,91.9,-106.1,16.7
603,1690,2025-02-25 09:40:12,1740505212,-59532,p,6.17,7.7,91.9,-106.1,16.7
604,1691,2025-02-25 09:40:22,1740505222,-59522,p,6.17,7.7,91.9,-106.1,16.7
605,1692,2025-02-25 09:40:32,1740505232,-59512,p,6.17,7.7,91.9,-106.1,16.7
606,1693,2025-02-25 09:40:42,1740505242,-59502,p,6.17,7.7,91.9,-106.1,16.7
607,1694,2025-02-25 09:40:52,1740505252,-59492,p,6.17,7.7,91.9,-106.1,16.7
608,1695,2025-02-25 09:41:02,1740505262,-59482,p,6.17,7.7,91.9,-106.1,16.7
609,1696,2025-02-25 09:41:12,1740505272,-59472,p,6.17,7.7,91.9,-106.1,16.7
610,1697,2025-02-25 09:41:22,1740505282,-59462,p,6.17,7.7,91.9,-106.1,16.7
611,1698,2025-02-25 09:41:32,1740505292,-59452,p,6.17,7.7,91.9,-106.1,16.7
612,1699,2025-02-25 09:41:42,1740505302,-59442,p,6.17,7.7,91.9,-106.1,16.7
613,1700,2025-02-25 09:41:52,1740505312,-59432,p,6.18,7.7,91.9,-106.1,16.7
614,1701,2025-02-25 09:42:02,1740505322,-59422,p,6.17,7.7,91.9,-106.1,16.7
615,1702,2025-02-25 09:42:11,1740505331,-59413,p,6.17,7.7,91.9,-106.1,16.7
616,1703,2025-02-25 09:42:21,1740505341,-59403,p,6.17,7.7,91.9,-106.1,16.7
617,1704,2025-02-25 09:42:31,1740505351,-59393,p,6.17,7.7,91.9,-106.1,16.7
618,1705,2025-02-25 09:42:41,1740505361,-59383,p,6.17,7.7,91.9,-106.1,16.7
619,1706,2025-02-25 09:42:51,1740505371,-59373,p,6.17,7.7,91.9,-106.1,16.7
620,1707,2025-02-25 09:43:01,1740505381,-59363,p,6.18,7.7,91.9,-106.1,16.7
621,1708,2025-02-25 09:43:11,1740505391,-59353,p,6.18,7.7,91.9,-106.1,16.7
622,1709,2025-02-25 09:43:21,1740505401,-59343,p,6.17,7.7,91.9,-106.1,16.7
623,1710,2025-02-25 09:43:31,1740505411,-59333,p,6.18,7.7,91.9,-106.1,16.7
624,1711,2025-02-25 09:43:41,1740505421,-59323,p,6.18,7.7,91.9,-106.1,16.7
625,1712,2025-02-25 09:43:51,1740505431,-59313,p,6.18,7.7,91.9,-106.1,16.7
626,1713,2025-02-25 09:44:01,1740505441,-59303,p,6.18,7.7,91.9,-106.1,16.7
627,1714,2025-02-25 09:44:11,1740505451,-59293,p,6.18,7.7,91.9,-106.1,16.7
628,1715,2025-02-25 09:44:21,1740505461,-59283,p,6.19,7.7,91.9,-106.1,16.7
629,1716,2025-02-25 09:44:31,1740505471,-59273,p,6.18,7.6,91.9,-106.1,16.7
630,1717,2025-02-25 09:44:41,1740505481,-59263,p,6.18,7.7,91.9,-106.1,16.7
631,1718,2025-02-25 09:44:51,1740505491,-59253,p,6.18,7.7,91.9,-106.1,16.7
632,1719,2025-02-25 09:45:01,1740505501,-59243,p,6.18,7.7,91.9,-106.1,16.7
633,1720,2025-02-25 09:45:11,1740505511,-59233,p,6.18,7.7,91.9,-106.1,16.7
634,1721,2025-02-25 09:45:21,1740505521,-59223,p,6.18,7.7,91.9,-106.1,16.7
635,1722,2025-02-25 09:45:31,1740505531,-59213,p,6.18,7.7,91.9,-106.1,16.7
636,1723,2025-02-25 09:45:40,1740505540,-59204,p,6.18,7.7,91.9,-106.1,16.7
637,1724,2025-02-25 09:45:50,1740505550,-59194,p,6.18,7.7,91.9,-106.1,16.7
638,1725,2025-02-25 09:46:00,1740505560,-59184,p,6.18,7.7,91.9,-106.1,16.7
639,1726,2025-02-25 09:46:10,1740505570,-59174,p,6.18,7.7,91.9,-106.1,16.7
640,1727,2025-02-25 09:46:20,1740505580,-59164,p,6.18,7.7,91.9,-106.1,16.7
641,1728,2025-02-25 09:46:30,1740505590,-59154,p,6.19,7.7,91.9,-106.1,16.7
642,1729,2025-02-25 09:46:40,1740505600,-59144,p,6.18,7.7,91.9,-106.1,16.7
643,1730,2025-02-25 09:46:50,1740505610,-59134,p,6.18,7.7,91.9,-106.1,16.7
644,1731,2025-02-25 09:47:00,1740505620,-59124,p,6.18,7.7,91.9,-106.1,16.7
645,1732,2025-02-25 09:47:10,1740505630,-59114,p,6.19,7.7,91.9,-106.1,16.7
646,1733,2025-02-25 09:47:20,1740505640,-59104,p,6.19,7.7,91.9,-106.1,16.7
647,1734,2025-02-25 09:47:30,1740505650,-59094,p,6.18,7.7,91.9,-106.1,16.7
648,1735,2025-02-25 09:47:40,1740505660,-59084,p,6.18,7.7,91.9,-106.1,16.7
649,1736,2025-02-25 11:35:34,1740512134,-52610,p,6.19,7.7,91.9,-106.1,16.7
650,1737,2025-02-25 11:35:44,1740512144,-52600,p,6.19,7.7,91.9,-106.1,16.7
651,1738,2025-02-25 11:35:54,1740512154,-52590,p,6.18,7.7,91.9,-106.1,16.7
652,1739,2025-02-25 11:36:04,1740512164,-52580,p,6.19,7.7,91.9,-106.1,16.7
653,1740,2025-02-25 11:36:14,1740512174,-52570,p,6.19,7.7,91.9,-106.1,16.7
654,1741,2025-02-25 11:36:24,1740512184,-52560,p,6.19,7.7,91.9,-106.1,16.7
655,1742,2025-02-25 11:36:34,1740512194,-52550,p,6.18,7.7,91.9,-106.1,16.7
656,1743,2025-02-25 11:36:44,1740512204,-52540,p,6.18,7.7,91.9,-106.1,16.7
657,1744,2025-02-25 11:36:54,1740512214,-52530,p,6.19,7.7,91.9,-106.1,16.7
658,1745,2025-02-25 11:37:03,1740512223,-52521,p,6.18,7.7,91.9,-106.1,16.7
659,1746,2025-02-25 11:37:13,1740512233,-52511,p,6.18,7.7,91.9,-106.1,16.7
660,1747,2025-02-25 11:37:23,1740512243,-52501,p,6.18,7.7,91.9,-106.1,16.7
661,1748,2025-02-25 11:37:33,1740512253,-52491,p,6.18,7.7,91.9,-106.1,16.7
662,1749,2025-02-25 11:37:43,1740512263,-52481,p,6.19,7.7,91.9,-106.1,16.7
663,1750,2025-02-25 11:37:53,1740512273,-52471,p,6.19,7.7,91.9,-106.1,16.7
664,1751,2025-02-25 11:38:03,1740512283,-52461,p,6.19,7.6,91.9,-106.1,16.7
665,1752,2025-02-25 11:38:13,1740512293,-52451,p,6.19,7.6,91.9,-106.1,16.7
666,1753,2025-02-25 11:38:23,1740512303,-52441,p,6.19,7.6,91.9,-106.1,16.7
667,1754,2025-02-25 11:38:33,1740512313,-52431,p,6.18,7.6,91.9,-106.1,16.7
668,1755,2025-02-25 11:38:43,1740512323,-52421,p,6.18,7.6,91.9,-106.1,16.7
669,1756,2025-02-25 11:38:53,1740512333,-52411,p,6.19,7.6,91.9,-106.1,16.7
670,1757,2025-02-25 11:39:03,1740512343,-52401,p,6.19,7.6,91.9,-106.1,16.7
671,1758,2025-02-25 11:39:13,1740512353,-52391,p,6.19,7.6,91.9,-106.1,16.7
672,1759,2025-02-25 11:39:23,1740512363,-52381,p,6.19,7.6,91.9,-106.1,16.7
673,1760,2025-02-25 11:39:33,1740512373,-52371,p,6.19,7.6,91.9,-106.1,16.7
674,1761,2025-02-25 11:39:43,1740512383,-52361,p,6.19,7.6,91.9,-106.1,16.7
675,1762,2025-02-25 11:39:53,1740512393,-52351,p,6.19,7.6,91.9,-106.1,16.7
676,1763,2025-02-25 11:40:03,1740512403,-52341,p,6.19,7.6,91.9,-106.1,16.7
677,1764,2025-02-25 11:40:13,1740512413,-52331,p,6.19,7.6,91.9,-106.1,16.7
678,1765,2025-02-25 11:40:23,1740512423,-52321,p,6.19,7.7,91.9,-106.1,16.7
679,1766,2025-02-25 11:40:32,1740512432,-52312,p,6.18,7.7,91.9,-106.1,16.7
680,1767,2025-02-25 11:40:42,1740512442,-52302,p,6.18,7.7,91.9,-106.1,16.7
681,1768,2025-02-25 11:40:52,1740512452,-52292,p,6.19,7.7,91.9,-106.1,16.7
682,1769,2025-02-25 11:41:02,1740512462,-52282,p,6.19,7.7,91.9,-106.1,16.7
683,1770,2025-02-25 11:41:12,1740512472,-52272,p,6.2,7.7,91.9,-106.1,16.7
684,1771,2025-02-25 11:41:22,1740512482,-52262,p,6.2,7.7,91.9,-106.1,16.7
685,1772,2025-02-25 11:41:32,1740512492,-52252,p,6.2,7.7,91.9,-106.1,16.7
686,1773,2025-02-25 11:41:42,1740512502,-52242,p,6.19,7.7,91.9,-106.1,16.7
687,1774,2025-02-25 11:41:52,1740512512,-52232,p,6.19,7.7,91.9,-106.1,16.7
688,1775,2025-02-25 11:42:02,1740512522,-52222,p,6.19,7.7,91.9,-106.1,16.7
689,1776,2025-02-25 11:42:12,1740512532,-52212,p,6.19,7.7,91.9,-106.1,16.7
690,1777,2025-02-25 11:42:22,1740512542,-52202,p,6.19,7.7,91.9,-106.1,16.7
691,1778,2025-02-25 11:42:32,1740512552,-52192,p,6.2,7.7,91.9,-106.1,16.7
692,1779,2025-02-25 11:42:42,1740512562,-52182,p,6.19,7.7,91.9,-106.1,16.7
693,1780,2025-02-25 11:42:52,1740512572,-52172,p,6.19,7.7,91.9,-106.1,16.7
694,1781,2025-02-25 11:43:02,1740512582,-52162,p,6.2,7.7,91.9,-106.1,16.7
695,1782,2025-02-25 11:43:12,1740512592,-52152,p,6.19,7.7,91.9,-106.1,16.7
696,1783,2025-02-25 11:43:22,1740512602,-52142,p,6.19,7.7,91.9,-106.1,16.7
697,1784,2025-02-25 11:43:32,1740512612,-52132,p,6.18,7.7,91.9,-106.1,16.7
698,1785,2025-02-25 11:43:42,1740512622,-52122,p,6.19,7.7,91.9,-106.1,16.7
699,1786,2025-02-25 11:43:52,1740512632,-52112,p,6.18,7.7,91.9,-106.1,16.7
700,1787,2025-02-25 11:44:01,1740512641,-52103,p,6.18,7.7,91.9,-106.1,16.7
701,1788,2025-02-25 11:44:11,1740512651,-52093,p,6.19,7.7,91.9,-106.1,16.7
702,1789,2025-02-25 11:44:21,1740512661,-52083,p,6.19,7.7,91.9,-106.1,16.7
703,1790,2025-02-25 11:44:31,1740512671,-52073,p,6.18,7.7,91.9,-106.1,16.7
704,1791,2025-02-25 11:44:41,1740512681,-52063,p,6.18,7.7,91.9,-106.1,16.7
705,1792,2025-02-25 11:44:51,1740512691,-52053,p,6.18,7.7,91.9,-106.1,16.7
706,1793,2025-02-25 11:45:01,1740512701,-52043,p,6.18,7.7,91.9,-106.1,16.7
707,1794,2025-02-25 11:45:11,1740512711,-52033,p,6.18,7.7,91.9,-106.1,16.7
708,1795,2025-02-25 11:45:21,1740512721,-52023,p,6.18,7.7,91.9,-106.1,16.7
709,1796,2025-02-25 11:45:31,1740512731,-52013,p,6.18,7.7,91.9,-106.1,16.7
710,1797,2025-02-25 11:45:41,1740512741,-52003,p,6.18,7.7,91.9,-106.1,16.7
711,1798,2025-02-25 11:45:51,1740512751,-51993,p,6.18,7.7,91.9,-106.1,16.7
712,1799,2025-02-25 11:46:01,1740512761,-51983,p,6.18,7.7,91.9,-106.1,16.7
713,1800,2025-02-25 11:46:11,1740512771,-51973,p,6.18,7.7,91.9,-106.1,16.7
714,1801,2025-02-25 11:46:21,1740512781,-51963,p,6.19,7.7,91.9,-106.1,16.7
715,1802,2025-02-25 11:46:31,1740512791,-51953,p,6.19,7.7,91.9,-106.1,16.7
716,1803,2025-02-25 11:46:41,1740512801,-51943,p,6.19,7.7,91.9,-106.1,16.7
717,1804,2025-02-25 11:46:51,1740512811,-51933,p,6.19,7.7,91.9,-106.1,16.7
718,1805,2025-02-25 11:47:01,1740512821,-51923,p,6.19,7.7,91.9,-106.1,16.7
719,1806,2025-02-25 11:47:11,1740512831,-51913,p,6.19,7.7,91.9,-106.1,16.7
720,1807,2025-02-25 11:47:21,1740512841,-51903,p,6.19,7.7,91.9,-106.1,16.7
721,1808,2025-02-25 11:47:31,1740512851,-51893,p,6.19,7.7,91.9,-106.1,16.7
722,1809,2025-02-25 11:47:40,1740512860,-51884,p,6.19,7.7,91.9,-106.1,16.7
723,1810,2025-02-25 11:47:50,1740512870,-51874,p,6.19,7.7,91.9,-106.1,16.7
724,1811,2025-02-25 11:48:00,1740512880,-51864,p,6.19,7.7,91.9,-106.1,16.7
725,1812,2025-02-25 11:48:10,1740512890,-51854,p,6.19,7.7,91.9,-106.1,16.7
726,1813,2025-02-25 11:48:20,1740512900,-51844,p,6.19,7.7,91.9,-106.1,16.7
727,1814,2025-02-25 11:48:30,1740512910,-51834,p,6.19,7.7,91.9,-106.1,16.7
728,1815,2025-02-25 11:48:40,1740512920,-51824,p,6.2,7.7,91.9,-106.1,16.7
729,1816,2025-02-25 11:48:50,1740512930,-51814,p,6.2,7.7,91.9,-106.1,16.7
730,1817,2025-02-25 11:49:00,1740512940,-51804,p,6.2,7.7,91.9,-106.1,16.7
731,1818,2025-02-25 11:49:10,1740512950,-51794,p,6.2,7.7,91.9,-106.1,16.7
732,1819,2025-02-25 11:49:20,1740512960,-51784,p,6.2,7.7,91.9,-106.1,16.7
733,1820,2025-02-25 11:49:30,1740512970,-51774,p,6.2,7.7,91.9,-106.1,16.7
734,1821,2025-02-25 11:49:40,1740512980,-51764,p,6.2,7.7,91.9,-106.1,16.7
735,1822,2025-02-25 11:49:50,1740512990,-51754,p,6.19,7.7,91.9,-106.1,16.7
736,1823,2025-02-25 11:50:00,1740513000,-51744,p,6.19,7.7,91.9,-106.1,16.7
737,1824,2025-02-25 11:50:10,1740513010,-51734,p,6.2,7.7,91.9,-106.1,16.7
738,1825,2025-02-25 11:50:20,1740513020,-51724,p,6.2,7.7,91.9,-106.1,16.7
739,1826,2025-02-25 11:50:30,1740513030,-51714,p,6.2,7.7,91.9,-106.1,16.7
740,1827,2025-02-25 11:50:40,1740513040,-51704,p,6.19,7.7,91.9,-106.1,16.7
741,1828,2025-02-25 11:50:50,1740513050,-51694,p,6.2,7.7,91.9,-106.1,16.7
742,1829,2025-02-25 11:51:00,1740513060,-51684,p,6.19,7.7,91.9,-106.1,16.7
743,1830,2025-02-25 11:51:10,1740513070,-51674,p,6.2,7.7,91.9,-106.1,16.7
744,1831,2025-02-25 11:51:19,1740513079,-51665,p,6.2,7.7,91.9,-106.1,16.7
745,1832,2025-02-25 11:51:29,1740513089,-51655,p,6.2,7.7,91.9,-106.1,16.7
746,1833,2025-02-25 11:51:39,1740513099,-51645,p,6.2,7.7,91.9,-106.1,16.7
747,1834,2025-02-25 11:51:49,1740513109,-51635,p,6.21,7.7,91.9,-106.1,16.7
748,1835,2025-02-25 11:51:59,1740513119,-51625,p,6.21,7.7,91.9,-106.1,16.7
749,1836,2025-02-25 11:52:09,1740513129,-51615,p,6.2,7.7,91.9,-106.1,16.7
750,1837,2025-02-25 11:52:19,1740513139,-51605,p,6.2,7.7,91.9,-106.1,16.7
751,1838,2025-02-25 11:52:29,1740513149,-51595,p,6.2,7.7,91.9,-106.1,16.7
752,1839,2025-02-25 11:52:39,1740513159,-51585,p,6.2,7.7,91.9,-106.1,16.7
753,1840,2025-02-25 11:52:49,1740513169,-51575,p,6.2,7.7,91.9,-106.1,16.7
754,1841,2025-02-25 11:52:59,1740513179,-51565,p,6.2,7.8,91.9,-106.1,16.7
755,1842,2025-02-25 11:53:09,1740513189,-51555,p,6.2,7.8,91.9,-106.1,16.7
756,1843,2025-02-25 11:53:19,1740513199,-51545,p,6.2,7.8,91.9,-106.1,16.7
757,1844,2025-02-25 11:53:29,1740513209,-51535,p,6.2,7.8,91.9,-106.1,16.7
758,1845,2025-02-25 11:53:39,1740513219,-51525,p,6.2,7.8,91.9,-106.1,16.7
759,1846,2025-02-25 11:53:49,1740513229,-51515,p,6.2,7.8,91.9,-106.1,16.7
760,1847,2025-02-25 11:53:59,1740513239,-51505,p,6.2,7.8,91.9,-106.1,16.7
761,1848,2025-02-25 11:54:09,1740513249,-51495,p,6.19,7.7,91.9,-106.1,16.7
762,1849,2025-02-25 11:54:19,1740513259,-51485,p,6.2,7.7,91.9,-106.1,16.7
763,1850,2025-02-25 11:54:29,1740513269,-51475,p,6.21,7.7,91.9,-106.1,16.7
764,1851,2025-02-25 11:54:39,1740513279,-51465,p,6.2,7.7,91.9,-106.1,16.7
765,1852,2025-02-25 11:54:49,1740513289,-51455,p,6.2,7.7,91.9,-106.1,16.7
766,1853,2025-02-25 11:54:58,1740513298,-51446,p,6.2,7.8,91.9,-106.1,16.7
767,1854,2025-02-25 11:55:08,1740513308,-51436,p,6.2,7.8,91.9,-106.1,16.7
768,1855,2025-02-25 11:55:18,1740513318,-51426,p,6.19,7.7,91.9,-106.1,16.7
769,1856,2025-02-25 11:55:28,1740513328,-51416,p,6.19,7.8,91.9,-106.1,16.7
770,1857,2025-02-25 11:55:38,1740513338,-51406,p,6.2,7.8,91.9,-106.1,16.7
771,1858,2025-02-25 11:55:48,1740513348,-51396,p,6.19,7.8,91.9,-106.1,16.7
772,1859,2025-02-25 11:55:58,1740513358,-51386,p,6.19,7.8,91.9,-106.1,16.7
773,1860,2025-02-25 11:56:08,1740513368,-51376,p,6.19,7.7,91.9,-106.1,16.7
774,1861,2025-02-25 11:56:18,1740513378,-51366,p,6.2,7.8,91.9,-106.1,16.7
775,1862,2025-02-25 11:56:28,1740513388,-51356,p,6.2,7.8,91.9,-106.1,16.7
776,1863,2025-02-25 11:56:38,1740513398,-51346,p,6.19,7.8,91.9,-106.1,16.7
777,1864,2025-02-25 11:56:48,1740513408,-51336,p,6.2,7.8,91.9,-106.1,16.7
778,1865,2025-02-25 11:56:58,1740513418,-51326,p,6.2,7.8,91.9,-106.1,16.7
779,1866,2025-02-25 11:57:08,1740513428,-51316,p,6.2,7.8,91.9,-106.1,16.7
780,1867,2025-02-25 11:57:18,1740513438,-51306,p,6.2,7.8,91.9,-106.1,16.7
781,1868,2025-02-25 11:57:28,1740513448,-51296,p,6.19,7.8,91.9,-106.1,16.7
782,1869,2025-02-25 11:57:38,1740513458,-51286,p,6.19,7.8,91.9,-106.1,16.7
783,1870,2025-02-25 11:57:48,1740513468,-51276,p,6.2,7.8,91.9,-106.1,16.7
784,1871,2025-02-25 11:57:58,1740513478,-51266,p,6.19,7.8,91.9,-106.1,16.7
785,1872,2025-02-25 11:58:08,1740513488,-51256,p,6.2,7.8,91.9,-106.1,16.7
786,1873,2025-02-25 11:58:18,1740513498,-51246,p,6.2,7.8,91.9,-106.1,16.7
787,1874,2025-02-25 11:58:28,1740513508,-51236,p,6.2,7.8,91.9,-106.1,16.7
788,1875,2025-02-25 11:58:37,1740513517,-51227,p,6.21,7.8,91.9,-106.1,16.7
789,1876,2025-02-25 11:58:47,1740513527,-51217,p,6.2,7.8,91.9,-106.1,16.7
790,1877,2025-02-25 11:58:57,1740513537,-51207,p,6.2,7.8,91.9,-106.1,16.7
791,1878,2025-02-25 11:59:07,1740513547,-51197,p,6.2,7.8,91.9,-106.1,16.7
792,1879,2025-02-25 11:59:17,1740513557,-51187,p,6.21,7.8,91.9,-106.1,16.7
793,1880,2025-02-25 11:59:27,1740513567,-51177,p,6.21,7.8,91.9,-106.1,16.7
794,1881,2025-02-25 11:59:37,1740513577,-51167,p,6.21,7.8,91.9,-106.1,16.7
795,1882,2025-02-25 11:59:47,1740513587,-51157,p,6.2,7.8,91.9,-106.1,16.7
796,1883,2025-02-25 11:59:57,1740513597,-51147,p,6.21,7.8,91.9,-106.1,16.7
797,1884,2025-02-25 12:00:07,1740513607,-51137,p,6.21,7.8,91.9,-106.1,16.7
798,1885,2025-02-25 12:00:17,1740513617,-51127,p,6.2,7.8,91.9,-106.1,16.7
799,1886,2025-02-25 12:00:27,1740513627,-51117,p,6.21,7.8,91.9,-106.1,16.7
800,1887,2025-02-25 12:00:37,1740513637,-51107,p,6.21,7.8,91.9,-106.1,16.7
801,1888,2025-02-25 12:00:47,1740513647,-51097,p,6.21,7.7,91.9,-106.1,16.7
802,1889,2025-02-25 12:00:57,1740513657,-51087,p,6.21,7.7,91.9,-106.1,16.7
803,1890,2025-02-25 12:01:07,1740513667,-51077,p,6.22,7.7,91.9,-106.1,16.7
804,1891,2025-02-25 12:01:17,1740513677,-51067,p,6.21,7.7,91.9,-106.1,16.7
805,1892,2025-02-25 12:01:27,1740513687,-51057,p,6.21,7.7,91.9,-106.1,16.7
806,1893,2025-02-25 12:01:37,1740513697,-51047,p,6.21,7.7,91.9,-106.1,16.7
807,1894,2025-02-25 12:01:47,1740513707,-51037,p,6.21,7.7,91.9,-106.2,16.7
808,1895,2025-02-25 12:01:57,1740513717,-51027,p,6.21,7.7,91.9,-106.2,16.7
809,1896,2025-02-25 12:02:06,1740513726,-51018,p,6.22,7.7,91.9,-106.2,16.7
810,1897,2025-02-25 12:02:16,1740513736,-51008,p,6.21,7.7,91.9,-106.2,16.7
811,1898,2025-02-25 12:02:26,1740513746,-50998,p,6.21,7.7,91.9,-106.2,16.7
