Number,Id,Datetime,Timestamp,Runtime,Type,Depth,Temperature,Heading,Roll,Pitch
1,2689,2025-04-01 02:01:34,1743498094,12,p,0.11,10.7,180,-86.7,0.1
2,2690,2025-04-01 02:01:44,1743498104,22,p,0.11,10.7,180,-86.7,0.1
3,2691,2025-04-01 02:01:54,1743498114,32,p,0.12,10.7,185.5,-95.6,-5.5
4,2692,2025-04-01 02:02:04,1743498124,42,p,0.87,10,140.1,-86.8,1.9
5,2693,2025-04-01 02:02:14,1743498134,52,p,2.18,9.3,115.3,-89.1,-0.7
6,2694,2025-04-01 02:02:24,1743498144,62,p,3.15,9,67.2,-92.9,1.1
7,2695,2025-04-01 02:02:34,1743498154,72,p,2.77,8.8,34.5,-91.3,-1.3
8,2696,2025-04-01 02:02:44,1743498164,82,p,2.59,8.8,13.1,-91.7,-0.8
9,2697,2025-04-01 02:02:54,1743498174,92,p,2.78,8.7,325.8,-88.7,-0.9
10,2698,2025-04-01 02:03:04,1743498184,102,p,2.86,8.7,217.9,-85.7,0.3
11,2699,2025-04-01 02:03:14,1743498194,112,p,4.81,8.7,239.1,-77.6,84.1
12,2700,2025-04-01 02:03:24,1743498204,122,p,4.87,8.7,247.1,-107.6,86.9
13,2701,2025-04-01 02:03:34,1743498214,132,p,4.88,8.7,247.1,-107.6,86.9
14,2702,2025-04-01 02:03:44,1743498224,142,p,4.88,8.7,247.1,-107.6,86.9
15,2703,2025-04-01 02:03:53,1743498233,151,p,4.88,8.7,247.1,-107.6,86.9
16,2704,2025-04-01 02:04:03,1743498243,161,p,4.88,8.7,247.1,-107.6,86.9
17,2705,2025-04-01 02:04:13,1743498253,171,p,4.88,8.7,247.4,-107.9,86.6
18,2706,2025-04-01 02:04:23,1743498263,181,p,4.88,8.7,247.4,-107.9,86.6
19,2707,2025-04-01 02:04:33,1743498273,191,p,4.87,8.7,247.4,-107.9,86.6
20,2708,2025-04-01 02:04:43,1743498283,201,p,4.86,8.7,247.4,-107.9,86.6
21,2709,2025-04-01 02:04:53,1743498293,211,p,4.86,8.7,247.4,-107.9,86.6
22,2710,2025-04-01 02:05:03,1743498303,221,p,4.86,8.7,247.4,-107.9,86.6
23,2711,2025-04-01 02:05:13,1743498313,231,p,4.86,8.7,247.4,-107.9,86.6
24,2712,2025-04-01 02:05:23,1743498323,241,p,4.85,8.7,247.4,-107.9,86.6
25,2713,2025-04-01 02:05:33,1743498333,251,p,4.85,8.7,247.4,-107.9,86.6
26,2714,2025-04-01 02:05:43,1743498343,261,p,4.86,8.7,247.6,-108.1,86.5
27,2715,2025-04-01 02:05:53,1743498353,271,p,4.85,8.7,247.6,-108.1,86.5
28,2716,2025-04-01 02:06:03,1743498363,281,p,4.85,8.7,247.6,-108.1,86.5
29,2717,2025-04-01 02:06:13,1743498373,291,p,4.85,8.7,247.6,-108.1,86.5
30,2718,2025-04-01 02:06:23,1743498383,301,p,4.85,8.7,247.6,-108.1,86.5
31,2719,2025-04-01 02:06:33,1743498393,311,p,4.86,8.7,247.6,-108.1,86.5
32,2720,2025-04-01 02:06:43,1743498403,321,p,4.86,8.7,247.6,-108.1,86.5
33,2721,2025-04-01 02:06:53,1743498413,331,p,4.86,8.7,247.6,-108.1,86.5
34,2722,2025-04-01 02:07:03,1743498423,341,p,4.85,8.7,247.6,-108.1,86.5
35,2723,2025-04-01 02:07:13,1743498433,351,p,4.85,8.7,247.6,-108.1,86.5
36,2724,2025-04-01 02:07:23,1743498443,361,p,4.84,8.7,247.6,-108.1,86.5
37,2725,2025-04-01 02:07:33,1743498453,371,p,4.84,8.7,247.6,-108.1,86.5
38,2726,2025-04-01 02:07:42,1743498462,380,p,4.83,8.7,247.6,-108.1,86.5
39,2727,2025-04-01 02:07:52,1743498472,390,p,4.83,8.7,247.6,-108.1,86.5
40,2728,2025-04-01 02:08:02,1743498482,400,p,4.83,8.7,247.6,-108.1,86.5
41,2729,2025-04-01 02:08:12,1743498492,410,p,4.84,8.7,247.6,-108.1,86.5
42,2730,2025-04-01 02:08:22,1743498502,420,p,4.84,8.7,247.6,-108.1,86.5
43,2731,2025-04-01 02:08:32,1743498512,430,p,4.83,8.7,247.6,-108.1,86.5
44,2732,2025-04-01 02:08:42,1743498522,440,p,4.83,8.7,247.6,-108.1,86.5
45,2733,2025-04-01 02:08:52,1743498532,450,p,4.83,8.7,247.6,-108.1,86.5
46,2734,2025-04-01 02:09:02,1743498542,460,p,4.83,8.7,247.6,-108.1,86.5
47,2735,2025-04-01 02:09:12,1743498552,470,p,4.83,8.7,247.6,-108.1,86.5
48,2736,2025-04-01 02:09:22,1743498562,480,p,4.83,8.7,247.6,-108.1,86.5
49,2737,2025-04-01 02:09:32,1743498572,490,p,4.83,8.7,247.6,-108.1,86.5
50,2738,2025-04-01 02:09:42,1743498582,500,p,4.83,8.7,247.6,-108.1,86.5
51,2739,2025-04-01 02:09:52,1743498592,510,p,4.83,8.7,247.6,-108.1,86.5
52,2740,2025-04-01 02:10:02,1743498602,520,p,4.84,8.7,247.6,-108.1,86.5
53,2741,2025-04-01 02:10:12,1743498612,530,p,4.83,8.7,247.6,-108.1,86.5
54,2742,2025-04-01 02:10:22,1743498622,540,p,4.83,8.7,247.6,-108.1,86.5
55,2743,2025-04-01 02:10:32,1743498632,550,p,4.83,8.7,247.6,-108.1,86.5
56,2744,2025-04-01 02:10:42,1743498642,560,p,4.83,8.7,247.6,-108.1,86.5
57,2745,2025-04-01 02:10:52,1743498652,570,p,4.82,8.7,247.6,-108.1,86.5
58,2746,2025-04-01 02:11:02,1743498662,580,p,4.81,8.7,247.6,-108.1,86.5
59,2747,2025-04-01 02:11:12,1743498672,590,p,4.81,8.7,247.6,-108.1,86.5
60,2748,2025-04-01 02:11:22,1743498682,600,p,4.81,8.7,247.6,-108.1,86.5
61,2749,2025-04-01 02:11:31,1743498691,609,p,4.82,8.7,247.6,-108.1,86.5
62,2750,2025-04-01 02:11:41,1743498701,619,p,4.81,8.7,247.6,-108.1,86.5
63,2751,2025-04-01 02:11:51,1743498711,629,p,4.81,8.7,247.6,-108.1,86.5
64,2752,2025-04-01 02:12:01,1743498721,639,p,4.82,8.7,247.6,-108.1,86.5
65,2753,2025-04-01 02:12:11,1743498731,649,p,4.82,8.7,247.6,-108.1,86.5
66,2754,2025-04-01 02:12:21,1743498741,659,p,4.82,8.7,247.6,-108.1,86.5
67,2755,2025-04-01 02:12:31,1743498751,669,p,4.81,8.7,247.6,-108.1,86.5
68,2756,2025-04-01 02:12:41,1743498761,679,p,4.81,8.7,247.6,-108.1,86.5
69,2757,2025-04-01 02:12:51,1743498771,689,p,4.8,8.7,247.6,-108.1,86.5
70,2758,2025-04-01 02:13:01,1743498781,699,p,4.8,8.6,247.6,-108.1,86.5
71,2759,2025-04-01 02:13:11,1743498791,709,p,4.79,8.7,247.6,-108.1,86.5
72,2760,2025-04-01 02:13:21,1743498801,719,p,4.79,8.6,247.6,-108.1,86.5
73,2761,2025-04-01 02:13:31,1743498811,729,p,4.79,8.7,247.6,-108.1,86.5
74,2762,2025-04-01 02:13:41,1743498821,739,p,4.8,8.7,247.6,-108.1,86.5
75,2763,2025-04-01 02:13:51,1743498831,749,p,4.8,8.7,247.6,-108.1,86.5
76,2764,2025-04-01 02:14:01,1743498841,759,p,4.79,8.7,247.6,-108.1,86.5
77,2765,2025-04-01 02:14:11,1743498851,769,p,4.79,8.7,247.6,-108.1,86.5
78,2766,2025-04-01 02:14:21,1743498861,779,p,4.78,8.7,247.6,-108.1,86.5
79,2767,2025-04-01 02:14:31,1743498871,789,p,4.78,8.7,247.6,-108.1,86.5
80,2768,2025-04-01 02:14:41,1743498881,799,p,4.78,8.7,247.6,-108.1,86.5
81,2769,2025-04-01 02:14:51,1743498891,809,p,4.78,8.7,247.6,-108.1,86.5
82,2770,2025-04-01 02:15:00,1743498900,818,p,4.78,8.7,247.6,-108.1,86.5
83,2771,2025-04-01 02:15:10,1743498910,828,p,4.78,8.7,247.6,-108.1,86.5
84,2772,2025-04-01 02:15:20,1743498920,838,p,4.78,8.7,247.6,-108.1,86.5
85,2773,2025-04-01 02:15:30,1743498930,848,p,4.78,8.6,247.6,-108.1,86.5
86,2774,2025-04-01 02:15:40,1743498940,858,p,4.78,8.6,247.6,-108.1,86.5
87,2775,2025-04-01 02:15:50,1743498950,868,p,4.78,8.6,247.6,-108.1,86.5
88,2776,2025-04-01 02:16:00,1743498960,878,p,4.78,8.7,247.6,-108.1,86.5
89,2777,2025-04-01 02:16:10,1743498970,888,p,4.77,8.7,247.6,-108.1,86.5
90,2778,2025-04-01 02:16:20,1743498980,898,p,4.77,8.7,247.6,-108.1,86.5
91,2779,2025-04-01 02:16:30,1743498990,908,p,4.77,8.7,247.6,-108.1,86.5
92,2780,2025-04-01 02:16:40,1743499000,918,p,4.77,8.7,247.7,-108.2,86.4
93,2781,2025-04-01 02:16:50,1743499010,928,p,4.77,8.7,247.7,-108.2,86.4
94,2782,2025-04-01 02:17:00,1743499020,938,p,4.78,8.7,247.7,-108.2,86.4
95,2783,2025-04-01 02:17:10,1743499030,948,p,4.79,8.6,247.7,-108.2,86.4
96,2784,2025-04-01 02:17:20,1743499040,958,p,4.78,8.6,247.7,-108.2,86.4
97,2785,2025-04-01 02:17:30,1743499050,968,p,4.77,8.6,247.7,-108.2,86.4
98,2786,2025-04-01 02:17:40,1743499060,978,p,4.78,8.6,247.7,-108.2,86.4
99,2787,2025-04-01 02:17:50,1743499070,988,p,4.77,8.6,247.7,-108.2,86.4
100,2788,2025-04-01 02:18:00,1743499080,998,p,4.77,8.6,247.7,-108.2,86.4
101,2789,2025-04-01 02:18:10,1743499090,1008,p,4.75,8.6,247.7,-108.2,86.4
102,2790,2025-04-01 02:18:20,1743499100,1018,p,4.75,8.6,247.7,-108.2,86.4
103,2791,2025-04-01 02:18:30,1743499110,1028,p,4.75,8.6,247.7,-108.2,86.4
104,2792,2025-04-01 02:18:40,1743499120,1038,p,4.76,8.6,247.7,-108.2,86.4
105,2793,2025-04-01 02:18:49,1743499129,1047,p,4.74,8.6,247.7,-108.2,86.4
106,2794,2025-04-01 02:18:59,1743499139,1057,p,4.75,8.6,247.7,-108.2,86.4
107,2795,2025-04-01 02:19:09,1743499149,1067,p,4.76,8.6,247.7,-108.2,86.4
108,2796,2025-04-01 02:19:19,1743499159,1077,p,4.75,8.7,247.7,-108.2,86.4
109,2797,2025-04-01 02:19:29,1743499169,1087,p,4.76,8.7,247.7,-108.2,86.4
110,2798,2025-04-01 02:19:39,1743499179,1097,p,4.76,8.7,247.7,-108.2,86.4
111,2799,2025-04-01 02:19:49,1743499189,1107,p,4.75,8.7,247.7,-108.2,86.4
112,2800,2025-04-01 02:19:59,1743499199,1117,p,4.75,8.7,247.7,-108.2,86.4
113,2801,2025-04-01 02:20:09,1743499209,1127,p,4.74,8.7,247.7,-108.2,86.4
114,2802,2025-04-01 02:20:19,1743499219,1137,p,4.74,8.6,247.7,-108.2,86.4
115,2803,2025-04-01 02:20:29,1743499229,1147,p,4.74,8.6,247.7,-108.2,86.4
116,2804,2025-04-01 02:20:39,1743499239,1157,p,4.74,8.6,247.7,-108.2,86.4
117,2805,2025-04-01 02:20:49,1743499249,1167,p,4.74,8.6,247.7,-108.2,86.4
118,2806,2025-04-01 02:20:59,1743499259,1177,p,4.75,8.6,247.7,-108.2,86.4
119,2807,2025-04-01 02:21:09,1743499269,1187,p,4.74,8.6,247.7,-108.2,86.4
120,2808,2025-04-01 02:21:19,1743499279,1197,p,4.74,8.6,247.7,-108.2,86.4
121,2809,2025-04-01 02:21:29,1743499289,1207,p,4.74,8.6,247.7,-108.2,86.4
122,2810,2025-04-01 02:21:39,1743499299,1217,p,4.74,8.6,247.7,-108.2,86.4
123,2811,2025-04-01 02:21:49,1743499309,1227,p,4.74,8.6,247.7,-108.2,86.4
124,2812,2025-04-01 02:21:59,1743499319,1237,p,4.73,8.6,247.7,-108.2,86.4
125,2813,2025-04-01 02:22:09,1743499329,1247,p,4.72,8.6,247.7,-108.2,86.4
126,2814,2025-04-01 02:22:18,1743499338,1256,p,4.72,8.6,247.7,-108.2,86.4
127,2815,2025-04-01 02:22:28,1743499348,1266,p,4.72,8.6,247.7,-108.2,86.4
128,2816,2025-04-01 02:22:38,1743499358,1276,p,4.72,8.6,247.7,-108.2,86.4
129,2817,2025-04-01 02:22:48,1743499368,1286,p,4.72,8.6,247.7,-108.2,86.4
130,2818,2025-04-01 02:22:58,1743499378,1296,p,4.72,8.6,247.7,-108.2,86.4
131,2819,2025-04-01 02:23:08,1743499388,1306,p,4.72,8.6,247.7,-108.2,86.4
132,2820,2025-04-01 02:23:18,1743499398,1316,p,4.73,8.6,247.7,-108.2,86.4
133,2821,2025-04-01 02:23:28,1743499408,1326,p,4.73,8.6,247.7,-108.2,86.4
134,2822,2025-04-01 02:23:38,1743499418,1336,p,4.72,8.6,247.7,-108.2,86.4
135,2823,2025-04-01 02:23:48,1743499428,1346,p,4.72,8.6,247.7,-108.2,86.4
136,2824,2025-04-01 02:23:58,1743499438,1356,p,4.71,8.6,247.7,-108.2,86.4
137,2825,2025-04-01 02:24:08,1743499448,1366,p,4.7,8.6,247.7,-108.2,86.4
138,2826,2025-04-01 02:24:18,1743499458,1376,p,4.69,8.6,247.7,-108.2,86.4
139,2827,2025-04-01 02:24:28,1743499468,1386,p,4.69,8.6,247.7,-108.2,86.4
140,2828,2025-04-01 02:24:38,1743499478,1396,p,4.7,8.6,247.7,-108.2,86.4
141,2829,2025-04-01 02:24:48,1743499488,1406,p,4.7,8.6,247.7,-108.2,86.4
142,2830,2025-04-01 02:24:58,1743499498,1416,p,4.7,8.6,247.7,-108.2,86.4
143,2831,2025-04-01 02:25:08,1743499508,1426,p,4.71,8.6,247.7,-108.2,86.4
144,2832,2025-04-01 02:25:18,1743499518,1436,p,4.71,8.6,247.7,-108.2,86.4
145,2833,2025-04-01 02:25:28,1743499528,1446,p,4.7,8.6,247.7,-108.2,86.4
146,2834,2025-04-01 02:25:38,1743499538,1456,p,4.69,8.6,247.7,-108.2,86.4
147,2835,2025-04-01 02:25:48,1743499548,1466,p,4.69,8.6,247.7,-108.2,86.4
148,2836,2025-04-01 02:25:58,1743499558,1476,p,4.69,8.6,247.7,-108.2,86.4
149,2837,2025-04-01 02:26:07,1743499567,1485,p,4.69,8.6,247.7,-108.2,86.4
150,2838,2025-04-01 02:26:17,1743499577,1495,p,4.69,8.6,247.7,-108.2,86.4
151,2839,2025-04-01 02:26:27,1743499587,1505,p,4.69,8.6,247.7,-108.2,86.4
152,2840,2025-04-01 02:26:37,1743499597,1515,p,4.68,8.6,247.7,-108.2,86.4
153,2841,2025-04-01 02:26:47,1743499607,1525,p,4.69,8.6,247.7,-108.2,86.4
154,2842,2025-04-01 02:26:57,1743499617,1535,p,4.69,8.6,247.7,-108.2,86.4
155,2843,2025-04-01 02:27:07,1743499627,1545,p,4.7,8.6,247.7,-108.2,86.4
156,2844,2025-04-01 02:27:17,1743499637,1555,p,4.69,8.6,247.7,-108.2,86.4
157,2845,2025-04-01 02:27:27,1743499647,1565,p,4.68,8.6,247.7,-108.2,86.4
158,2846,2025-04-01 02:27:37,1743499657,1575,p,4.68,8.6,247.8,-108.2,86.4
159,2847,2025-04-01 02:27:47,1743499667,1585,p,4.67,8.6,247.8,-108.2,86.4
160,2848,2025-04-01 02:27:57,1743499677,1595,p,4.67,8.6,247.8,-108.2,86.4
161,2849,2025-04-01 02:28:07,1743499687,1605,p,4.66,8.6,247.8,-108.2,86.4
162,2850,2025-04-01 02:28:17,1743499697,1615,p,4.67,8.6,247.8,-108.2,86.4
163,2851,2025-04-01 02:28:27,1743499707,1625,p,4.67,8.6,247.8,-108.2,86.4
164,2852,2025-04-01 02:28:37,1743499717,1635,p,4.67,8.6,247.8,-108.2,86.4
165,2853,2025-04-01 02:28:47,1743499727,1645,p,4.66,8.6,247.8,-108.2,86.4
166,2854,2025-04-01 02:28:57,1743499737,1655,p,4.67,8.6,247.8,-108.2,86.4
167,2855,2025-04-01 02:29:07,1743499747,1665,p,4.65,8.6,247.8,-108.2,86.4
168,2856,2025-04-01 02:29:17,1743499757,1675,p,4.66,8.6,247.8,-108.2,86.4
169,2857,2025-04-01 02:29:27,1743499767,1685,p,4.66,8.6,247.8,-108.2,86.4
170,2858,2025-04-01 02:29:37,1743499777,1695,p,4.65,8.6,247.8,-108.2,86.4
171,2859,2025-04-01 02:29:47,1743499787,1705,p,4.65,8.6,247.8,-108.2,86.4
172,2860,2025-04-01 02:29:56,1743499796,1714,p,4.65,8.6,247.8,-108.2,86.4
173,2861,2025-04-01 02:30:06,1743499806,1724,p,4.65,8.6,247.8,-108.2,86.4
174,2862,2025-04-01 02:30:16,1743499816,1734,p,4.66,8.6,247.8,-108.2,86.4
175,2863,2025-04-01 02:30:26,1743499826,1744,p,4.66,8.6,247.8,-108.2,86.4
176,2864,2025-04-01 02:30:36,1743499836,1754,p,4.66,8.6,247.8,-108.2,86.4
177,2865,2025-04-01 02:30:46,1743499846,1764,p,4.65,8.6,247.8,-108.2,86.4
178,2866,2025-04-01 02:30:56,1743499856,1774,p,4.65,8.6,247.8,-108.2,86.4
179,2867,2025-04-01 02:31:06,1743499866,1784,p,4.65,8.6,247.8,-108.2,86.4
180,2868,2025-04-01 02:31:16,1743499876,1794,p,4.64,8.6,247.8,-108.2,86.4
181,2869,2025-04-01 02:31:26,1743499886,1804,p,4.64,8.6,247.8,-108.2,86.4
182,2870,2025-04-01 02:31:36,1743499896,1814,p,4.64,8.6,247.8,-108.2,86.4
183,2871,2025-04-01 02:31:46,1743499906,1824,p,4.64,8.6,247.8,-108.2,86.4
184,2872,2025-04-01 02:31:56,1743499916,1834,p,4.63,8.6,247.8,-108.2,86.4
185,2873,2025-04-01 02:32:06,1743499926,1844,p,4.63,8.6,247.8,-108.2,86.4
186,2874,2025-04-01 02:32:16,1743499936,1854,p,4.63,8.6,247.8,-108.2,86.4
187,2875,2025-04-01 02:32:26,1743499946,1864,p,4.63,8.6,247.8,-108.2,86.4
188,2876,2025-04-01 02:32:36,1743499956,1874,p,4.63,8.6,247.8,-108.2,86.4
189,2877,2025-04-01 02:32:46,1743499966,1884,p,4.64,8.6,247.8,-108.2,86.4
190,2878,2025-04-01 02:32:56,1743499976,1894,p,4.64,8.6,247.8,-108.2,86.4
191,2879,2025-04-01 02:33:06,1743499986,1904,p,4.64,8.6,247.8,-108.2,86.4
192,2880,2025-04-01 02:33:16,1743499996,1914,p,4.64,8.6,247.8,-108.2,86.4
193,2881,2025-04-01 02:33:26,1743500006,1924,p,4.63,8.6,247.8,-108.2,86.4
194,2882,2025-04-01 02:33:35,1743500015,1933,p,4.63,8.6,247.8,-108.2,86.4
195,2883,2025-04-01 02:33:45,1743500025,1943,p,4.62,8.6,247.8,-108.2,86.4
196,2884,2025-04-01 02:33:55,1743500035,1953,p,4.62,8.6,247.8,-108.2,86.4
197,2885,2025-04-01 02:34:05,1743500045,1963,p,4.61,8.6,247.8,-108.2,86.4
198,2886,2025-04-01 02:34:15,1743500055,1973,p,4.62,8.6,247.8,-108.2,86.4
199,2887,2025-04-01 02:34:25,1743500065,1983,p,4.62,8.6,247.8,-108.2,86.4
200,2888,2025-04-01 02:34:35,1743500075,1993,p,4.62,8.6,247.8,-108.2,86.4
201,2889,2025-04-01 02:34:45,1743500085,2003,p,4.62,8.6,247.8,-108.2,86.4
202,2890,2025-04-01 02:34:55,1743500095,2013,p,4.62,8.7,247.8,-108.2,86.4
203,2891,2025-04-01 02:35:05,1743500105,2023,p,4.62,8.7,247.8,-108.2,86.4
204,2892,2025-04-01 02:35:15,1743500115,2033,p,4.61,8.6,247.8,-108.2,86.4
205,2893,2025-04-01 02:35:25,1743500125,2043,p,4.61,8.6,247.8,-108.2,86.4
206,2894,2025-04-01 02:35:35,1743500135,2053,p,4.6,8.6,247.8,-108.2,86.4
207,2895,2025-04-01 02:35:45,1743500145,2063,p,4.6,8.6,247.8,-108.2,86.4
208,2896,2025-04-01 02:35:55,1743500155,2073,p,4.59,8.6,247.8,-108.2,86.4
209,2897,2025-04-01 02:36:05,1743500165,2083,p,4.59,8.6,247.8,-108.2,86.4
210,2898,2025-04-01 02:36:15,1743500175,2093,p,4.6,8.6,247.8,-108.2,86.4
211,2899,2025-04-01 02:36:25,1743500185,2103,p,4.59,8.6,247.8,-108.2,86.4
212,2900,2025-04-01 02:36:35,1743500195,2113,p,4.59,8.6,247.8,-108.2,86.4
213,2901,2025-04-01 02:36:45,1743500205,2123,p,4.59,8.6,247.8,-108.2,86.4
214,2902,2025-04-01 02:36:55,1743500215,2133,p,4.59,8.6,247.8,-108.2,86.4
215,2903,2025-04-01 02:37:05,1743500225,2143,p,4.58,8.6,247.8,-108.2,86.4
216,2904,2025-04-01 02:37:14,1743500234,2152,p,4.58,8.6,247.8,-108.2,86.4
217,2905,2025-04-01 02:37:24,1743500244,2162,p,4.58,8.6,247.8,-108.2,86.4
218,2906,2025-04-01 02:37:34,1743500254,2172,p,4.57,8.6,247.8,-108.2,86.4
219,2907,2025-04-01 02:37:44,1743500264,2182,p,4.58,8.6,247.8,-108.2,86.4
220,2908,2025-04-01 02:37:54,1743500274,2192,p,4.59,8.6,247.8,-108.2,86.4
221,2909,2025-04-01 02:38:04,1743500284,2202,p,4.58,8.6,247.8,-108.2,86.4
222,2910,2025-04-01 02:38:14,1743500294,2212,p,4.58,8.6,247.8,-108.2,86.4
223,2911,2025-04-01 02:38:24,1743500304,2222,p,4.57,8.6,247.8,-108.2,86.4
224,2912,2025-04-01 02:38:34,1743500314,2232,p,4.57,8.6,247.8,-108.3,86.4
225,2913,2025-04-01 02:38:44,1743500324,2242,p,4.57,8.6,247.8,-108.3,86.4
226,2914,2025-04-01 02:38:54,1743500334,2252,p,4.57,8.6,247.8,-108.3,86.4
227,2915,2025-04-01 02:39:04,1743500344,2262,p,4.57,8.6,247.8,-108.3,86.4
228,2916,2025-04-01 02:39:14,1743500354,2272,p,4.55,8.6,247.8,-108.3,86.4
229,2917,2025-04-01 02:39:24,1743500364,2282,p,4.56,8.6,247.8,-108.3,86.4
230,2918,2025-04-01 02:39:34,1743500374,2292,p,4.56,8.6,247.8,-108.3,86.4
231,2919,2025-04-01 02:39:44,1743500384,2302,p,4.56,8.6,247.8,-108.3,86.4
232,2920,2025-04-01 02:39:54,1743500394,2312,p,4.56,8.6,247.8,-108.3,86.4
233,2921,2025-04-01 02:40:04,1743500404,2322,p,4.56,8.6,247.8,-108.3,86.4
234,2922,2025-04-01 02:40:14,1743500414,2332,p,4.56,8.6,247.8,-108.3,86.4
235,2923,2025-04-01 02:40:24,1743500424,2342,p,4.56,8.6,247.8,-108.3,86.4
236,2924,2025-04-01 02:40:34,1743500434,2352,p,4.56,8.6,247.8,-108.3,86.4
237,2925,2025-04-01 02:40:44,1743500444,2362,p,4.56,8.6,247.8,-108.3,86.4
238,2926,2025-04-01 02:40:54,1743500454,2372,p,4.55,8.6,247.8,-108.3,86.4
239,2927,2025-04-01 02:41:03,1743500463,2381,p,4.54,8.6,247.8,-108.3,86.4
240,2928,2025-04-01 02:41:13,1743500473,2391,p,4.53,8.6,247.8,-108.3,86.4
241,2929,2025-04-01 02:41:23,1743500483,2401,p,4.53,8.6,247.8,-108.3,86.4
242,2930,2025-04-01 02:41:33,1743500493,2411,p,4.53,8.6,247.8,-108.3,86.4
243,2931,2025-04-01 02:41:43,1743500503,2421,p,4.54,8.6,247.8,-108.3,86.4
244,2932,2025-04-01 02:41:53,1743500513,2431,p,4.53,8.6,247.8,-108.3,86.4
245,2933,2025-04-01 02:42:03,1743500523,2441,p,4.53,8.6,247.8,-108.3,86.4
246,2934,2025-04-01 02:42:13,1743500533,2451,p,4.53,8.6,247.8,-108.3,86.4
247,2935,2025-04-01 02:42:23,1743500543,2461,p,4.54,8.6,247.8,-108.3,86.4
248,2936,2025-04-01 02:42:33,1743500553,2471,p,4.54,8.6,247.8,-108.3,86.4
249,2937,2025-04-01 02:42:43,1743500563,2481,p,4.54,8.6,247.8,-108.3,86.4
250,2938,2025-04-01 02:42:53,1743500573,2491,p,4.54,8.6,247.8,-108.3,86.4
251,2939,2025-04-01 02:43:03,1743500583,2501,p,4.54,8.6,247.8,-108.3,86.4
252,2940,2025-04-01 02:43:13,1743500593,2511,p,4.53,8.6,247.8,-108.3,86.4
253,2941,2025-04-01 02:43:23,1743500603,2521,p,4.54,8.6,247.8,-108.3,86.4
254,2942,2025-04-01 02:43:33,1743500613,2531,p,4.53,8.6,247.8,-108.3,86.4
255,2943,2025-04-01 02:43:43,1743500623,2541,p,4.53,8.6,247.8,-108.3,86.4
256,2944,2025-04-01 02:43:53,1743500633,2551,p,4.52,8.6,247.8,-108.3,86.4
257,2945,2025-04-01 02:44:03,1743500643,2561,p,4.52,8.6,247.8,-108.3,86.4
258,2946,2025-04-01 02:44:13,1743500653,2571,p,4.51,8.6,247.8,-108.3,86.4
259,2947,2025-04-01 02:44:23,1743500663,2581,p,4.51,8.6,247.8,-108.3,86.4
260,2948,2025-04-01 02:44:32,1743500672,2590,p,4.51,8.6,247.8,-108.3,86.4
261,2949,2025-04-01 02:44:42,1743500682,2600,p,4.51,8.6,247.8,-108.3,86.4
262,2950,2025-04-01 02:44:52,1743500692,2610,p,4.51,8.6,247.8,-108.3,86.4
263,2951,2025-04-01 02:45:02,1743500702,2620,p,4.51,8.6,247.8,-108.3,86.4
264,2952,2025-04-01 02:45:12,1743500712,2630,p,4.51,8.6,247.8,-108.3,86.4
265,2953,2025-04-01 02:45:22,1743500722,2640,p,4.51,8.6,247.8,-108.3,86.4
266,2954,2025-04-01 02:45:32,1743500732,2650,p,4.51,8.6,247.8,-108.3,86.4
267,2955,2025-04-01 02:45:42,1743500742,2660,p,4.5,8.6,247.8,-108.3,86.4
268,2956,2025-04-01 02:45:52,1743500752,2670,p,4.5,8.6,247.8,-108.3,86.4
269,2957,2025-04-01 02:46:02,1743500762,2680,p,4.5,8.6,247.8,-108.3,86.4
270,2958,2025-04-01 02:46:12,1743500772,2690,p,4.49,8.6,247.8,-108.3,86.4
271,2959,2025-04-01 02:46:22,1743500782,2700,p,4.49,8.6,247.8,-108.3,86.4
272,2960,2025-04-01 02:46:32,1743500792,2710,p,4.49,8.6,247.8,-108.3,86.4
273,2961,2025-04-01 02:46:42,1743500802,2720,p,4.47,8.6,247.8,-108.3,86.4
274,2962,2025-04-01 02:46:52,1743500812,2730,p,4.47,8.6,247.8,-108.3,86.4
275,2963,2025-04-01 02:47:02,1743500822,2740,p,4.48,8.6,247.8,-108.3,86.4
276,2964,2025-04-01 02:47:12,1743500832,2750,p,4.49,8.6,247.8,-108.3,86.4
277,2965,2025-04-01 02:47:22,1743500842,2760,p,4.49,8.6,247.8,-108.3,86.4
278,2966,2025-04-01 02:47:32,1743500852,2770,p,4.49,8.6,247.8,-108.3,86.4
279,2967,2025-04-01 02:47:42,1743500862,2780,p,4.48,8.6,247.8,-108.3,86.4
280,2968,2025-04-01 02:47:52,1743500872,2790,p,4.48,8.6,247.8,-108.3,86.4
281,2969,2025-04-01 02:48:02,1743500882,2800,p,4.48,8.6,247.8,-108.3,86.4
282,2970,2025-04-01 02:48:12,1743500892,2810,p,4.48,8.6,247.8,-108.3,86.4
283,2971,2025-04-01 02:48:21,1743500901,2819,p,4.48,8.6,247.8,-108.3,86.4
284,2972,2025-04-01 02:48:31,1743500911,2829,p,4.47,8.6,247.8,-108.3,86.4
285,2973,2025-04-01 02:48:41,1743500921,2839,p,4.46,8.6,247.8,-108.3,86.4
286,2974,2025-04-01 02:48:51,1743500931,2849,p,4.47,8.6,247.8,-108.3,86.4
287,2975,2025-04-01 02:49:01,1743500941,2859,p,4.47,8.6,247.8,-108.3,86.4
288,2976,2025-04-01 02:49:11,1743500951,2869,p,4.47,8.6,247.8,-108.3,86.4
289,2977,2025-04-01 02:49:21,1743500961,2879,p,4.46,8.6,247.8,-108.3,86.4
290,2978,2025-04-01 02:49:31,1743500971,2889,p,4.46,8.6,247.9,-108.4,86.5
291,2979,2025-04-01 02:49:41,1743500981,2899,p,4.46,8.6,247.9,-108.4,86.5
292,2980,2025-04-01 02:49:51,1743500991,2909,p,4.46,8.6,247.9,-108.4,86.5
293,2981,2025-04-01 02:50:01,1743501001,2919,p,4.46,8.6,247.9,-108.4,86.5
294,2982,2025-04-01 02:50:11,1743501011,2929,p,4.45,8.6,247.9,-108.4,86.5
295,2983,2025-04-01 02:50:21,1743501021,2939,p,4.45,8.6,247.9,-108.4,86.5
296,2984,2025-04-01 02:50:31,1743501031,2949,p,4.46,8.6,247.9,-108.4,86.5
297,2985,2025-04-01 02:50:41,1743501041,2959,p,4.46,8.6,247.9,-108.4,86.5
298,2986,2025-04-01 02:50:51,1743501051,2969,p,4.45,8.6,247.9,-108.4,86.5
299,2987,2025-04-01 02:51:01,1743501061,2979,p,4.45,8.6,247.9,-108.4,86.5
300,2988,2025-04-01 02:51:11,1743501071,2989,p,4.45,8.6,247.9,-108.4,86.5
301,2989,2025-04-01 02:51:21,1743501081,2999,p,4.44,8.6,247.9,-108.4,86.5
302,2990,2025-04-01 02:51:31,1743501091,3009,p,4.44,8.6,247.9,-108.4,86.5
303,2991,2025-04-01 02:51:41,1743501101,3019,p,4.42,8.6,247.9,-108.4,86.5
304,2992,2025-04-01 02:51:51,1743501111,3029,p,4.41,8.6,247.9,-108.4,86.5
305,2993,2025-04-01 02:52:00,1743501120,3038,p,4.41,8.6,247.9,-108.4,86.5
306,2994,2025-04-01 02:52:10,1743501130,3048,p,4.43,8.6,247.9,-108.4,86.5
307,2995,2025-04-01 02:52:20,1743501140,3058,p,4.43,8.6,247.9,-108.4,86.5
308,2996,2025-04-01 02:52:30,1743501150,3068,p,4.44,8.6,247.9,-108.4,86.5
309,2997,2025-04-01 02:52:40,1743501160,3078,p,4.44,8.6,247.9,-108.4,86.5
310,2998,2025-04-01 02:52:50,1743501170,3088,p,4.44,8.6,247.9,-108.4,86.5
311,2999,2025-04-01 02:53:00,1743501180,3098,p,4.43,8.6,247.9,-108.4,86.5
312,3000,2025-04-01 02:53:10,1743501190,3108,p,4.43,8.6,247.9,-108.4,86.5
313,3001,2025-04-01 02:53:20,1743501200,3118,p,4.42,8.6,247.9,-108.4,86.5
314,3002,2025-04-01 02:53:30,1743501210,3128,p,4.41,8.6,247.9,-108.4,86.5
315,3003,2025-04-01 02:53:40,1743501220,3138,p,4.41,8.6,247.9,-108.4,86.5
316,3004,2025-04-01 02:53:50,1743501230,3148,p,4.41,8.6,247.9,-108.4,86.5
317,3005,2025-04-01 02:54:00,1743501240,3158,p,4.41,8.6,247.9,-108.4,86.5
318,3006,2025-04-01 02:54:10,1743501250,3168,p,4.42,8.6,247.9,-108.4,86.5
319,3007,2025-04-01 02:54:20,1743501260,3178,p,4.42,8.6,247.9,-108.4,86.5
320,3008,2025-04-01 02:54:30,1743501270,3188,p,4.42,8.6,247.9,-108.4,86.5
321,3009,2025-04-01 02:54:40,1743501280,3198,p,4.41,8.6,247.9,-108.4,86.5
322,3010,2025-04-01 02:54:50,1743501290,3208,p,4.4,8.6,247.9,-108.4,86.5
323,3011,2025-04-01 02:55:00,1743501300,3218,p,4.4,8.6,247.9,-108.4,86.5
324,3012,2025-04-01 02:55:10,1743501310,3228,p,4.4,8.6,247.9,-108.4,86.5
325,3013,2025-04-01 02:55:20,1743501320,3238,p,4.4,8.6,247.9,-108.4,86.5
326,3014,2025-04-01 02:55:29,1743501329,3247,p,4.42,8.6,247.9,-108.4,86.5
327,3015,2025-04-01 02:55:39,1743501339,3257,p,4.42,8.6,247.9,-108.4,86.5
328,3016,2025-04-01 02:55:49,1743501349,3267,p,4.41,8.6,247.9,-108.4,86.5
329,3017,2025-04-01 02:55:59,1743501359,3277,p,4.41,8.6,247.9,-108.4,86.5
330,3018,2025-04-01 02:56:09,1743501369,3287,p,4.41,8.6,247.9,-108.4,86.5
331,3019,2025-04-01 02:56:19,1743501379,3297,p,4.4,8.6,247.9,-108.4,86.5
332,3020,2025-04-01 02:56:29,1743501389,3307,p,4.39,8.6,247.9,-108.4,86.5
333,3021,2025-04-01 02:56:39,1743501399,3317,p,4.39,8.6,247.9,-108.4,86.5
334,3022,2025-04-01 02:56:49,1743501409,3327,p,4.38,8.6,247.9,-108.4,86.5
335,3023,2025-04-01 02:56:59,1743501419,3337,p,4.38,8.6,247.9,-108.4,86.5
336,3024,2025-04-01 02:57:09,1743501429,3347,p,4.37,8.6,247.9,-108.4,86.5
337,3025,2025-04-01 02:57:19,1743501439,3357,p,4.37,8.6,247.9,-108.4,86.5
338,3026,2025-04-01 02:57:29,1743501449,3367,p,4.38,8.6,247.9,-108.4,86.5
339,3027,2025-04-01 02:57:39,1743501459,3377,p,4.38,8.6,247.9,-108.4,86.5
340,3028,2025-04-01 02:57:49,1743501469,3387,p,4.39,8.6,247.9,-108.4,86.5
341,3029,2025-04-01 02:57:59,1743501479,3397,p,4.38,8.6,247.9,-108.4,86.5
342,3030,2025-04-01 02:58:09,1743501489,3407,p,4.38,8.6,247.9,-108.4,86.5
343,3031,2025-04-01 02:58:19,1743501499,3417,p,4.37,8.6,247.9,-108.4,86.5
344,3032,2025-04-01 02:58:29,1743501509,3427,p,4.38,8.6,247.9,-108.4,86.5
345,3033,2025-04-01 02:58:39,1743501519,3437,p,4.37,8.6,247.9,-108.4,86.5
346,3034,2025-04-01 02:58:49,1743501529,3447,p,4.35,8.6,247.9,-108.4,86.5
347,3035,2025-04-01 02:58:59,1743501539,3457,p,4.35,8.6,247.9,-108.4,86.5
348,3036,2025-04-01 02:59:09,1743501549,3467,p,4.36,8.6,247.9,-108.4,86.5
349,3037,2025-04-01 02:59:18,1743501558,3476,p,4.37,8.6,247.9,-108.4,86.5
350,3038,2025-04-01 02:59:28,1743501568,3486,p,4.37,8.6,247.9,-108.4,86.5
351,3039,2025-04-01 02:59:38,1743501578,3496,p,4.37,8.6,247.9,-108.4,86.5
352,3040,2025-04-01 02:59:48,1743501588,3506,p,4.37,8.6,247.9,-108.4,86.5
353,3041,2025-04-01 02:59:58,1743501598,3516,p,4.37,8.6,247.9,-108.4,86.5
354,3042,2025-04-01 03:00:08,1743501608,3526,p,4.37,8.6,247.9,-108.4,86.5
355,3043,2025-04-01 03:00:18,1743501618,3536,p,4.36,8.6,247.9,-108.4,86.5
356,3044,2025-04-01 03:00:28,1743501628,3546,p,4.36,8.6,247.9,-108.4,86.5
357,3045,2025-04-01 03:00:38,1743501638,3556,p,4.35,8.6,247.9,-108.4,86.5
358,3046,2025-04-01 03:00:48,1743501648,3566,p,4.35,8.6,247.9,-108.4,86.5
359,3047,2025-04-01 03:00:58,1743501658,3576,p,4.35,8.6,247.9,-108.4,86.5
360,3048,2025-04-01 03:01:08,1743501668,3586,p,4.35,8.6,247.9,-108.4,86.5
361,3049,2025-04-01 03:01:18,1743501678,3596,p,4.34,8.6,247.9,-108.4,86.5
362,3050,2025-04-01 03:01:28,1743501688,3606,p,4.35,8.6,247.9,-108.4,86.5
363,3051,2025-04-01 03:01:38,1743501698,3616,p,4.34,8.6,247.9,-108.4,86.5
364,3052,2025-04-01 03:01:48,1743501708,3626,p,4.34,8.6,247.9,-108.4,86.5
365,3053,2025-04-01 03:01:58,1743501718,3636,p,4.35,8.6,247.9,-108.4,86.5
366,3054,2025-04-01 03:02:08,1743501728,3646,p,4.34,8.7,247.9,-108.4,86.5
367,3055,2025-04-01 03:02:18,1743501738,3656,p,4.34,8.7,247.9,-108.4,86.5
368,3056,2025-04-01 03:02:28,1743501748,3666,p,4.34,8.7,247.9,-108.4,86.5
369,3057,2025-04-01 03:02:38,1743501758,3676,p,4.34,8.7,247.9,-108.4,86.5
370,3058,2025-04-01 03:02:48,1743501768,3686,p,4.33,8.7,247.9,-108.4,86.5
371,3059,2025-04-01 03:02:57,1743501777,3695,p,4.33,8.6,247.9,-108.4,86.5
372,3060,2025-04-01 03:03:07,1743501787,3705,p,4.33,8.6,247.9,-108.4,86.5
373,3061,2025-04-01 03:03:17,1743501797,3715,p,4.32,8.6,247.9,-108.4,86.5
374,3062,2025-04-01 03:03:27,1743501807,3725,p,4.32,8.6,247.9,-108.4,86.5
375,3063,2025-04-01 03:03:37,1743501817,3735,p,4.33,8.6,247.9,-108.4,86.5
376,3064,2025-04-01 03:03:47,1743501827,3745,p,4.33,8.6,247.9,-108.4,86.5
377,3065,2025-04-01 03:03:57,1743501837,3755,p,4.33,8.6,247.9,-108.4,86.5
378,3066,2025-04-01 03:04:07,1743501847,3765,p,4.32,8.6,247.9,-108.4,86.5
379,3067,2025-04-01 03:04:17,1743501857,3775,p,4.32,8.6,247.9,-108.4,86.5
380,3068,2025-04-01 03:04:27,1743501867,3785,p,4.31,8.6,247.9,-108.4,86.5
381,3069,2025-04-01 03:04:37,1743501877,3795,p,4.31,8.6,247.9,-108.4,86.5
382,3070,2025-04-01 03:04:47,1743501887,3805,p,4.31,8.6,247.9,-108.4,86.5
383,3071,2025-04-01 03:04:57,1743501897,3815,p,4.31,8.6,247.9,-108.4,86.5
384,3072,2025-04-01 03:05:07,1743501907,3825,p,4.3,8.6,247.9,-108.4,86.5
385,3073,2025-04-01 03:05:17,1743501917,3835,p,4.3,8.6,247.9,-108.4,86.5
386,3074,2025-04-01 03:05:27,1743501927,3845,p,4.31,8.6,247.9,-108.4,86.5
387,3075,2025-04-01 03:05:37,1743501937,3855,p,4.32,8.6,247.9,-108.4,86.5
388,3076,2025-04-01 03:05:47,1743501947,3865,p,4.32,8.6,247.9,-108.4,86.5
389,3077,2025-04-01 03:05:57,1743501957,3875,p,4.32,8.7,247.9,-108.4,86.5
390,3078,2025-04-01 03:06:07,1743501967,3885,p,4.32,8.6,247.9,-108.4,86.5
391,3079,2025-04-01 03:06:17,1743501977,3895,p,4.32,8.6,247.9,-108.4,86.5
392,3080,2025-04-01 03:06:27,1743501987,3905,p,4.32,8.6,247.9,-108.4,86.5
393,3081,2025-04-01 03:06:37,1743501997,3915,p,4.32,8.7,247.9,-108.4,86.5
394,3082,2025-04-01 03:06:46,1743502006,3924,p,4.31,8.6,247.9,-108.4,86.5
395,3083,2025-04-01 03:06:56,1743502016,3934,p,4.31,8.6,247.9,-108.4,86.5
396,3084,2025-04-01 03:07:06,1743502026,3944,p,4.3,8.6,247.9,-108.4,86.5
397,3085,2025-04-01 03:07:16,1743502036,3954,p,4.3,8.6,247.9,-108.4,86.5
398,3086,2025-04-01 03:07:26,1743502046,3964,p,4.29,8.6,247.9,-108.4,86.5
399,3087,2025-04-01 03:07:36,1743502056,3974,p,4.29,8.6,247.9,-108.4,86.5
400,3088,2025-04-01 03:07:46,1743502066,3984,p,4.29,8.6,247.9,-108.4,86.5
401,3089,2025-04-01 03:07:56,1743502076,3994,p,4.3,8.6,247.9,-108.4,86.5
402,3090,2025-04-01 03:08:06,1743502086,4004,p,4.3,8.6,247.9,-108.4,86.5
403,3091,2025-04-01 03:08:16,1743502096,4014,p,4.3,8.6,247.9,-108.4,86.5
404,3092,2025-04-01 03:08:26,1743502106,4024,p,4.3,8.6,247.9,-108.4,86.5
405,3093,2025-04-01 03:08:36,1743502116,4034,p,4.3,8.6,247.9,-108.4,86.5
406,3094,2025-04-01 03:08:46,1743502126,4044,p,4.3,8.6,247.9,-108.4,86.5
407,3095,2025-04-01 03:08:56,1743502136,4054,p,4.3,8.6,247.9,-108.4,86.5
408,3096,2025-04-01 03:09:06,1743502146,4064,p,4.29,8.6,247.9,-108.4,86.5
409,3097,2025-04-01 03:09:16,1743502156,4074,p,4.29,8.6,247.9,-108.4,86.5
410,3098,2025-04-01 03:09:26,1743502166,4084,p,4.29,8.6,247.9,-108.4,86.5
411,3099,2025-04-01 03:09:36,1743502176,4094,p,4.28,8.6,247.9,-108.4,86.5
412,3100,2025-04-01 03:09:46,1743502186,4104,p,4.29,8.6,247.9,-108.4,86.5
413,3101,2025-04-01 03:09:56,1743502196,4114,p,4.29,8.6,247.9,-108.4,86.5
414,3102,2025-04-01 03:10:06,1743502206,4124,p,4.29,8.6,247.9,-108.4,86.5
415,3103,2025-04-01 03:10:16,1743502216,4134,p,4.28,8.6,247.9,-108.4,86.5
416,3104,2025-04-01 03:10:25,1743502225,4143,p,4.29,8.6,247.9,-108.4,86.5
417,3105,2025-04-01 03:10:35,1743502235,4153,p,4.28,8.6,247.9,-108.4,86.5
418,3106,2025-04-01 03:10:45,1743502245,4163,p,4.27,8.6,247.9,-108.4,86.5
419,3107,2025-04-01 03:10:55,1743502255,4173,p,4.27,8.6,247.9,-108.4,86.5
420,3108,2025-04-01 03:11:05,1743502265,4183,p,4.27,8.6,247.9,-108.4,86.5
421,3109,2025-04-01 03:11:15,1743502275,4193,p,4.26,8.6,247.9,-108.4,86.5
422,3110,2025-04-01 03:11:25,1743502285,4203,p,4.25,8.6,248,-108.5,86.5
423,3111,2025-04-01 03:11:35,1743502295,4213,p,4.26,8.6,248,-108.5,86.5
424,3112,2025-04-01 03:11:45,1743502305,4223,p,4.26,8.6,248,-108.5,86.5
425,3113,2025-04-01 03:11:55,1743502315,4233,p,4.26,8.6,248,-108.5,86.5
426,3114,2025-04-01 03:12:05,1743502325,4243,p,4.25,8.6,248,-108.5,86.5
427,3115,2025-04-01 03:12:15,1743502335,4253,p,4.26,8.6,248,-108.5,86.5
428,3116,2025-04-01 03:12:25,1743502345,4263,p,4.26,8.6,248,-108.5,86.5
429,3117,2025-04-01 03:12:35,1743502355,4273,p,4.26,8.6,248,-108.5,86.5
430,3118,2025-04-01 03:12:45,1743502365,4283,p,4.27,8.6,248,-108.5,86.5
431,3119,2025-04-01 03:12:55,1743502375,4293,p,4.26,8.6,248,-108.5,86.5
432,3120,2025-04-01 03:13:05,1743502385,4303,p,4.25,8.6,248,-108.5,86.5
433,3121,2025-04-01 03:13:15,1743502395,4313,p,4.26,8.6,248,-108.5,86.5
434,3122,2025-04-01 03:13:25,1743502405,4323,p,4.26,8.6,248,-108.5,86.5
435,3123,2025-04-01 03:13:35,1743502415,4333,p,4.26,8.6,248,-108.5,86.5
436,3124,2025-04-01 03:13:45,1743502425,4343,p,4.25,8.6,248,-108.5,86.5
437,3125,2025-04-01 03:13:55,1743502435,4353,p,4.25,8.6,248,-108.5,86.5
438,3126,2025-04-01 03:14:04,1743502444,4362,p,4.24,8.6,248,-108.5,86.5
439,3127,2025-04-01 03:14:14,1743502454,4372,p,4.24,8.6,248,-108.5,86.5
440,3128,2025-04-01 03:14:24,1743502464,4382,p,4.24,8.6,248,-108.5,86.5
441,3129,2025-04-01 03:14:34,1743502474,4392,p,4.23,8.6,248,-108.5,86.5
442,3130,2025-04-01 03:14:44,1743502484,4402,p,4.22,8.6,248,-108.5,86.5
443,3131,2025-04-01 03:14:54,1743502494,4412,p,4.22,8.6,248,-108.5,86.5
444,3132,2025-04-01 03:15:04,1743502504,4422,p,4.23,8.6,248,-108.5,86.5
445,3133,2025-04-01 03:15:14,1743502514,4432,p,4.23,8.6,248,-108.5,86.5
446,3134,2025-04-01 03:15:24,1743502524,4442,p,4.23,8.6,248,-108.5,86.5
447,3135,2025-04-01 03:15:34,1743502534,4452,p,4.23,8.6,248,-108.5,86.5
448,3136,2025-04-01 03:15:44,1743502544,4462,p,4.24,8.7,248,-108.5,86.5
449,3137,2025-04-01 03:15:54,1743502554,4472,p,4.23,8.7,248,-108.5,86.5
450,3138,2025-04-01 03:16:04,1743502564,4482,p,4.23,8.7,248,-108.5,86.5
451,3139,2025-04-01 03:16:14,1743502574,4492,p,4.23,8.7,248,-108.5,86.5
452,3140,2025-04-01 03:16:24,1743502584,4502,p,4.23,8.7,248,-108.5,86.5
453,3141,2025-04-01 03:16:34,1743502594,4512,p,4.22,8.7,248,-108.5,86.5
454,3142,2025-04-01 03:16:44,1743502604,4522,p,4.23,8.6,248,-108.5,86.5
455,3143,2025-04-01 03:16:54,1743502614,4532,p,4.22,8.6,248,-108.5,86.5
456,3144,2025-04-01 03:17:04,1743502624,4542,p,4.22,8.6,248,-108.5,86.5
457,3145,2025-04-01 03:17:14,1743502634,4552,p,4.21,8.6,248,-108.5,86.5
458,3146,2025-04-01 03:17:24,1743502644,4562,p,4.2,8.6,248,-108.5,86.5
459,3147,2025-04-01 03:17:34,1743502654,4572,p,4.2,8.6,248,-108.5,86.5
460,3148,2025-04-01 03:17:43,1743502663,4581,p,4.2,8.6,248,-108.5,86.5
461,3149,2025-04-01 03:17:53,1743502673,4591,p,4.2,8.6,248,-108.5,86.5
462,3150,2025-04-01 03:18:03,1743502683,4601,p,4.21,8.6,248,-108.5,86.5
463,3151,2025-04-01 03:18:13,1743502693,4611,p,4.21,8.7,248,-108.5,86.5
464,3152,2025-04-01 03:18:23,1743502703,4621,p,4.2,8.7,248,-108.5,86.5
465,3153,2025-04-01 03:18:33,1743502713,4631,p,4.21,8.7,248,-108.5,86.5
466,3154,2025-04-01 03:18:43,1743502723,4641,p,4.19,8.6,248,-108.5,86.5
467,3155,2025-04-01 03:18:53,1743502733,4651,p,4.2,8.7,248,-108.5,86.5
468,3156,2025-04-01 03:19:03,1743502743,4661,p,4.2,8.7,248,-108.5,86.5
469,3157,2025-04-01 03:19:13,1743502753,4671,p,4.19,8.7,248,-108.5,86.5
470,3158,2025-04-01 03:19:23,1743502763,4681,p,4.2,8.7,248,-108.5,86.5
471,3159,2025-04-01 03:19:33,1743502773,4691,p,4.2,8.7,248,-108.5,86.5
472,3160,2025-04-01 03:19:43,1743502783,4701,p,4.2,8.7,248,-108.5,86.5
473,3161,2025-04-01 03:19:53,1743502793,4711,p,4.21,8.7,248,-108.5,86.5
474,3162,2025-04-01 03:20:03,1743502803,4721,p,4.2,8.7,248,-108.5,86.5
475,3163,2025-04-01 03:20:13,1743502813,4731,p,4.19,8.7,248,-108.5,86.5
476,3164,2025-04-01 03:20:23,1743502823,4741,p,4.18,8.7,248,-108.5,86.5
477,3165,2025-04-01 03:20:33,1743502833,4751,p,4.18,8.6,248,-108.5,86.5
478,3166,2025-04-01 03:20:43,1743502843,4761,p,4.18,8.6,248,-108.5,86.5
479,3167,2025-04-01 03:20:53,1743502853,4771,p,4.17,8.6,248,-108.5,86.5
480,3168,2025-04-01 03:21:03,1743502863,4781,p,4.16,8.6,248,-108.5,86.5
481,3169,2025-04-01 03:21:13,1743502873,4791,p,4.15,8.6,248,-108.5,86.5
482,3170,2025-04-01 03:21:22,1743502882,4800,p,4.16,8.6,248,-108.5,86.5
483,3171,2025-04-01 03:21:32,1743502892,4810,p,4.16,8.6,248,-108.5,86.5
484,3172,2025-04-01 03:21:42,1743502902,4820,p,4.16,8.6,248,-108.5,86.5
485,3173,2025-04-01 03:21:52,1743502912,4830,p,4.18,8.6,248,-108.5,86.5
486,3174,2025-04-01 03:22:02,1743502922,4840,p,4.18,8.6,248,-108.5,86.5
487,3175,2025-04-01 03:22:12,1743502932,4850,p,4.18,8.6,248,-108.5,86.5
488,3176,2025-04-01 03:22:22,1743502942,4860,p,4.17,8.6,248,-108.5,86.5
489,3177,2025-04-01 03:22:32,1743502952,4870,p,4.17,8.6,248,-108.5,86.5
490,3178,2025-04-01 03:22:42,1743502962,4880,p,4.17,8.6,248,-108.5,86.5
491,3179,2025-04-01 03:22:52,1743502972,4890,p,4.17,8.6,248,-108.5,86.5
492,3180,2025-04-01 03:23:02,1743502982,4900,p,4.17,8.6,248,-108.5,86.5
493,3181,2025-04-01 03:23:12,1743502992,4910,p,4.16,8.7,248,-108.5,86.5
494,3182,2025-04-01 03:23:22,1743503002,4920,p,4.15,8.6,248,-108.5,86.5
495,3183,2025-04-01 03:23:32,1743503012,4930,p,4.16,8.6,248,-108.5,86.5
496,3184,2025-04-01 03:23:42,1743503022,4940,p,4.16,8.6,248,-108.5,86.5
497,3185,2025-04-01 03:23:52,1743503032,4950,p,4.16,8.7,248,-108.5,86.5
498,3186,2025-04-01 03:24:02,1743503042,4960,p,4.16,8.7,248,-108.5,86.5
499,3187,2025-04-01 03:24:12,1743503052,4970,p,4.16,8.6,248,-108.5,86.5
500,3188,2025-04-01 03:24:22,1743503062,4980,p,4.15,8.6,248,-108.5,86.5
501,3189,2025-04-01 03:24:32,1743503072,4990,p,4.16,8.6,248,-108.5,86.5
502,3190,2025-04-01 03:24:42,1743503082,5000,p,4.16,8.6,248,-108.5,86.5
503,3191,2025-04-01 03:24:51,1743503091,5009,p,4.17,8.6,248,-108.5,86.5
504,3192,2025-04-01 03:25:01,1743503101,5019,p,4.16,8.6,248,-108.5,86.5
505,3193,2025-04-01 03:25:11,1743503111,5029,p,4.16,8.6,248,-108.5,86.5
506,3194,2025-04-01 03:25:21,1743503121,5039,p,4.15,8.6,248,-108.5,86.5
507,3195,2025-04-01 03:25:31,1743503131,5049,p,4.16,8.6,248,-108.5,86.5
508,3196,2025-04-01 03:25:41,1743503141,5059,p,4.15,8.6,248,-108.5,86.5
509,3197,2025-04-01 03:25:51,1743503151,5069,p,4.15,8.6,248,-108.5,86.5
510,3198,2025-04-01 03:26:01,1743503161,5079,p,4.14,8.6,248,-108.5,86.5
511,3199,2025-04-01 03:26:11,1743503171,5089,p,4.15,8.6,248,-108.5,86.5
512,3200,2025-04-01 03:26:21,1743503181,5099,p,4.14,8.7,248,-108.5,86.5
513,3201,2025-04-01 03:26:31,1743503191,5109,p,4.14,8.7,248,-108.5,86.5
514,3202,2025-04-01 03:26:41,1743503201,5119,p,4.14,8.6,248,-108.5,86.5
515,3203,2025-04-01 03:26:51,1743503211,5129,p,4.13,8.6,248,-108.5,86.5
516,3204,2025-04-01 03:27:01,1743503221,5139,p,4.14,8.6,248,-108.5,86.5
517,3205,2025-04-01 03:27:11,1743503231,5149,p,4.14,8.7,248,-108.5,86.5
518,3206,2025-04-01 03:27:21,1743503241,5159,p,4.14,8.7,248,-108.5,86.5
519,3207,2025-04-01 03:27:31,1743503251,5169,p,4.13,8.7,248,-108.5,86.5
520,3208,2025-04-01 03:27:41,1743503261,5179,p,4.13,8.6,248,-108.5,86.5
521,3209,2025-04-01 03:27:51,1743503271,5189,p,4.14,8.6,248,-108.5,86.5
522,3210,2025-04-01 03:28:01,1743503281,5199,p,4.13,8.6,248,-108.5,86.5
523,3211,2025-04-01 03:28:11,1743503291,5209,p,4.13,8.6,248,-108.5,86.5
524,3212,2025-04-01 03:28:21,1743503301,5219,p,4.12,8.6,248,-108.5,86.5
525,3213,2025-04-01 03:28:30,1743503310,5228,p,4.12,8.6,248,-108.5,86.5
526,3214,2025-04-01 03:28:40,1743503320,5238,p,4.12,8.6,248,-108.5,86.5
527,3215,2025-04-01 03:28:50,1743503330,5248,p,4.12,8.6,248,-108.5,86.5
528,3216,2025-04-01 03:29:00,1743503340,5258,p,4.12,8.6,248,-108.5,86.5
529,3217,2025-04-01 03:29:10,1743503350,5268,p,4.13,8.6,248,-108.5,86.5
530,3218,2025-04-01 03:29:20,1743503360,5278,p,4.12,8.6,248,-108.5,86.5
531,3219,2025-04-01 03:29:30,1743503370,5288,p,4.12,8.6,248,-108.5,86.5
532,3220,2025-04-01 03:29:40,1743503380,5298,p,4.11,8.6,248,-108.5,86.5
533,3221,2025-04-01 03:29:50,1743503390,5308,p,4.12,8.6,248,-108.5,86.5
534,3222,2025-04-01 03:30:00,1743503400,5318,p,4.11,8.6,248,-108.5,86.5
535,3223,2025-04-01 03:30:10,1743503410,5328,p,4.12,8.6,248,-108.5,86.5
536,3224,2025-04-01 03:30:20,1743503420,5338,p,4.12,8.6,248,-108.5,86.5
537,3225,2025-04-01 03:30:30,1743503430,5348,p,4.11,8.6,248,-108.5,86.5
538,3226,2025-04-01 03:30:40,1743503440,5358,p,4.11,8.6,248,-108.5,86.5
539,3227,2025-04-01 03:30:50,1743503450,5368,p,4.11,8.6,248,-108.5,86.5
540,3228,2025-04-01 03:31:00,1743503460,5378,p,4.11,8.6,248,-108.5,86.5
541,3229,2025-04-01 03:31:10,1743503470,5388,p,4.11,8.6,248,-108.5,86.5
542,3230,2025-04-01 03:31:20,1743503480,5398,p,4.11,8.6,248,-108.5,86.5
543,3231,2025-04-01 03:31:30,1743503490,5408,p,4.11,8.6,248,-108.5,86.5
544,3232,2025-04-01 03:31:40,1743503500,5418,p,4.1,8.6,248,-108.5,86.5
545,3233,2025-04-01 03:31:50,1743503510,5428,p,4.1,8.6,248,-108.5,86.5
546,3234,2025-04-01 03:32:00,1743503520,5438,p,4.1,8.6,248,-108.5,86.5
547,3235,2025-04-01 03:32:09,1743503529,5447,p,4.1,8.6,248,-108.5,86.5
548,3236,2025-04-01 03:32:19,1743503539,5457,p,4.1,8.6,248,-108.5,86.5
549,3237,2025-04-01 03:32:29,1743503549,5467,p,4.1,8.7,248,-108.5,86.5
550,3238,2025-04-01 03:32:39,1743503559,5477,p,4.1,8.7,248,-108.5,86.5
551,3239,2025-04-01 03:32:49,1743503569,5487,p,4.1,8.7,248,-108.5,86.5
552,3240,2025-04-01 03:32:59,1743503579,5497,p,4.09,8.7,248,-108.5,86.5
553,3241,2025-04-01 03:33:09,1743503589,5507,p,4.09,8.7,248.1,-108.6,86.5
554,3242,2025-04-01 03:33:19,1743503599,5517,p,4.1,8.7,248.1,-108.6,86.5
555,3243,2025-04-01 03:33:29,1743503609,5527,p,4.1,8.7,248.1,-108.6,86.5
556,3244,2025-04-01 03:33:39,1743503619,5537,p,4.09,8.7,248.1,-108.6,86.5
557,3245,2025-04-01 03:33:49,1743503629,5547,p,4.09,8.7,248.1,-108.6,86.5
558,3246,2025-04-01 03:33:59,1743503639,5557,p,4.09,8.7,248.1,-108.6,86.5
559,3247,2025-04-01 03:34:09,1743503649,5567,p,4.08,8.7,248.1,-108.6,86.5
560,3248,2025-04-01 03:34:19,1743503659,5577,p,4.08,8.7,248.1,-108.6,86.5
561,3249,2025-04-01 03:34:29,1743503669,5587,p,4.07,8.7,248.1,-108.6,86.5
562,3250,2025-04-01 03:34:39,1743503679,5597,p,4.07,8.7,248.1,-108.6,86.5
563,3251,2025-04-01 03:34:49,1743503689,5607,p,4.07,8.7,248.1,-108.6,86.5
564,3252,2025-04-01 03:34:59,1743503699,5617,p,4.08,8.7,248.1,-108.6,86.5
565,3253,2025-04-01 03:35:09,1743503709,5627,p,4.08,8.7,248.1,-108.6,86.5
566,3254,2025-04-01 03:35:19,1743503719,5637,p,4.08,8.7,248.1,-108.6,86.5
567,3255,2025-04-01 03:35:29,1743503729,5647,p,4.07,8.7,248.1,-108.6,86.5
568,3256,2025-04-01 03:35:39,1743503739,5657,p,4.08,8.7,248.1,-108.6,86.5
569,3257,2025-04-01 03:35:49,1743503749,5667,p,4.08,8.7,248.1,-108.6,86.5
570,3258,2025-04-01 03:35:58,1743503758,5676,p,4.07,8.7,248.1,-108.6,86.5
571,3259,2025-04-01 03:36:08,1743503768,5686,p,4.07,8.7,248.1,-108.6,86.5
572,3260,2025-04-01 03:36:18,1743503778,5696,p,4.07,8.7,248.1,-108.6,86.5
573,3261,2025-04-01 03:36:28,1743503788,5706,p,4.07,8.7,248.1,-108.6,86.5
574,3262,2025-04-01 03:36:38,1743503798,5716,p,4.06,8.7,248.1,-108.6,86.5
575,3263,2025-04-01 03:36:48,1743503808,5726,p,4.07,8.7,248.1,-108.6,86.5
576,3264,2025-04-01 03:36:58,1743503818,5736,p,4.07,8.6,248.1,-108.6,86.5
577,3265,2025-04-01 03:37:08,1743503828,5746,p,4.05,8.7,248.1,-108.6,86.5
578,3266,2025-04-01 03:37:18,1743503838,5756,p,4.05,8.7,248.1,-108.6,86.5
579,3267,2025-04-01 03:37:28,1743503848,5766,p,4.06,8.6,248.1,-108.6,86.5
580,3268,2025-04-01 03:37:38,1743503858,5776,p,4.06,8.7,248.1,-108.6,86.5
581,3269,2025-04-01 03:37:48,1743503868,5786,p,4.07,8.7,248.1,-108.6,86.5
582,3270,2025-04-01 03:37:58,1743503878,5796,p,4.07,8.7,248.1,-108.6,86.5
583,3271,2025-04-01 03:38:08,1743503888,5806,p,4.08,8.7,248.1,-108.6,86.5
584,3272,2025-04-01 03:38:18,1743503898,5816,p,4.08,8.7,248.1,-108.6,86.5
585,3273,2025-04-01 03:38:28,1743503908,5826,p,4.07,8.7,248.1,-108.6,86.5
586,3274,2025-04-01 03:38:38,1743503918,5836,p,4.06,8.7,248.1,-108.6,86.5
587,3275,2025-04-01 03:38:48,1743503928,5846,p,4.06,8.7,248.1,-108.6,86.5
588,3276,2025-04-01 03:38:58,1743503938,5856,p,4.05,8.7,248.1,-108.6,86.5
589,3277,2025-04-01 03:39:08,1743503948,5866,p,4.05,8.7,248.1,-108.6,86.5
590,3278,2025-04-01 03:39:18,1743503958,5876,p,4.05,8.7,248.1,-108.6,86.5
591,3279,2025-04-01 03:39:28,1743503968,5886,p,4.05,8.7,248.1,-108.6,86.5
592,3280,2025-04-01 03:39:38,1743503978,5896,p,4.04,8.7,248.1,-108.6,86.5
593,3281,2025-04-01 03:39:47,1743503987,5905,p,4.04,8.7,248.1,-108.6,86.5
594,3282,2025-04-01 03:39:57,1743503997,5915,p,4.03,8.7,248.1,-108.6,86.5
595,3283,2025-04-01 03:40:07,1743504007,5925,p,4.03,8.7,248.1,-108.6,86.5
596,3284,2025-04-01 03:40:17,1743504017,5935,p,4.03,8.7,248.1,-108.6,86.5
597,3285,2025-04-01 03:40:27,1743504027,5945,p,4.04,8.7,248.1,-108.6,86.5
598,3286,2025-04-01 03:40:37,1743504037,5955,p,4.04,8.7,248.1,-108.6,86.5
599,3287,2025-04-01 03:40:47,1743504047,5965,p,4.06,8.7,248.1,-108.6,86.5
600,3288,2025-04-01 03:40:57,1743504057,5975,p,4.05,8.7,248.1,-108.6,86.5
601,3289,2025-04-01 03:41:07,1743504067,5985,p,4.04,8.7,248.1,-108.6,86.5
602,3290,2025-04-01 03:41:17,1743504077,5995,p,4.04,8.7,248.1,-108.6,86.5
603,3291,2025-04-01 03:41:27,1743504087,6005,p,4.04,8.7,248.1,-108.6,86.5
604,3292,2025-04-01 03:41:37,1743504097,6015,p,4.04,8.7,248.1,-108.6,86.5
605,3293,2025-04-01 03:41:47,1743504107,6025,p,4.04,8.7,248.1,-108.6,86.5
606,3294,2025-04-01 03:41:57,1743504117,6035,p,4.03,8.7,248.1,-108.6,86.5
607,3295,2025-04-01 03:42:07,1743504127,6045,p,4.03,8.7,248.1,-108.6,86.5
608,3296,2025-04-01 03:42:17,1743504137,6055,p,4.03,8.7,248.1,-108.6,86.5
609,3297,2025-04-01 03:42:27,1743504147,6065,p,4.03,8.7,248.1,-108.6,86.5
610,3298,2025-04-01 03:42:37,1743504157,6075,p,4.03,8.7,248.1,-108.6,86.5
611,3299,2025-04-01 03:42:47,1743504167,6085,p,4.03,8.7,248.1,-108.6,86.5
612,3300,2025-04-01 03:42:57,1743504177,6095,p,4.03,8.7,248.1,-108.6,86.5
613,3301,2025-04-01 03:43:07,1743504187,6105,p,4.03,8.7,248.1,-108.6,86.5
614,3302,2025-04-01 03:43:16,1743504196,6114,p,4.03,8.7,248.1,-108.6,86.5
615,3303,2025-04-01 03:43:26,1743504206,6124,p,4.03,8.7,248.1,-108.6,86.5
616,3304,2025-04-01 03:43:36,1743504216,6134,p,4.03,8.7,248.1,-108.6,86.5
617,3305,2025-04-01 03:43:46,1743504226,6144,p,4.02,8.7,248.1,-108.6,86.5
618,3306,2025-04-01 03:43:56,1743504236,6154,p,4.03,8.7,248.1,-108.6,86.5
619,3307,2025-04-01 03:44:06,1743504246,6164,p,4.02,8.7,248.1,-108.6,86.5
620,3308,2025-04-01 03:44:16,1743504256,6174,p,4.02,8.7,248.1,-108.6,86.5
621,3309,2025-04-01 03:44:26,1743504266,6184,p,4.02,8.7,248.1,-108.6,86.5
622,3310,2025-04-01 03:44:36,1743504276,6194,p,4.01,8.7,248.1,-108.6,86.5
623,3311,2025-04-01 03:44:46,1743504286,6204,p,4.02,8.7,248.1,-108.6,86.5
624,3312,2025-04-01 03:44:56,1743504296,6214,p,4.02,8.7,248.1,-108.6,86.5
625,3313,2025-04-01 03:45:06,1743504306,6224,p,4.02,8.7,248.1,-108.6,86.5
626,3314,2025-04-01 03:45:16,1743504316,6234,p,4.02,8.7,248.1,-108.6,86.5
627,3315,2025-04-01 03:45:26,1743504326,6244,p,4.01,8.7,248.1,-108.6,86.5
628,3316,2025-04-01 03:45:36,1743504336,6254,p,4.02,8.7,248.1,-108.6,86.5
629,3317,2025-04-01 03:45:46,1743504346,6264,p,4.03,8.7,248.1,-108.6,86.5
630,3318,2025-04-01 03:45:56,1743504356,6274,p,4.02,8.7,248.1,-108.6,86.5
631,3319,2025-04-01 03:46:06,1743504366,6284,p,4.02,8.7,248.1,-108.6,86.5
632,3320,2025-04-01 03:46:16,1743504376,6294,p,4.02,8.7,248.1,-108.6,86.5
633,3321,2025-04-01 03:46:26,1743504386,6304,p,4.02,8.7,248.1,-108.6,86.5
634,3322,2025-04-01 03:46:36,1743504396,6314,p,4.01,8.7,248.1,-108.6,86.5
635,3323,2025-04-01 03:46:46,1743504406,6324,p,4.01,8.7,248.1,-108.6,86.5
636,3324,2025-04-01 03:46:55,1743504415,6333,p,4.01,8.7,248.1,-108.6,86.5
637,3325,2025-04-01 03:47:05,1743504425,6343,p,4,8.7,248.1,-108.6,86.5
638,3326,2025-04-01 03:47:15,1743504435,6353,p,3.99,8.7,248.1,-108.6,86.5
639,3327,2025-04-01 03:47:25,1743504445,6363,p,3.99,8.7,248.1,-108.6,86.5
640,3328,2025-04-01 03:47:35,1743504455,6373,p,4,8.7,248.1,-108.6,86.5
641,3329,2025-04-01 03:47:45,1743504465,6383,p,4,8.7,248.1,-108.6,86.5
642,3330,2025-04-01 03:47:55,1743504475,6393,p,4,8.7,248.1,-108.6,86.5
643,3331,2025-04-01 03:48:05,1743504485,6403,p,4,8.7,248.1,-108.6,86.5
644,3332,2025-04-01 03:48:15,1743504495,6413,p,4,8.7,248.1,-108.6,86.5
645,3333,2025-04-01 03:48:25,1743504505,6423,p,4,8.7,248.1,-108.6,86.5
646,3334,2025-04-01 03:48:35,1743504515,6433,p,4,8.7,248.1,-108.6,86.5
647,3335,2025-04-01 03:48:45,1743504525,6443,p,4,8.7,248.1,-108.6,86.5
648,3336,2025-04-01 03:48:55,1743504535,6453,p,4,8.7,248.1,-108.6,86.5
649,3337,2025-04-01 03:49:05,1743504545,6463,p,4,8.7,248.1,-108.6,86.5
650,3338,2025-04-01 03:49:15,1743504555,6473,p,4,8.7,248.1,-108.6,86.5
651,3339,2025-04-01 03:49:25,1743504565,6483,p,4,8.7,248.1,-108.6,86.5
652,3340,2025-04-01 03:49:35,1743504575,6493,p,4,8.7,248.1,-108.6,86.5
653,3341,2025-04-01 03:49:45,1743504585,6503,p,3.99,8.7,248.1,-108.6,86.5
654,3342,2025-04-01 03:49:55,1743504595,6513,p,3.99,8.7,248.1,-108.6,86.5
655,3343,2025-04-01 03:50:05,1743504605,6523,p,3.99,8.7,248.1,-108.6,86.5
656,3344,2025-04-01 03:50:15,1743504615,6533,p,3.99,8.7,248.1,-108.6,86.5
657,3345,2025-04-01 03:50:25,1743504625,6543,p,3.98,8.7,248.1,-108.6,86.5
658,3346,2025-04-01 03:50:35,1743504635,6553,p,3.97,8.7,248.1,-108.6,86.5
659,3347,2025-04-01 03:50:44,1743504644,6562,p,3.97,8.7,248.1,-108.6,86.5
660,3348,2025-04-01 03:50:54,1743504654,6572,p,3.97,8.7,248.1,-108.6,86.5
661,3349,2025-04-01 03:51:04,1743504664,6582,p,3.97,8.7,248.1,-108.6,86.5
662,3350,2025-04-01 03:51:14,1743504674,6592,p,3.99,8.7,248.1,-108.6,86.5
663,3351,2025-04-01 03:51:24,1743504684,6602,p,3.98,8.7,248.1,-108.6,86.5
664,3352,2025-04-01 03:51:34,1743504694,6612,p,3.98,8.7,248.1,-108.6,86.5
665,3353,2025-04-01 03:51:44,1743504704,6622,p,3.97,8.7,248.1,-108.6,86.5
666,3354,2025-04-01 03:51:54,1743504714,6632,p,3.98,8.7,248.1,-108.6,86.5
667,3355,2025-04-01 03:52:04,1743504724,6642,p,3.97,8.7,248.1,-108.6,86.5
668,3356,2025-04-01 03:52:14,1743504734,6652,p,3.97,8.7,248.1,-108.6,86.5
669,3357,2025-04-01 03:52:24,1743504744,6662,p,3.97,8.7,248.1,-108.6,86.5
670,3358,2025-04-01 03:52:34,1743504754,6672,p,3.97,8.7,248.1,-108.6,86.5
671,3359,2025-04-01 03:52:44,1743504764,6682,p,3.97,8.7,248.1,-108.6,86.5
672,3360,2025-04-01 03:52:54,1743504774,6692,p,3.97,8.7,248.1,-108.6,86.5
673,3361,2025-04-01 03:53:04,1743504784,6702,p,3.97,8.7,248.1,-108.6,86.5
674,3362,2025-04-01 03:53:14,1743504794,6712,p,3.97,8.7,248.1,-108.6,86.5
675,3363,2025-04-01 03:53:24,1743504804,6722,p,3.97,8.7,248.1,-108.6,86.5
676,3364,2025-04-01 03:53:34,1743504814,6732,p,3.97,8.7,248.1,-108.6,86.5
677,3365,2025-04-01 03:53:44,1743504824,6742,p,3.97,8.7,248.1,-108.6,86.5
678,3366,2025-04-01 03:53:54,1743504834,6752,p,3.96,8.7,248.1,-108.6,86.5
679,3367,2025-04-01 03:54:04,1743504844,6762,p,3.97,8.7,248.1,-108.6,86.5
680,3368,2025-04-01 03:54:14,1743504854,6772,p,3.96,8.7,248.1,-108.6,86.5
681,3369,2025-04-01 03:54:23,1743504863,6781,p,3.96,8.7,248.1,-108.6,86.5
682,3370,2025-04-01 03:54:33,1743504873,6791,p,3.97,8.7,248.1,-108.6,86.5
683,3371,2025-04-01 03:54:43,1743504883,6801,p,3.96,8.7,248.1,-108.6,86.5
684,3372,2025-04-01 03:54:53,1743504893,6811,p,3.96,8.7,248.1,-108.6,86.5
685,3373,2025-04-01 03:55:03,1743504903,6821,p,3.96,8.7,248.1,-108.6,86.5
686,3374,2025-04-01 03:55:13,1743504913,6831,p,3.95,8.7,248.1,-108.6,86.5
687,3375,2025-04-01 03:55:23,1743504923,6841,p,3.95,8.7,248.1,-108.6,86.5
688,3376,2025-04-01 03:55:33,1743504933,6851,p,3.94,8.7,248.1,-108.6,86.5
689,3377,2025-04-01 03:55:43,1743504943,6861,p,3.94,8.7,248.1,-108.6,86.5
690,3378,2025-04-01 03:55:53,1743504953,6871,p,3.95,8.7,248.1,-108.6,86.5
691,3379,2025-04-01 03:56:03,1743504963,6881,p,3.95,8.7,248.1,-108.6,86.5
692,3380,2025-04-01 03:56:13,1743504973,6891,p,3.95,8.7,248.1,-108.6,86.5
693,3381,2025-04-01 03:56:23,1743504983,6901,p,3.95,8.7,248.1,-108.6,86.5
694,3382,2025-04-01 03:56:33,1743504993,6911,p,3.96,8.7,248.1,-108.6,86.5
695,3383,2025-04-01 03:56:43,1743505003,6921,p,3.96,8.7,248.1,-108.6,86.5
696,3384,2025-04-01 03:56:53,1743505013,6931,p,3.97,8.7,248.1,-108.6,86.5
697,3385,2025-04-01 03:57:03,1743505023,6941,p,3.96,8.7,248.1,-108.6,86.5
698,3386,2025-04-01 03:57:13,1743505033,6951,p,3.96,8.7,248.1,-108.6,86.5
699,3387,2025-04-01 03:57:23,1743505043,6961,p,3.96,8.7,248.1,-108.6,86.5
700,3388,2025-04-01 03:57:33,1743505053,6971,p,3.96,8.7,248.1,-108.6,86.5
701,3389,2025-04-01 03:57:43,1743505063,6981,p,3.95,8.7,248.1,-108.6,86.5
702,3390,2025-04-01 03:57:52,1743505072,6990,p,3.94,8.7,248.1,-108.6,86.5
703,3391,2025-04-01 03:58:02,1743505082,7000,p,3.94,8.7,248.1,-108.6,86.5
704,3392,2025-04-01 03:58:12,1743505092,7010,p,3.94,8.7,248.1,-108.6,86.5
705,3393,2025-04-01 03:58:22,1743505102,7020,p,3.94,8.7,248.1,-108.6,86.5
706,3394,2025-04-01 03:58:32,1743505112,7030,p,3.94,8.7,248.1,-108.6,86.5
707,3395,2025-04-01 03:58:42,1743505122,7040,p,3.95,8.7,248.1,-108.6,86.5
708,3396,2025-04-01 03:58:52,1743505132,7050,p,3.94,8.7,248.1,-108.6,86.5
709,3397,2025-04-01 03:59:02,1743505142,7060,p,3.93,8.7,248.1,-108.6,86.5
710,3398,2025-04-01 03:59:12,1743505152,7070,p,3.93,8.7,248.1,-108.6,86.5
711,3399,2025-04-01 03:59:22,1743505162,7080,p,3.94,8.7,248.1,-108.6,86.5
712,3400,2025-04-01 03:59:32,1743505172,7090,p,3.94,8.7,248.1,-108.6,86.5
713,3401,2025-04-01 03:59:42,1743505182,7100,p,3.94,8.7,248.1,-108.6,86.5
714,3402,2025-04-01 03:59:52,1743505192,7110,p,3.94,8.7,248.1,-108.6,86.5
715,3403,2025-04-01 04:00:02,1743505202,7120,p,3.93,8.7,248.1,-108.6,86.5
716,3404,2025-04-01 04:00:12,1743505212,7130,p,3.93,8.7,248.1,-108.6,86.5
717,3405,2025-04-01 04:00:22,1743505222,7140,p,3.93,8.7,248.1,-108.6,86.5
718,3406,2025-04-01 04:00:32,1743505232,7150,p,3.93,8.7,248.1,-108.6,86.5
719,3407,2025-04-01 04:00:42,1743505242,7160,p,3.93,8.7,248.1,-108.6,86.5
720,3408,2025-04-01 04:00:52,1743505252,7170,p,3.93,8.7,248.1,-108.6,86.5
721,3409,2025-04-01 04:01:02,1743505262,7180,p,3.93,8.7,248.1,-108.6,86.5
722,3410,2025-04-01 04:01:12,1743505272,7190,p,3.93,8.7,248.1,-108.6,86.5
723,3411,2025-04-01 04:01:22,1743505282,7200,p,3.93,8.7,248.1,-108.6,86.5
724,3412,2025-04-01 04:01:31,1743505291,7209,p,3.93,8.7,248.1,-108.6,86.5
725,3413,2025-04-01 04:01:41,1743505301,7219,p,3.93,8.7,248.1,-108.6,86.5
726,3414,2025-04-01 04:01:51,1743505311,7229,p,3.93,8.7,248.1,-108.6,86.5
727,3415,2025-04-01 04:02:01,1743505321,7239,p,3.93,8.7,248.1,-108.6,86.5
728,3416,2025-04-01 04:02:11,1743505331,7249,p,3.92,8.7,248.1,-108.6,86.5
729,3417,2025-04-01 04:02:21,1743505341,7259,p,3.93,8.7,248.1,-108.6,86.5
730,3418,2025-04-01 04:02:31,1743505351,7269,p,3.93,8.7,248.1,-108.6,86.5
731,3419,2025-04-01 04:02:41,1743505361,7279,p,3.92,8.7,248.1,-108.6,86.5
732,3420,2025-04-01 04:02:51,1743505371,7289,p,3.93,8.7,248.1,-108.6,86.5
733,3421,2025-04-01 04:03:01,1743505381,7299,p,3.93,8.7,248.1,-108.6,86.5
734,3422,2025-04-01 04:03:11,1743505391,7309,p,3.93,8.7,248.1,-108.6,86.5
735,3423,2025-04-01 04:03:21,1743505401,7319,p,3.92,8.7,248.1,-108.6,86.5
736,3424,2025-04-01 04:03:31,1743505411,7329,p,3.92,8.7,248.1,-108.6,86.5
737,3425,2025-04-01 04:03:41,1743505421,7339,p,3.92,8.7,248.1,-108.6,86.5
738,3426,2025-04-01 04:03:51,1743505431,7349,p,3.91,8.7,248.1,-108.6,86.5
739,3427,2025-04-01 04:04:01,1743505441,7359,p,3.92,8.7,248.1,-108.6,86.5
740,3428,2025-04-01 04:04:11,1743505451,7369,p,3.92,8.7,248.1,-108.6,86.5
741,3429,2025-04-01 04:04:21,1743505461,7379,p,3.92,8.7,248.1,-108.6,86.5
742,3430,2025-04-01 04:04:31,1743505471,7389,p,3.92,8.7,248.1,-108.6,86.5
743,3431,2025-04-01 04:04:41,1743505481,7399,p,3.92,8.7,248.1,-108.6,86.5
744,3432,2025-04-01 04:04:51,1743505491,7409,p,3.92,8.7,248.1,-108.6,86.5
745,3433,2025-04-01 04:05:01,1743505501,7419,p,3.92,8.7,248.1,-108.6,86.5
746,3434,2025-04-01 04:05:10,1743505510,7428,p,3.92,8.7,248.1,-108.6,86.5
747,3435,2025-04-01 04:05:20,1743505520,7438,p,3.92,8.7,248.1,-108.6,86.5
748,3436,2025-04-01 04:05:30,1743505530,7448,p,3.92,8.7,248.1,-108.6,86.5
749,3437,2025-04-01 04:05:40,1743505540,7458,p,3.92,8.7,248.1,-108.6,86.5
750,3438,2025-04-01 04:05:50,1743505550,7468,p,3.92,8.7,248.1,-108.6,86.5
751,3439,2025-04-01 04:06:00,1743505560,7478,p,3.92,8.7,248.1,-108.6,86.5
752,3440,2025-04-01 04:06:10,1743505570,7488,p,3.91,8.7,248.1,-108.6,86.5
753,3441,2025-04-01 04:06:20,1743505580,7498,p,3.91,8.7,248.1,-108.6,86.5
754,3442,2025-04-01 04:06:30,1743505590,7508,p,3.91,8.7,248.1,-108.6,86.5
755,3443,2025-04-01 04:06:40,1743505600,7518,p,3.9,8.7,248.1,-108.6,86.5
756,3444,2025-04-01 04:06:50,1743505610,7528,p,3.9,8.7,248.1,-108.6,86.5
757,3445,2025-04-01 04:07:00,1743505620,7538,p,3.91,8.7,248.1,-108.6,86.5
758,3446,2025-04-01 04:07:10,1743505630,7548,p,3.9,8.7,248.1,-108.6,86.5
759,3447,2025-04-01 04:07:20,1743505640,7558,p,3.9,8.7,248.1,-108.6,86.5
760,3448,2025-04-01 04:07:30,1743505650,7568,p,3.9,8.7,248.1,-108.6,86.5
761,3449,2025-04-01 04:07:40,1743505660,7578,p,3.9,8.7,248.1,-108.6,86.5
762,3450,2025-04-01 04:07:50,1743505670,7588,p,3.91,8.7,248.1,-108.6,86.5
763,3451,2025-04-01 04:08:00,1743505680,7598,p,3.91,8.7,248.1,-108.6,86.5
764,3452,2025-04-01 04:08:10,1743505690,7608,p,3.9,8.7,248.1,-108.6,86.5
765,3453,2025-04-01 04:08:20,1743505700,7618,p,3.9,8.7,248.1,-108.6,86.5
766,3454,2025-04-01 04:08:30,1743505710,7628,p,3.9,8.7,248.1,-108.6,86.5
767,3455,2025-04-01 04:08:40,1743505720,7638,p,3.9,8.7,248.1,-108.6,86.5
768,3456,2025-04-01 04:08:50,1743505730,7648,p,3.9,8.7,248.1,-108.6,86.5
769,3457,2025-04-01 04:08:59,1743505739,7657,p,3.9,8.7,248.1,-108.6,86.5
770,3458,2025-04-01 04:09:09,1743505749,7667,p,3.89,8.7,248.1,-108.6,86.5
771,3459,2025-04-01 04:09:19,1743505759,7677,p,3.89,8.7,248.1,-108.6,86.5
772,3460,2025-04-01 04:09:29,1743505769,7687,p,3.9,8.7,248.1,-108.6,86.5
773,3461,2025-04-01 04:09:39,1743505779,7697,p,3.89,8.7,248.1,-108.6,86.5
774,3462,2025-04-01 04:09:49,1743505789,7707,p,3.89,8.7,248.1,-108.6,86.5
775,3463,2025-04-01 04:09:59,1743505799,7717,p,3.89,8.7,248.1,-108.6,86.5
776,3464,2025-04-01 04:10:09,1743505809,7727,p,3.89,8.7,248.1,-108.6,86.5
777,3465,2025-04-01 04:10:19,1743505819,7737,p,3.89,8.7,248.1,-108.6,86.5
778,3466,2025-04-01 04:10:29,1743505829,7747,p,3.89,8.7,248.1,-108.6,86.5
779,3467,2025-04-01 04:10:39,1743505839,7757,p,3.9,8.7,248.1,-108.6,86.5
780,3468,2025-04-01 04:10:49,1743505849,7767,p,3.89,8.7,248.1,-108.6,86.5
781,3469,2025-04-01 04:10:59,1743505859,7777,p,3.89,8.7,248.1,-108.6,86.5
782,3470,2025-04-01 04:11:09,1743505869,7787,p,3.9,8.7,248.1,-108.6,86.5
783,3471,2025-04-01 04:11:19,1743505879,7797,p,3.9,8.7,248.1,-108.6,86.5
784,3472,2025-04-01 04:11:29,1743505889,7807,p,3.9,8.8,248.1,-108.6,86.5
785,3473,2025-04-01 04:11:39,1743505899,7817,p,3.9,8.8,248.1,-108.6,86.5
786,3474,2025-04-01 04:11:49,1743505909,7827,p,3.9,8.8,248.1,-108.6,86.5
787,3475,2025-04-01 04:11:59,1743505919,7837,p,3.9,8.8,248.1,-108.6,86.5
788,3476,2025-04-01 04:12:09,1743505929,7847,p,3.9,8.8,248.1,-108.6,86.5
789,3477,2025-04-01 04:12:19,1743505939,7857,p,3.9,8.8,248.1,-108.6,86.5
790,3478,2025-04-01 04:12:29,1743505949,7867,p,3.89,8.8,248.1,-108.6,86.5
791,3479,2025-04-01 04:12:38,1743505958,7876,p,3.89,8.7,248.1,-108.6,86.5
792,3480,2025-04-01 04:12:48,1743505968,7886,p,3.89,8.7,248.1,-108.6,86.5
793,3481,2025-04-01 04:12:58,1743505978,7896,p,3.89,8.7,248.1,-108.6,86.5
794,3482,2025-04-01 04:13:08,1743505988,7906,p,3.89,8.7,248.1,-108.6,86.5
795,3483,2025-04-01 04:13:18,1743505998,7916,p,3.89,8.7,248.1,-108.6,86.5
796,3484,2025-04-01 04:13:28,1743506008,7926,p,3.88,8.7,248.1,-108.6,86.5
797,3485,2025-04-01 04:13:38,1743506018,7936,p,3.88,8.7,248.1,-108.6,86.5
798,3486,2025-04-01 04:13:48,1743506028,7946,p,3.88,8.7,248.1,-108.6,86.5
799,3487,2025-04-01 04:13:58,1743506038,7956,p,3.88,8.7,248.1,-108.6,86.5
800,3488,2025-04-01 04:14:08,1743506048,7966,p,3.88,8.7,248.1,-108.6,86.5
801,3489,2025-04-01 04:14:18,1743506058,7976,p,3.89,8.7,248.1,-108.6,86.5
802,3490,2025-04-01 04:14:28,1743506068,7986,p,3.89,8.7,248.1,-108.6,86.5
803,3491,2025-04-01 04:14:38,1743506078,7996,p,3.89,8.7,248.1,-108.6,86.5
804,3492,2025-04-01 04:14:48,1743506088,8006,p,3.89,8.8,248.1,-108.6,86.5
805,3493,2025-04-01 04:14:58,1743506098,8016,p,3.89,8.8,248.1,-108.6,86.5
806,3494,2025-04-01 04:15:08,1743506108,8026,p,3.89,8.8,248.1,-108.6,86.5
807,3495,2025-04-01 04:15:18,1743506118,8036,p,3.88,8.8,248.1,-108.6,86.5
