Number,Id,Datetime,Timestamp,Runtime,Type,Depth,Temperature,Heading,Roll,Pitch
1,10,2025-04-29 00:46:05,1745912765,12,p,0.25,15.4,180.3,-91.1,-0.9
2,11,2025-04-29 00:46:15,1745912775,22,p,0.25,15.4,180.2,-91.2,-1
3,12,2025-04-29 00:46:25,1745912785,32,p,0.25,15.4,182.8,-77.3,-5.2
4,13,2025-04-29 00:46:35,1745912795,42,p,1.24,13.3,222.3,-101.4,-6.4
5,14,2025-04-29 00:46:45,1745912805,52,p,1.95,11.9,235.4,-93.9,1.8
6,15,2025-04-29 00:46:55,1745912815,62,p,3.4,11.4,212.4,-97.4,17.3
7,16,2025-04-29 00:47:05,1745912825,72,p,4.38,11.1,176.9,-70.2,-69.4
8,17,2025-04-29 00:47:15,1745912835,82,p,4.39,11,176.9,-70.2,-69.4
9,18,2025-04-29 00:47:25,1745912845,92,p,4.4,10.9,176.9,-70.2,-69.4
10,19,2025-04-29 00:47:35,1745912855,102,p,4.39,10.9,176.9,-70.2,-69.4
11,20,2025-04-29 00:47:45,1745912865,112,p,4.39,10.9,176.8,-70,-69.8
12,21,2025-04-29 00:47:55,1745912875,122,p,4.4,10.9,176.8,-70,-69.8
13,22,2025-04-29 00:48:04,1745912884,131,p,4.38,10.9,176.8,-70,-69.8
14,23,2025-04-29 00:48:14,1745912894,141,p,4.37,10.9,176.8,-70,-69.8
15,24,2025-04-29 00:48:24,1745912904,151,p,4.37,10.9,176.8,-70,-69.8
16,25,2025-04-29 00:48:34,1745912914,161,p,4.37,10.8,176.8,-70,-69.8
17,26,2025-04-29 00:48:44,1745912924,171,p,4.38,10.8,176.8,-70,-69.8
18,27,2025-04-29 00:48:54,1745912934,181,p,4.38,10.8,176.8,-70,-69.8
19,28,2025-04-29 00:49:04,1745912944,191,p,4.38,10.8,176.8,-70,-69.8
20,29,2025-04-29 00:49:14,1745912954,201,p,4.38,10.8,176.8,-70,-69.8
21,30,2025-04-29 00:49:24,1745912964,211,p,4.37,10.9,176.8,-70,-69.8
22,31,2025-04-29 00:49:34,1745912974,221,p,4.37,10.9,176.8,-70,-69.8
23,32,2025-04-29 00:49:44,1745912984,231,p,4.36,10.9,176.8,-70,-69.8
24,33,2025-04-29 00:49:54,1745912994,241,p,4.35,10.9,176.8,-70,-69.8
25,34,2025-04-29 00:50:04,1745913004,251,p,4.34,10.8,176.8,-70,-69.8
26,35,2025-04-29 00:50:14,1745913014,261,p,4.34,10.8,176.8,-70,-69.8
27,36,2025-04-29 00:50:24,1745913024,271,p,4.35,10.8,176.8,-70,-69.8
28,37,2025-04-29 00:50:34,1745913034,281,p,4.36,10.8,176.8,-70,-69.8
29,38,2025-04-29 00:50:44,1745913044,291,p,4.36,10.8,176.8,-70,-69.8
30,39,2025-04-29 00:50:54,1745913054,301,p,4.35,10.8,176.8,-70,-69.8
31,40,2025-04-29 00:51:04,1745913064,311,p,4.34,10.8,176.8,-70,-69.8
32,41,2025-04-29 00:51:14,1745913074,321,p,4.34,10.8,176.8,-70,-69.8
33,42,2025-04-29 00:51:24,1745913084,331,p,4.33,10.8,176.8,-70,-69.8
34,43,2025-04-29 00:51:34,1745913094,341,p,4.33,10.8,176.8,-70,-69.8
35,44,2025-04-29 00:51:44,1745913104,351,p,4.34,10.8,176.8,-70,-69.8
36,45,2025-04-29 00:51:53,1745913113,360,p,4.36,10.8,176.8,-70,-69.8
37,46,2025-04-29 00:52:03,1745913123,370,p,4.36,10.8,176.8,-70,-69.8
38,47,2025-04-29 00:52:13,1745913133,380,p,4.35,10.8,176.8,-70,-69.8
39,48,2025-04-29 00:52:23,1745913143,390,p,4.34,10.8,176.8,-70,-69.8
40,49,2025-04-29 00:52:33,1745913153,400,p,4.34,10.8,176.8,-70,-69.8
41,50,2025-04-29 00:52:43,1745913163,410,p,4.34,10.8,176.8,-70,-69.8
42,51,2025-04-29 00:52:53,1745913173,420,p,4.33,10.8,176.8,-70,-69.8
43,52,2025-04-29 00:53:03,1745913183,430,p,4.33,10.8,176.8,-70,-69.8
44,53,2025-04-29 00:53:13,1745913193,440,p,4.33,10.8,176.8,-70,-69.8
45,54,2025-04-29 00:53:23,1745913203,450,p,4.33,10.8,176.8,-70,-69.8
46,55,2025-04-29 00:53:33,1745913213,460,p,4.34,10.8,176.8,-70,-69.8
47,56,2025-04-29 00:53:43,1745913223,470,p,4.33,10.8,176.8,-70,-69.8
48,57,2025-04-29 00:53:53,1745913233,480,p,4.35,10.8,176.8,-70,-69.8
49,58,2025-04-29 00:54:03,1745913243,490,p,4.33,10.8,176.8,-70,-69.8
50,59,2025-04-29 00:54:13,1745913253,500,p,4.33,10.8,176.8,-70,-69.8
51,60,2025-04-29 00:54:23,1745913263,510,p,4.33,10.8,176.8,-70,-69.8
52,61,2025-04-29 00:54:33,1745913273,520,p,4.33,10.8,176.8,-70,-69.8
53,62,2025-04-29 00:54:43,1745913283,530,p,4.33,10.8,176.8,-70,-69.8
54,63,2025-04-29 00:54:53,1745913293,540,p,4.32,10.8,176.8,-70,-69.8
55,64,2025-04-29 00:55:03,1745913303,550,p,4.32,10.8,176.8,-70,-69.8
56,65,2025-04-29 00:55:13,1745913313,560,p,4.32,10.8,176.8,-70,-69.8
57,66,2025-04-29 00:55:23,1745913323,570,p,4.33,10.8,176.8,-70,-69.8
58,67,2025-04-29 00:55:32,1745913332,579,p,4.32,10.8,176.8,-70,-69.8
59,68,2025-04-29 00:55:42,1745913342,589,p,4.31,10.8,176.8,-70,-69.8
60,69,2025-04-29 00:55:52,1745913352,599,p,4.31,10.8,176.8,-70,-69.8
61,70,2025-04-29 00:56:02,1745913362,609,p,4.31,10.8,176.8,-70,-69.8
62,71,2025-04-29 00:56:12,1745913372,619,p,4.31,10.8,176.8,-70,-69.8
63,72,2025-04-29 00:56:22,1745913382,629,p,4.32,10.8,176.8,-70,-69.8
64,73,2025-04-29 00:56:32,1745913392,639,p,4.32,10.8,176.8,-70,-69.8
65,74,2025-04-29 00:56:42,1745913402,649,p,4.32,10.8,176.8,-70,-69.8
66,75,2025-04-29 00:56:52,1745913412,659,p,4.32,10.8,176.8,-70,-69.8
67,76,2025-04-29 00:57:02,1745913422,669,p,4.31,10.8,176.8,-70,-69.8
68,77,2025-04-29 00:57:12,1745913432,679,p,4.32,10.8,176.8,-70,-69.8
69,78,2025-04-29 00:57:22,1745913442,689,p,4.31,10.8,176.8,-70,-69.8
70,79,2025-04-29 00:57:32,1745913452,699,p,4.3,10.8,176.8,-70,-69.8
71,80,2025-04-29 00:57:42,1745913462,709,p,4.29,10.8,176.8,-70,-69.8
72,81,2025-04-29 00:57:52,1745913472,719,p,4.28,10.8,176.8,-70,-69.8
73,82,2025-04-29 00:58:02,1745913482,729,p,4.28,10.8,176.8,-70,-69.8
74,83,2025-04-29 00:58:12,1745913492,739,p,4.28,10.7,176.8,-70,-69.8
75,84,2025-04-29 00:58:22,1745913502,749,p,4.3,10.7,176.8,-70,-69.8
76,85,2025-04-29 00:58:32,1745913512,759,p,4.3,10.7,176.8,-70,-69.9
77,86,2025-04-29 00:58:42,1745913522,769,p,4.31,10.7,176.8,-70,-70
78,87,2025-04-29 00:58:52,1745913532,779,p,4.3,10.8,176.8,-70,-70
79,88,2025-04-29 00:59:02,1745913542,789,p,4.29,10.8,176.8,-70,-70
80,89,2025-04-29 00:59:11,1745913551,798,p,4.28,10.8,176.8,-70,-70
81,90,2025-04-29 00:59:21,1745913561,808,p,4.27,10.7,176.8,-70,-70
82,91,2025-04-29 00:59:31,1745913571,818,p,4.28,10.7,176.8,-70,-70
83,92,2025-04-29 00:59:41,1745913581,828,p,4.28,10.7,176.8,-70,-70
84,93,2025-04-29 00:59:51,1745913591,838,p,4.27,10.7,176.8,-70,-70
85,94,2025-04-29 01:00:01,1745913601,848,p,4.27,10.7,176.8,-70,-70
86,95,2025-04-29 01:00:11,1745913611,858,p,4.27,10.7,176.8,-70,-70
87,96,2025-04-29 01:00:21,1745913621,868,p,4.28,10.7,176.8,-70,-70
88,97,2025-04-29 01:00:31,1745913631,878,p,4.3,10.7,176.8,-70,-70
89,98,2025-04-29 01:00:41,1745913641,888,p,4.28,10.7,176.8,-70,-70
90,99,2025-04-29 01:00:51,1745913651,898,p,4.28,10.7,176.8,-70,-70
91,100,2025-04-29 01:01:01,1745913661,908,p,4.28,10.7,176.8,-70,-70
92,101,2025-04-29 01:01:11,1745913671,918,p,4.27,10.7,176.8,-70,-70
93,102,2025-04-29 01:01:21,1745913681,928,p,4.27,10.7,176.8,-70,-70
94,103,2025-04-29 01:01:31,1745913691,938,p,4.27,10.7,176.8,-70,-70
95,104,2025-04-29 01:01:41,1745913701,948,p,4.26,10.7,176.8,-70,-70
96,105,2025-04-29 01:01:51,1745913711,958,p,4.26,10.7,176.8,-70,-70
97,106,2025-04-29 01:02:01,1745913721,968,p,4.27,10.7,176.8,-70,-70
98,107,2025-04-29 01:02:11,1745913731,978,p,4.27,10.7,176.8,-70,-70
99,108,2025-04-29 01:02:21,1745913741,988,p,4.27,10.7,176.8,-70,-70
100,109,2025-04-29 01:02:31,1745913751,998,p,4.27,10.7,176.8,-70,-70
101,110,2025-04-29 01:02:41,1745913761,1008,p,4.28,10.7,176.8,-70,-70
102,111,2025-04-29 01:02:51,1745913771,1018,p,4.29,10.7,176.8,-70,-70
103,112,2025-04-29 01:03:00,1745913780,1027,p,4.28,10.7,176.8,-70,-70
104,113,2025-04-29 01:03:10,1745913790,1037,p,4.27,10.7,176.8,-70,-70
105,114,2025-04-29 01:03:20,1745913800,1047,p,4.27,10.7,176.8,-70,-70
106,115,2025-04-29 01:03:30,1745913810,1057,p,4.26,10.7,176.8,-70,-70
107,116,2025-04-29 01:03:40,1745913820,1067,p,4.26,10.7,176.8,-70,-70
108,117,2025-04-29 01:03:50,1745913830,1077,p,4.26,10.8,176.8,-70,-70
109,118,2025-04-29 01:04:00,1745913840,1087,p,4.25,10.8,176.8,-70,-70
110,119,2025-04-29 01:04:10,1745913850,1097,p,4.25,10.7,176.8,-70,-70
111,120,2025-04-29 01:04:20,1745913860,1107,p,4.24,10.7,176.8,-70,-70
112,121,2025-04-29 01:04:30,1745913870,1117,p,4.24,10.7,176.8,-70,-70
113,122,2025-04-29 01:04:40,1745913880,1127,p,4.25,10.7,176.8,-70,-70
114,123,2025-04-29 01:04:50,1745913890,1137,p,4.25,10.7,176.8,-70,-70
115,124,2025-04-29 01:05:00,1745913900,1147,p,4.24,10.7,176.8,-70,-70
116,125,2025-04-29 01:05:10,1745913910,1157,p,4.23,10.7,176.8,-70,-70
117,126,2025-04-29 01:05:20,1745913920,1167,p,4.23,10.7,176.8,-70,-70
118,127,2025-04-29 01:05:30,1745913930,1177,p,4.23,10.7,176.8,-70,-70
119,128,2025-04-29 01:05:40,1745913940,1187,p,4.25,10.7,176.8,-70,-70
120,129,2025-04-29 01:05:50,1745913950,1197,p,4.24,10.7,176.8,-70,-70
121,130,2025-04-29 01:06:00,1745913960,1207,p,4.23,10.7,176.8,-70,-70
122,131,2025-04-29 01:06:10,1745913970,1217,p,4.24,10.7,176.8,-70,-70
123,132,2025-04-29 01:06:20,1745913980,1227,p,4.23,10.7,176.8,-70,-70
124,133,2025-04-29 01:06:30,1745913990,1237,p,4.23,10.7,176.8,-70,-70
125,134,2025-04-29 01:06:39,1745913999,1246,p,4.23,10.7,176.8,-70,-70
126,135,2025-04-29 01:06:49,1745914009,1256,p,4.24,10.7,176.8,-70,-70
127,136,2025-04-29 01:06:59,1745914019,1266,p,4.24,10.7,176.8,-70,-70
128,137,2025-04-29 01:07:09,1745914029,1276,p,4.22,10.7,176.8,-70,-70
129,138,2025-04-29 01:07:19,1745914039,1286,p,4.21,10.7,176.8,-70,-70
130,139,2025-04-29 01:07:29,1745914049,1296,p,4.22,10.7,176.8,-70,-70
131,140,2025-04-29 01:07:39,1745914059,1306,p,4.2,10.7,176.8,-70,-70
132,141,2025-04-29 01:07:49,1745914069,1316,p,4.21,10.7,176.8,-70,-70
133,142,2025-04-29 01:07:59,1745914079,1326,p,4.22,10.7,176.8,-70,-70
134,143,2025-04-29 01:08:09,1745914089,1336,p,4.22,10.7,176.8,-70,-70
135,144,2025-04-29 01:08:19,1745914099,1346,p,4.22,10.7,176.8,-70,-70
136,145,2025-04-29 01:08:29,1745914109,1356,p,4.21,10.7,176.8,-70,-70
137,146,2025-04-29 01:08:39,1745914119,1366,p,4.21,10.7,176.8,-70,-70
138,147,2025-04-29 01:08:49,1745914129,1376,p,4.2,10.7,176.8,-70,-70
139,148,2025-04-29 01:08:59,1745914139,1386,p,4.2,10.7,176.8,-70,-70
140,149,2025-04-29 01:09:09,1745914149,1396,p,4.2,10.7,176.8,-70,-70
141,150,2025-04-29 01:09:19,1745914159,1406,p,4.21,10.7,176.8,-70,-70
142,151,2025-04-29 01:09:29,1745914169,1416,p,4.21,10.7,176.8,-70,-70.1
143,152,2025-04-29 01:09:39,1745914179,1426,p,4.2,10.7,176.8,-70,-70.1
144,153,2025-04-29 01:09:49,1745914189,1436,p,4.19,10.7,176.8,-70,-70.1
145,154,2025-04-29 01:09:59,1745914199,1446,p,4.18,10.7,176.8,-70,-70.1
146,155,2025-04-29 01:10:08,1745914208,1455,p,4.18,10.7,176.8,-70,-70.1
147,156,2025-04-29 01:10:18,1745914218,1465,p,4.2,10.7,176.8,-70,-70.1
148,157,2025-04-29 01:10:28,1745914228,1475,p,4.2,10.7,176.8,-70,-70.1
149,158,2025-04-29 01:10:38,1745914238,1485,p,4.2,10.7,176.8,-70,-70.1
150,159,2025-04-29 01:10:48,1745914248,1495,p,4.2,10.7,176.8,-70,-70.1
151,160,2025-04-29 01:10:58,1745914258,1505,p,4.19,10.7,176.8,-70,-70.1
152,161,2025-04-29 01:11:08,1745914268,1515,p,4.19,10.7,176.8,-70,-70.1
153,162,2025-04-29 01:11:18,1745914278,1525,p,4.18,10.7,176.8,-70,-70.1
154,163,2025-04-29 01:11:28,1745914288,1535,p,4.17,10.7,176.8,-70,-70.1
155,164,2025-04-29 01:11:38,1745914298,1545,p,4.16,10.7,176.8,-70,-70.1
156,165,2025-04-29 01:11:48,1745914308,1555,p,4.17,10.7,176.8,-70,-70.1
157,166,2025-04-29 01:11:58,1745914318,1565,p,4.17,10.7,176.8,-70,-70.1
158,167,2025-04-29 01:12:08,1745914328,1575,p,4.19,10.7,176.8,-70,-70.1
159,168,2025-04-29 01:12:18,1745914338,1585,p,4.2,10.7,176.8,-70,-70.1
160,169,2025-04-29 01:12:28,1745914348,1595,p,4.2,10.7,176.8,-70,-70.1
161,170,2025-04-29 01:12:38,1745914358,1605,p,4.19,10.7,176.8,-70,-70.1
162,171,2025-04-29 01:12:48,1745914368,1615,p,4.18,10.7,176.8,-70,-70.1
163,172,2025-04-29 01:12:58,1745914378,1625,p,4.17,10.7,176.8,-70,-70.1
164,173,2025-04-29 01:13:08,1745914388,1635,p,4.15,10.7,176.8,-70,-70.1
165,174,2025-04-29 01:13:18,1745914398,1645,p,4.13,10.7,176.8,-70,-70.1
166,175,2025-04-29 01:13:28,1745914408,1655,p,4.15,10.7,176.8,-70,-70.1
167,176,2025-04-29 01:13:37,1745914417,1664,p,4.16,10.7,176.8,-70,-70.1
168,177,2025-04-29 01:13:47,1745914427,1674,p,4.15,10.7,176.8,-70,-70.1
169,178,2025-04-29 01:13:57,1745914437,1684,p,4.15,10.7,176.8,-70,-70.1
170,179,2025-04-29 01:14:07,1745914447,1694,p,4.15,10.7,176.8,-70,-70.1
171,180,2025-04-29 01:14:17,1745914457,1704,p,4.15,10.7,176.8,-70,-70.1
172,181,2025-04-29 01:14:27,1745914467,1714,p,4.15,10.7,176.8,-70,-70.1
173,182,2025-04-29 01:14:37,1745914477,1724,p,4.16,10.7,176.8,-70,-70.1
174,183,2025-04-29 01:14:47,1745914487,1734,p,4.16,10.7,176.8,-70,-70.1
175,184,2025-04-29 01:14:57,1745914497,1744,p,4.16,10.7,176.8,-70,-70.1
176,185,2025-04-29 01:15:07,1745914507,1754,p,4.16,10.7,176.8,-70,-70.1
177,186,2025-04-29 01:15:17,1745914517,1764,p,4.16,10.7,176.8,-70,-70.1
178,187,2025-04-29 01:15:27,1745914527,1774,p,4.16,10.7,176.8,-70,-70.1
179,188,2025-04-29 01:15:37,1745914537,1784,p,4.14,10.7,176.8,-70,-70.1
180,189,2025-04-29 01:15:47,1745914547,1794,p,4.14,10.7,176.8,-70,-70.1
181,190,2025-04-29 01:15:57,1745914557,1804,p,4.15,10.7,176.8,-70,-70.1
182,191,2025-04-29 01:16:07,1745914567,1814,p,4.14,10.7,176.8,-70,-70.1
183,192,2025-04-29 01:16:17,1745914577,1824,p,4.14,10.7,176.8,-70,-70.1
184,193,2025-04-29 01:16:27,1745914587,1834,p,4.13,10.7,176.8,-70,-70.1
185,194,2025-04-29 01:16:37,1745914597,1844,p,4.13,10.7,176.8,-70,-70.1
186,195,2025-04-29 01:16:47,1745914607,1854,p,4.13,10.7,176.8,-70,-70.1
187,196,2025-04-29 01:16:57,1745914617,1864,p,4.13,10.7,176.8,-70,-70.1
188,197,2025-04-29 01:17:07,1745914627,1874,p,4.12,10.7,176.8,-70,-70.1
189,198,2025-04-29 01:17:17,1745914637,1884,p,4.13,10.7,176.8,-70,-70.1
190,199,2025-04-29 01:17:26,1745914646,1893,p,4.12,10.7,176.8,-70,-70.1
191,200,2025-04-29 01:17:36,1745914656,1903,p,4.13,10.7,176.8,-70,-70.1
192,201,2025-04-29 01:17:46,1745914666,1913,p,4.14,10.7,176.8,-70,-70.1
193,202,2025-04-29 01:17:56,1745914676,1923,p,4.12,10.7,176.8,-70,-70.1
194,203,2025-04-29 01:18:06,1745914686,1933,p,4.1,10.7,176.8,-70,-70.1
195,204,2025-04-29 01:18:16,1745914696,1943,p,4.11,10.7,176.8,-70,-70.1
196,205,2025-04-29 01:18:26,1745914706,1953,p,4.1,10.6,176.8,-70,-70.1
197,206,2025-04-29 01:18:36,1745914716,1963,p,4.11,10.6,176.8,-70,-70.1
198,207,2025-04-29 01:18:46,1745914726,1973,p,4.12,10.6,176.8,-70,-70.1
199,208,2025-04-29 01:18:56,1745914736,1983,p,4.12,10.6,176.8,-70,-70.1
200,209,2025-04-29 01:19:06,1745914746,1993,p,4.11,10.7,176.8,-70,-70.1
201,210,2025-04-29 01:19:16,1745914756,2003,p,4.11,10.7,176.8,-70,-70.1
202,211,2025-04-29 01:19:26,1745914766,2013,p,4.1,10.6,176.8,-70,-70.1
203,212,2025-04-29 01:19:36,1745914776,2023,p,4.1,10.6,176.8,-70,-70.1
204,213,2025-04-29 01:19:46,1745914786,2033,p,4.1,10.7,176.8,-70,-70.1
205,214,2025-04-29 01:19:56,1745914796,2043,p,4.1,10.7,176.8,-70,-70.1
206,215,2025-04-29 01:20:06,1745914806,2053,p,4.09,10.7,176.8,-70,-70.1
207,216,2025-04-29 01:20:16,1745914816,2063,p,4.08,10.7,176.8,-70,-70.1
208,217,2025-04-29 01:20:26,1745914826,2073,p,4.09,10.6,176.8,-70,-70.1
209,218,2025-04-29 01:20:36,1745914836,2083,p,4.08,10.6,176.8,-70,-70.1
210,219,2025-04-29 01:20:46,1745914846,2093,p,4.08,10.6,176.8,-70,-70.1
211,220,2025-04-29 01:20:55,1745914855,2102,p,4.09,10.6,176.8,-70,-70.1
212,221,2025-04-29 01:21:05,1745914865,2112,p,4.09,10.6,176.8,-70,-70.1
213,222,2025-04-29 01:21:15,1745914875,2122,p,4.1,10.7,176.8,-70,-70.1
214,223,2025-04-29 01:21:25,1745914885,2132,p,4.1,10.7,176.8,-70,-70.1
215,224,2025-04-29 01:21:35,1745914895,2142,p,4.1,10.7,176.8,-70,-70.1
216,225,2025-04-29 01:21:45,1745914905,2152,p,4.09,10.7,176.8,-70,-70.1
217,226,2025-04-29 01:21:55,1745914915,2162,p,4.09,10.7,176.8,-70,-70.1
218,227,2025-04-29 01:22:05,1745914925,2172,p,4.09,10.7,176.8,-70,-70.1
219,228,2025-04-29 01:22:15,1745914935,2182,p,4.08,10.7,176.8,-70,-70.1
220,229,2025-04-29 01:22:25,1745914945,2192,p,4.06,10.7,176.8,-70,-70.1
221,230,2025-04-29 01:22:35,1745914955,2202,p,4.06,10.6,176.8,-70,-70.1
222,231,2025-04-29 01:22:45,1745914965,2212,p,4.07,10.6,176.8,-70,-70.1
223,232,2025-04-29 01:22:55,1745914975,2222,p,4.06,10.6,176.8,-70,-70.1
224,233,2025-04-29 01:23:05,1745914985,2232,p,4.05,10.6,176.8,-70,-70.1
225,234,2025-04-29 01:23:15,1745914995,2242,p,4.05,10.6,176.8,-70,-70.1
226,235,2025-04-29 01:23:25,1745915005,2252,p,4.06,10.6,176.8,-70,-70.1
227,236,2025-04-29 01:23:35,1745915015,2262,p,4.06,10.6,176.8,-70,-70.1
228,237,2025-04-29 01:23:45,1745915025,2272,p,4.05,10.6,176.8,-70,-70.1
229,238,2025-04-29 01:23:55,1745915035,2282,p,4.05,10.6,176.8,-70,-70.1
230,239,2025-04-29 01:24:05,1745915045,2292,p,4.05,10.6,176.8,-70,-70.1
231,240,2025-04-29 01:24:15,1745915055,2302,p,4.06,10.6,176.8,-70,-70.1
232,241,2025-04-29 01:24:24,1745915064,2311,p,4.06,10.6,176.8,-70,-70.1
233,242,2025-04-29 01:24:34,1745915074,2321,p,4.05,10.6,176.8,-70,-70.1
234,243,2025-04-29 01:24:44,1745915084,2331,p,4.05,10.6,176.8,-70,-70.1
235,244,2025-04-29 01:24:54,1745915094,2341,p,4.04,10.6,176.8,-70,-70.1
236,245,2025-04-29 01:25:04,1745915104,2351,p,4.04,10.6,176.8,-70,-70.1
237,246,2025-04-29 01:25:14,1745915114,2361,p,4.04,10.6,176.8,-70,-70.1
238,247,2025-04-29 01:25:24,1745915124,2371,p,4.04,10.6,176.8,-70,-70.1
239,248,2025-04-29 01:25:34,1745915134,2381,p,4.04,10.6,176.8,-70,-70.1
240,249,2025-04-29 01:25:44,1745915144,2391,p,4.04,10.6,176.8,-70,-70.1
241,250,2025-04-29 01:25:54,1745915154,2401,p,4.04,10.6,176.8,-70,-70.1
242,251,2025-04-29 01:26:04,1745915164,2411,p,4.04,10.6,176.8,-70,-70.1
243,252,2025-04-29 01:26:14,1745915174,2421,p,4.02,10.6,176.8,-70,-70.1
244,253,2025-04-29 01:26:24,1745915184,2431,p,4.02,10.6,176.8,-70,-70.1
245,254,2025-04-29 01:26:34,1745915194,2441,p,4.02,10.6,176.8,-70,-70.1
246,255,2025-04-29 01:26:44,1745915204,2451,p,4.02,10.6,176.8,-70,-70.1
247,256,2025-04-29 01:26:54,1745915214,2461,p,4.02,10.6,176.8,-70,-70.1
248,257,2025-04-29 01:27:04,1745915224,2471,p,4.02,10.6,176.8,-70,-70.1
249,258,2025-04-29 01:27:14,1745915234,2481,p,4.03,10.6,176.8,-70,-70.1
250,259,2025-04-29 01:27:24,1745915244,2491,p,4.04,10.6,176.8,-70,-70.1
251,260,2025-04-29 01:27:34,1745915254,2501,p,4.03,10.6,176.8,-70,-70.1
252,261,2025-04-29 01:27:44,1745915264,2511,p,4.04,10.6,176.8,-70,-70.1
253,262,2025-04-29 01:27:54,1745915274,2521,p,4.03,10.6,176.8,-70,-70.1
254,263,2025-04-29 01:28:03,1745915283,2530,p,4.02,10.6,176.8,-70,-70.1
255,264,2025-04-29 01:28:13,1745915293,2540,p,4.01,10.6,176.8,-70,-70.1
256,265,2025-04-29 01:28:23,1745915303,2550,p,4.01,10.6,176.8,-70,-70.1
257,266,2025-04-29 01:28:33,1745915313,2560,p,3.99,10.6,176.8,-70,-70.1
258,267,2025-04-29 01:28:43,1745915323,2570,p,3.99,10.6,176.8,-70,-70.1
259,268,2025-04-29 01:28:53,1745915333,2580,p,4,10.6,176.8,-70,-70.1
260,269,2025-04-29 01:29:03,1745915343,2590,p,4.01,10.6,176.8,-70,-70.1
261,270,2025-04-29 01:29:13,1745915353,2600,p,4.02,10.6,176.8,-70,-70.1
262,271,2025-04-29 01:29:23,1745915363,2610,p,4.02,10.6,176.8,-70,-70.1
263,272,2025-04-29 01:29:33,1745915373,2620,p,4,10.6,176.8,-70,-70.1
264,273,2025-04-29 01:29:43,1745915383,2630,p,4,10.6,176.8,-70,-70.1
265,274,2025-04-29 01:29:53,1745915393,2640,p,4,10.6,176.8,-70,-70.1
266,275,2025-04-29 01:30:03,1745915403,2650,p,3.99,10.6,176.8,-70,-70.1
267,276,2025-04-29 01:30:13,1745915413,2660,p,3.99,10.6,176.8,-70,-70.1
268,277,2025-04-29 01:30:23,1745915423,2670,p,4,10.6,176.8,-70,-70.1
269,278,2025-04-29 01:30:33,1745915433,2680,p,3.99,10.6,176.8,-70,-70.1
270,279,2025-04-29 01:30:43,1745915443,2690,p,3.98,10.6,176.8,-70,-70.1
271,280,2025-04-29 01:30:53,1745915453,2700,p,3.98,10.6,176.8,-70,-70.1
272,281,2025-04-29 01:31:03,1745915463,2710,p,3.98,10.6,176.8,-70,-70.1
273,282,2025-04-29 01:31:13,1745915473,2720,p,3.99,10.6,176.8,-70,-70.1
274,283,2025-04-29 01:31:23,1745915483,2730,p,3.99,10.6,176.8,-70,-70.1
275,284,2025-04-29 01:31:33,1745915493,2740,p,4,10.6,176.8,-70,-70.1
276,285,2025-04-29 01:31:42,1745915502,2749,p,3.99,10.6,176.8,-70,-70.1
277,286,2025-04-29 01:31:52,1745915512,2759,p,4,10.6,176.8,-70,-70.1
278,287,2025-04-29 01:32:02,1745915522,2769,p,3.99,10.6,176.8,-70,-70.1
279,288,2025-04-29 01:32:12,1745915532,2779,p,3.99,10.6,176.8,-70,-70.1
280,289,2025-04-29 01:32:22,1745915542,2789,p,3.98,10.6,176.8,-70,-70.1
281,290,2025-04-29 01:32:32,1745915552,2799,p,3.98,10.6,176.8,-70,-70.1
282,291,2025-04-29 01:32:42,1745915562,2809,p,3.98,10.6,176.8,-70,-70.1
283,292,2025-04-29 01:32:52,1745915572,2819,p,3.97,10.6,176.8,-70,-70.1
284,293,2025-04-29 01:33:02,1745915582,2829,p,3.95,10.6,176.8,-70,-70.1
285,294,2025-04-29 01:33:12,1745915592,2839,p,3.95,10.6,176.8,-70,-70.1
286,295,2025-04-29 01:33:22,1745915602,2849,p,3.95,10.6,176.8,-70,-70.1
287,296,2025-04-29 01:33:32,1745915612,2859,p,3.95,10.6,176.8,-70,-70.1
288,297,2025-04-29 01:33:42,1745915622,2869,p,3.96,10.6,176.8,-70,-70.1
289,298,2025-04-29 01:33:52,1745915632,2879,p,3.96,10.6,176.8,-70,-70.1
290,299,2025-04-29 01:34:02,1745915642,2889,p,3.96,10.6,176.8,-70,-70.1
291,300,2025-04-29 01:34:12,1745915652,2899,p,3.95,10.6,176.8,-70,-70.1
292,301,2025-04-29 01:34:22,1745915662,2909,p,3.96,10.6,176.8,-70,-70.1
293,302,2025-04-29 01:34:32,1745915672,2919,p,3.95,10.6,176.8,-70,-70.1
294,303,2025-04-29 01:34:42,1745915682,2929,p,3.95,10.6,176.8,-70,-70.1
295,304,2025-04-29 01:34:52,1745915692,2939,p,3.96,10.6,176.8,-70,-70.1
296,305,2025-04-29 01:35:02,1745915702,2949,p,3.96,10.6,176.8,-70,-70.1
297,306,2025-04-29 01:35:12,1745915712,2959,p,3.95,10.5,176.8,-70,-70.1
298,307,2025-04-29 01:35:21,1745915721,2968,p,3.95,10.5,176.8,-70,-70.1
299,308,2025-04-29 01:35:31,1745915731,2978,p,3.95,10.5,176.8,-70,-70.1
300,309,2025-04-29 01:35:41,1745915741,2988,p,3.94,10.6,176.8,-70,-70.1
301,310,2025-04-29 01:35:51,1745915751,2998,p,3.94,10.6,176.8,-70,-70.1
302,311,2025-04-29 01:36:01,1745915761,3008,p,3.95,10.6,176.8,-70,-70.1
303,312,2025-04-29 01:36:11,1745915771,3018,p,3.96,10.6,176.8,-70,-70.1
304,313,2025-04-29 01:36:21,1745915781,3028,p,3.95,10.6,176.8,-70,-70.1
305,314,2025-04-29 01:36:31,1745915791,3038,p,3.94,10.6,176.8,-70,-70.1
306,315,2025-04-29 01:36:41,1745915801,3048,p,3.93,10.6,176.8,-70,-70.1
307,316,2025-04-29 01:36:51,1745915811,3058,p,3.93,10.5,176.8,-70,-70.1
308,317,2025-04-29 01:37:01,1745915821,3068,p,3.93,10.5,176.8,-70,-70.1
309,318,2025-04-29 01:37:11,1745915831,3078,p,3.93,10.5,176.8,-70,-70.1
310,319,2025-04-29 01:37:21,1745915841,3088,p,3.92,10.5,176.8,-70,-70.1
311,320,2025-04-29 01:37:31,1745915851,3098,p,3.92,10.5,176.8,-70,-70.1
312,321,2025-04-29 01:37:41,1745915861,3108,p,3.93,10.5,176.8,-70,-70.1
313,322,2025-04-29 01:37:51,1745915871,3118,p,3.93,10.5,176.8,-70,-70.1
314,323,2025-04-29 01:38:01,1745915881,3128,p,3.93,10.5,176.8,-70,-70.1
315,324,2025-04-29 01:38:11,1745915891,3138,p,3.94,10.5,176.8,-70,-70.1
316,325,2025-04-29 01:38:21,1745915901,3148,p,3.93,10.5,176.8,-70,-70.1
317,326,2025-04-29 01:38:31,1745915911,3158,p,3.93,10.5,176.8,-70,-70.1
318,327,2025-04-29 01:38:41,1745915921,3168,p,3.92,10.5,176.8,-70,-70.1
319,328,2025-04-29 01:38:51,1745915931,3178,p,3.92,10.5,176.8,-70,-70.1
320,329,2025-04-29 01:39:00,1745915940,3187,p,3.91,10.5,176.8,-70,-70.1
321,330,2025-04-29 01:39:10,1745915950,3197,p,3.91,10.5,176.8,-70,-70.1
322,331,2025-04-29 01:39:20,1745915960,3207,p,3.9,10.5,176.8,-70,-70.1
323,332,2025-04-29 01:39:30,1745915970,3217,p,3.91,10.5,176.8,-70,-70.1
324,333,2025-04-29 01:39:40,1745915980,3227,p,3.91,10.5,176.8,-70,-70.1
325,334,2025-04-29 01:39:50,1745915990,3237,p,3.91,10.5,176.8,-70,-70.1
326,335,2025-04-29 01:40:00,1745916000,3247,p,3.9,10.5,176.8,-70,-70.1
327,336,2025-04-29 01:40:10,1745916010,3257,p,3.9,10.5,176.8,-70,-70.1
328,337,2025-04-29 01:40:20,1745916020,3267,p,3.91,10.5,176.8,-70,-70.1
329,338,2025-04-29 01:40:30,1745916030,3277,p,3.9,10.5,176.8,-70,-70.1
330,339,2025-04-29 01:40:40,1745916040,3287,p,3.89,10.5,176.8,-70,-70.1
331,340,2025-04-29 01:40:50,1745916050,3297,p,3.9,10.5,176.8,-70,-70.1
332,341,2025-04-29 01:41:00,1745916060,3307,p,3.9,10.5,176.8,-70,-70.1
333,342,2025-04-29 01:41:10,1745916070,3317,p,3.89,10.5,176.8,-70,-70.1
334,343,2025-04-29 01:41:20,1745916080,3327,p,3.89,10.5,176.8,-70,-70.1
335,344,2025-04-29 01:41:30,1745916090,3337,p,3.89,10.5,176.8,-70,-70.1
336,345,2025-04-29 01:41:40,1745916100,3347,p,3.88,10.5,176.8,-70,-70.1
337,346,2025-04-29 01:41:50,1745916110,3357,p,3.87,10.5,176.8,-70,-70.1
338,347,2025-04-29 01:42:00,1745916120,3367,p,3.87,10.5,176.8,-70,-70.1
339,348,2025-04-29 01:42:10,1745916130,3377,p,3.87,10.5,176.8,-70,-70.1
340,349,2025-04-29 01:42:20,1745916140,3387,p,3.88,10.5,176.8,-70,-70.1
341,350,2025-04-29 01:42:30,1745916150,3397,p,3.88,10.5,176.8,-70,-70.1
342,351,2025-04-29 01:42:39,1745916159,3406,p,3.88,10.5,176.8,-70,-70.1
343,352,2025-04-29 01:42:49,1745916169,3416,p,3.88,10.5,176.8,-70,-70.1
344,353,2025-04-29 01:42:59,1745916179,3426,p,3.88,10.5,176.8,-70,-70.1
345,354,2025-04-29 01:43:09,1745916189,3436,p,3.88,10.5,176.8,-70,-70.1
346,355,2025-04-29 01:43:19,1745916199,3446,p,3.88,10.5,176.8,-70,-70.1
347,356,2025-04-29 01:43:29,1745916209,3456,p,3.88,10.5,176.8,-70,-70.1
348,357,2025-04-29 01:43:39,1745916219,3466,p,3.87,10.5,176.8,-70,-70.1
349,358,2025-04-29 01:43:49,1745916229,3476,p,3.87,10.5,176.8,-70,-70.1
350,359,2025-04-29 01:43:59,1745916239,3486,p,3.87,10.5,176.8,-70,-70.1
351,360,2025-04-29 01:44:09,1745916249,3496,p,3.86,10.5,176.8,-70,-70.1
352,361,2025-04-29 01:44:19,1745916259,3506,p,3.85,10.5,176.8,-70,-70.1
353,362,2025-04-29 01:44:29,1745916269,3516,p,3.85,10.5,176.8,-70,-70.1
354,363,2025-04-29 01:44:39,1745916279,3526,p,3.84,10.5,176.8,-70,-70.1
355,364,2025-04-29 01:44:49,1745916289,3536,p,3.84,10.5,176.8,-70,-70.1
356,365,2025-04-29 01:44:59,1745916299,3546,p,3.85,10.5,176.8,-70,-70.1
357,366,2025-04-29 01:45:09,1745916309,3556,p,3.85,10.5,176.8,-70,-70.1
358,367,2025-04-29 01:45:19,1745916319,3566,p,3.85,10.5,176.8,-70,-70.1
359,368,2025-04-29 01:45:29,1745916329,3576,p,3.86,10.5,176.8,-70,-70.1
360,369,2025-04-29 01:45:39,1745916339,3586,p,3.86,10.5,176.8,-70,-70.1
361,370,2025-04-29 01:45:49,1745916349,3596,p,3.86,10.5,176.8,-70,-70.1
362,371,2025-04-29 01:45:59,1745916359,3606,p,3.86,10.5,176.8,-70,-70.1
363,372,2025-04-29 01:46:09,1745916369,3616,p,3.85,10.5,176.8,-70,-70.1
364,373,2025-04-29 01:46:18,1745916378,3625,p,3.84,10.5,176.8,-70,-70.1
365,374,2025-04-29 01:46:28,1745916388,3635,p,3.83,10.5,176.8,-70,-70.1
366,375,2025-04-29 01:46:38,1745916398,3645,p,3.83,10.4,176.8,-70,-70.1
367,376,2025-04-29 01:46:48,1745916408,3655,p,3.83,10.4,176.8,-70,-70.1
368,377,2025-04-29 01:46:58,1745916418,3665,p,3.82,10.4,176.8,-70,-70.1
369,378,2025-04-29 01:47:08,1745916428,3675,p,3.82,10.4,176.8,-70,-70.1
370,379,2025-04-29 01:47:18,1745916438,3685,p,3.83,10.4,176.8,-70,-70.1
371,380,2025-04-29 01:47:28,1745916448,3695,p,3.83,10.5,176.8,-70,-70.1
372,381,2025-04-29 01:47:38,1745916458,3705,p,3.84,10.5,176.8,-70,-70.1
373,382,2025-04-29 01:47:48,1745916468,3715,p,3.83,10.5,176.8,-70,-70.1
374,383,2025-04-29 01:47:58,1745916478,3725,p,3.82,10.5,176.8,-70,-70.1
375,384,2025-04-29 01:48:08,1745916488,3735,p,3.81,10.5,176.8,-70,-70.1
376,385,2025-04-29 01:48:18,1745916498,3745,p,3.82,10.5,176.8,-70,-70.1
377,386,2025-04-29 01:48:28,1745916508,3755,p,3.82,10.5,176.8,-70,-70.1
378,387,2025-04-29 01:48:38,1745916518,3765,p,3.82,10.4,176.8,-70,-70.1
379,388,2025-04-29 01:48:48,1745916528,3775,p,3.82,10.4,176.8,-70,-70.1
380,389,2025-04-29 01:48:58,1745916538,3785,p,3.82,10.4,176.8,-70,-70.1
381,390,2025-04-29 01:49:08,1745916548,3795,p,3.82,10.4,176.8,-70,-70.1
382,391,2025-04-29 01:49:18,1745916558,3805,p,3.81,10.4,176.8,-70,-70.1
383,392,2025-04-29 01:49:28,1745916568,3815,p,3.8,10.4,176.8,-70,-70.1
384,393,2025-04-29 01:49:38,1745916578,3825,p,3.8,10.4,176.8,-70,-70.1
385,394,2025-04-29 01:49:47,1745916587,3834,p,3.81,10.4,176.8,-70,-70.1
386,395,2025-04-29 01:49:57,1745916597,3844,p,3.81,10.4,176.8,-70,-70.1
387,396,2025-04-29 01:50:07,1745916607,3854,p,3.8,10.4,176.8,-70,-70.1
388,397,2025-04-29 01:50:17,1745916617,3864,p,3.8,10.4,176.8,-70,-70.1
389,398,2025-04-29 01:50:27,1745916627,3874,p,3.8,10.4,176.8,-70,-70.1
390,399,2025-04-29 01:50:37,1745916637,3884,p,3.8,10.4,176.8,-70,-70.1
391,400,2025-04-29 01:50:47,1745916647,3894,p,3.79,10.4,176.8,-70,-70.1
392,401,2025-04-29 01:50:57,1745916657,3904,p,3.79,10.4,176.8,-70,-70.1
393,402,2025-04-29 01:51:07,1745916667,3914,p,3.79,10.4,176.8,-70,-70.1
394,403,2025-04-29 01:51:17,1745916677,3924,p,3.78,10.4,176.8,-70,-70.1
395,404,2025-04-29 01:51:27,1745916687,3934,p,3.8,10.4,176.8,-70,-70.1
396,405,2025-04-29 01:51:37,1745916697,3944,p,3.8,10.4,176.8,-70,-70.1
397,406,2025-04-29 01:51:47,1745916707,3954,p,3.8,10.4,176.8,-70,-70.1
398,407,2025-04-29 01:51:57,1745916717,3964,p,3.79,10.4,176.8,-70,-70.1
399,408,2025-04-29 01:52:07,1745916727,3974,p,3.78,10.4,176.8,-70,-70.1
400,409,2025-04-29 01:52:17,1745916737,3984,p,3.78,10.4,176.8,-70,-70.1
401,410,2025-04-29 01:52:27,1745916747,3994,p,3.78,10.4,176.8,-70,-70.1
402,411,2025-04-29 01:52:37,1745916757,4004,p,3.77,10.4,176.8,-70,-70.1
403,412,2025-04-29 01:52:47,1745916767,4014,p,3.78,10.4,176.8,-70,-70.1
404,413,2025-04-29 01:52:57,1745916777,4024,p,3.78,10.4,176.8,-70,-70.1
405,414,2025-04-29 01:53:07,1745916787,4034,p,3.77,10.4,176.8,-70,-70.1
406,415,2025-04-29 01:53:17,1745916797,4044,p,3.77,10.4,176.8,-70,-70.1
407,416,2025-04-29 01:53:26,1745916806,4053,p,3.78,10.4,176.8,-70,-70.1
408,417,2025-04-29 01:53:36,1745916816,4063,p,3.77,10.4,176.8,-70,-70.1
409,418,2025-04-29 01:53:46,1745916826,4073,p,3.77,10.4,176.8,-70,-70.1
410,419,2025-04-29 01:53:56,1745916836,4083,p,3.77,10.4,176.8,-70,-70.1
411,420,2025-04-29 01:54:06,1745916846,4093,p,3.76,10.4,176.8,-70,-70.1
412,421,2025-04-29 01:54:16,1745916856,4103,p,3.76,10.4,176.8,-70,-70.1
413,422,2025-04-29 01:54:26,1745916866,4113,p,3.75,10.4,176.8,-70,-70.1
414,423,2025-04-29 01:54:36,1745916876,4123,p,3.75,10.4,176.8,-70,-70.1
415,424,2025-04-29 01:54:46,1745916886,4133,p,3.75,10.4,176.8,-70,-70.1
416,425,2025-04-29 01:54:56,1745916896,4143,p,3.75,10.4,176.8,-70,-70.1
417,426,2025-04-29 01:55:06,1745916906,4153,p,3.75,10.4,176.8,-70,-70.1
418,427,2025-04-29 01:55:16,1745916916,4163,p,3.74,10.4,176.8,-70,-70.1
419,428,2025-04-29 01:55:26,1745916926,4173,p,3.74,10.4,176.8,-70,-70.1
420,429,2025-04-29 01:55:36,1745916936,4183,p,3.75,10.4,176.8,-70,-70.1
421,430,2025-04-29 01:55:46,1745916946,4193,p,3.75,10.4,176.8,-70,-70.1
422,431,2025-04-29 01:55:56,1745916956,4203,p,3.75,10.4,176.8,-70,-70.1
423,432,2025-04-29 01:56:06,1745916966,4213,p,3.76,10.4,176.8,-70,-70.1
424,433,2025-04-29 01:56:16,1745916976,4223,p,3.75,10.4,176.8,-70,-70.1
425,434,2025-04-29 01:56:26,1745916986,4233,p,3.75,10.4,176.8,-70,-70.1
426,435,2025-04-29 01:56:36,1745916996,4243,p,3.74,10.4,176.8,-70,-70.1
427,436,2025-04-29 01:56:46,1745917006,4253,p,3.74,10.4,176.8,-70,-70.1
428,437,2025-04-29 01:56:55,1745917015,4262,p,3.74,10.4,176.8,-70,-70.1
429,438,2025-04-29 01:57:05,1745917025,4272,p,3.73,10.4,176.8,-70,-70.1
430,439,2025-04-29 01:57:15,1745917035,4282,p,3.73,10.4,176.8,-70,-70.1
431,440,2025-04-29 01:57:25,1745917045,4292,p,3.73,10.4,176.8,-70,-70.1
432,441,2025-04-29 01:57:35,1745917055,4302,p,3.73,10.4,176.8,-70,-70.1
433,442,2025-04-29 01:57:45,1745917065,4312,p,3.74,10.4,176.8,-70,-70.1
434,443,2025-04-29 01:57:55,1745917075,4322,p,3.73,10.4,176.8,-70,-70.1
435,444,2025-04-29 01:58:05,1745917085,4332,p,3.73,10.4,176.8,-70,-70.1
436,445,2025-04-29 01:58:15,1745917095,4342,p,3.74,10.4,176.8,-70,-70.1
437,446,2025-04-29 01:58:25,1745917105,4352,p,3.73,10.4,176.8,-70,-70.1
438,447,2025-04-29 01:58:35,1745917115,4362,p,3.73,10.4,176.8,-70,-70.1
439,448,2025-04-29 01:58:45,1745917125,4372,p,3.73,10.4,176.8,-70,-70.1
440,449,2025-04-29 01:58:55,1745917135,4382,p,3.72,10.4,176.8,-70,-70.1
441,450,2025-04-29 01:59:05,1745917145,4392,p,3.72,10.4,176.8,-70,-70.1
442,451,2025-04-29 01:59:15,1745917155,4402,p,3.72,10.4,176.8,-70,-70.1
443,452,2025-04-29 01:59:25,1745917165,4412,p,3.72,10.4,176.8,-70,-70.1
444,453,2025-04-29 01:59:35,1745917175,4422,p,3.72,10.4,176.8,-70,-70.1
445,454,2025-04-29 01:59:45,1745917185,4432,p,3.72,10.4,176.8,-70,-70.1
446,455,2025-04-29 01:59:55,1745917195,4442,p,3.72,10.4,176.8,-70,-70.1
447,456,2025-04-29 02:00:05,1745917205,4452,p,3.73,10.4,176.8,-70,-70.1
448,457,2025-04-29 02:00:15,1745917215,4462,p,3.72,10.4,176.8,-70,-70.1
449,458,2025-04-29 02:00:24,1745917224,4471,p,3.71,10.4,176.8,-70,-70.1
450,459,2025-04-29 02:00:34,1745917234,4481,p,3.71,10.4,176.8,-70,-70.1
451,460,2025-04-29 02:00:44,1745917244,4491,p,3.72,10.4,176.8,-70,-70.1
452,461,2025-04-29 02:00:54,1745917254,4501,p,3.72,10.4,176.8,-70,-70.1
453,462,2025-04-29 02:01:04,1745917264,4511,p,3.72,10.4,176.8,-70,-70.1
454,463,2025-04-29 02:01:14,1745917274,4521,p,3.72,10.4,176.8,-70,-70.1
455,464,2025-04-29 02:01:24,1745917284,4531,p,3.71,10.4,176.8,-70,-70.1
456,465,2025-04-29 02:01:34,1745917294,4541,p,3.71,10.4,176.8,-70,-70.1
457,466,2025-04-29 02:01:44,1745917304,4551,p,3.7,10.4,176.8,-70,-70.1
458,467,2025-04-29 02:01:54,1745917314,4561,p,3.7,10.4,176.8,-70,-70.1
459,468,2025-04-29 02:02:04,1745917324,4571,p,3.71,10.4,176.8,-70,-70.1
460,469,2025-04-29 02:02:14,1745917334,4581,p,3.71,10.4,176.8,-70,-70.1
461,470,2025-04-29 02:02:24,1745917344,4591,p,3.7,10.4,176.8,-70,-70.1
462,471,2025-04-29 02:02:34,1745917354,4601,p,3.7,10.4,176.8,-70,-70.1
463,472,2025-04-29 02:02:44,1745917364,4611,p,3.7,10.4,176.8,-70,-70.1
464,473,2025-04-29 02:02:54,1745917374,4621,p,3.7,10.4,176.8,-70,-70.1
465,474,2025-04-29 02:03:04,1745917384,4631,p,3.7,10.4,176.8,-70,-70.1
466,475,2025-04-29 02:03:14,1745917394,4641,p,3.69,10.4,176.8,-70,-70.1
467,476,2025-04-29 02:03:24,1745917404,4651,p,3.69,10.4,176.8,-70,-70.1
468,477,2025-04-29 02:03:34,1745917414,4661,p,3.68,10.4,176.8,-70,-70.1
469,478,2025-04-29 02:03:44,1745917424,4671,p,3.68,10.4,176.8,-70,-70.1
470,479,2025-04-29 02:03:54,1745917434,4681,p,3.67,10.4,176.8,-70,-70.1
471,480,2025-04-29 02:04:03,1745917443,4690,p,3.68,10.4,176.8,-70,-70.1
472,481,2025-04-29 02:04:13,1745917453,4700,p,3.69,10.4,176.8,-70,-70.1
473,482,2025-04-29 02:04:23,1745917463,4710,p,3.69,10.4,176.8,-70,-70.1
474,483,2025-04-29 02:04:33,1745917473,4720,p,3.69,10.4,176.8,-70,-70.1
475,484,2025-04-29 02:04:43,1745917483,4730,p,3.7,10.4,176.8,-70,-70.1
476,485,2025-04-29 02:04:53,1745917493,4740,p,3.69,10.4,176.8,-70,-70.1
477,486,2025-04-29 02:05:03,1745917503,4750,p,3.69,10.4,176.8,-70,-70.1
478,487,2025-04-29 02:05:13,1745917513,4760,p,3.68,10.4,176.8,-70,-70.1
479,488,2025-04-29 02:05:23,1745917523,4770,p,3.68,10.4,176.8,-70,-70.1
480,489,2025-04-29 02:05:33,1745917533,4780,p,3.66,10.4,176.8,-70,-70.1
481,490,2025-04-29 02:05:43,1745917543,4790,p,3.65,10.4,176.8,-70,-70.1
482,491,2025-04-29 02:05:53,1745917553,4800,p,3.65,10.4,176.8,-70,-70.1
483,492,2025-04-29 02:06:03,1745917563,4810,p,3.65,10.4,176.8,-70,-70.1
484,493,2025-04-29 02:06:13,1745917573,4820,p,3.65,10.4,176.8,-70,-70.1
485,494,2025-04-29 02:06:23,1745917583,4830,p,3.65,10.4,176.8,-70,-70.1
486,495,2025-04-29 02:06:33,1745917593,4840,p,3.65,10.4,176.8,-70,-70.1
487,496,2025-04-29 02:06:43,1745917603,4850,p,3.65,10.4,176.8,-70,-70.1
488,497,2025-04-29 02:06:53,1745917613,4860,p,3.65,10.4,176.8,-70,-70.1
489,498,2025-04-29 02:07:03,1745917623,4870,p,3.66,10.4,176.8,-70,-70.1
490,499,2025-04-29 02:07:13,1745917633,4880,p,3.66,10.4,176.8,-70,-70.1
491,500,2025-04-29 02:07:23,1745917643,4890,p,3.66,10.4,176.8,-70,-70.1
492,501,2025-04-29 02:07:33,1745917653,4900,p,3.65,10.4,176.8,-70,-70.1
493,502,2025-04-29 02:07:42,1745917662,4909,p,3.64,10.4,176.8,-70,-70.1
494,503,2025-04-29 02:07:52,1745917672,4919,p,3.65,10.4,176.8,-70,-70.1
495,504,2025-04-29 02:08:02,1745917682,4929,p,3.67,10.4,176.8,-70,-70.1
496,505,2025-04-29 02:08:12,1745917692,4939,p,3.66,10.4,176.8,-70,-70.1
497,506,2025-04-29 02:08:22,1745917702,4949,p,3.66,10.4,176.8,-70,-70.1
498,507,2025-04-29 02:08:32,1745917712,4959,p,3.66,10.4,176.8,-70,-70.1
499,508,2025-04-29 02:08:42,1745917722,4969,p,3.65,10.4,176.8,-70,-70.1
500,509,2025-04-29 02:08:52,1745917732,4979,p,3.64,10.4,176.8,-70,-70.1
501,510,2025-04-29 02:09:02,1745917742,4989,p,3.63,10.4,176.8,-70,-70.1
502,511,2025-04-29 02:09:12,1745917752,4999,p,3.63,10.4,176.8,-70,-70.1
503,512,2025-04-29 02:09:22,1745917762,5009,p,3.62,10.4,176.8,-70,-70.1
504,513,2025-04-29 02:09:32,1745917772,5019,p,3.63,10.4,176.8,-70,-70.1
505,514,2025-04-29 02:09:42,1745917782,5029,p,3.63,10.3,176.8,-70,-70.1
506,515,2025-04-29 02:09:52,1745917792,5039,p,3.64,10.4,176.8,-70,-70.1
507,516,2025-04-29 02:10:02,1745917802,5049,p,3.65,10.4,176.8,-70,-70.1
508,517,2025-04-29 02:10:12,1745917812,5059,p,3.65,10.4,176.8,-70,-70.1
509,518,2025-04-29 02:10:22,1745917822,5069,p,3.65,10.4,176.8,-70,-70.1
510,519,2025-04-29 02:10:32,1745917832,5079,p,3.65,10.4,176.8,-70,-70.1
511,520,2025-04-29 02:10:42,1745917842,5089,p,3.64,10.4,176.8,-70,-70.1
512,521,2025-04-29 02:10:52,1745917852,5099,p,3.63,10.4,176.8,-70,-70.1
513,522,2025-04-29 02:11:02,1745917862,5109,p,3.63,10.4,176.8,-70,-70.1
514,523,2025-04-29 02:11:12,1745917872,5119,p,3.62,10.4,176.8,-70,-70.1
515,524,2025-04-29 02:11:21,1745917881,5128,p,3.62,10.4,176.8,-70,-70.1
516,525,2025-04-29 02:11:31,1745917891,5138,p,3.63,10.4,176.8,-70,-70.1
517,526,2025-04-29 02:11:41,1745917901,5148,p,3.62,10.4,176.8,-70,-70.1
518,527,2025-04-29 02:11:51,1745917911,5158,p,3.62,10.4,176.8,-70,-70.1
519,528,2025-04-29 02:12:01,1745917921,5168,p,3.61,10.4,176.8,-70,-70.1
520,529,2025-04-29 02:12:11,1745917931,5178,p,3.61,10.4,176.8,-70,-70.1
521,530,2025-04-29 02:12:21,1745917941,5188,p,3.61,10.4,176.8,-70,-70.1
522,531,2025-04-29 02:12:31,1745917951,5198,p,3.61,10.4,176.8,-70,-70.1
523,532,2025-04-29 02:12:41,1745917961,5208,p,3.61,10.4,176.8,-70,-70.1
524,533,2025-04-29 02:12:51,1745917971,5218,p,3.61,10.4,176.8,-70,-70.1
525,534,2025-04-29 02:13:01,1745917981,5228,p,3.62,10.4,176.8,-70,-70.1
526,535,2025-04-29 02:13:11,1745917991,5238,p,3.62,10.4,176.8,-70,-70.1
527,536,2025-04-29 02:13:21,1745918001,5248,p,3.61,10.4,176.8,-70,-70.1
528,537,2025-04-29 02:13:31,1745918011,5258,p,3.61,10.4,176.8,-70,-70.1
529,538,2025-04-29 02:13:41,1745918021,5268,p,3.6,10.4,176.8,-70,-70.1
530,539,2025-04-29 02:13:51,1745918031,5278,p,3.6,10.4,176.8,-70,-70.1
531,540,2025-04-29 02:14:01,1745918041,5288,p,3.6,10.4,176.8,-70,-70.1
532,541,2025-04-29 02:14:11,1745918051,5298,p,3.6,10.4,176.8,-70,-70.1
533,542,2025-04-29 02:14:21,1745918061,5308,p,3.59,10.4,176.8,-70,-70.1
534,543,2025-04-29 02:14:31,1745918071,5318,p,3.59,10.4,176.8,-70,-70.1
535,544,2025-04-29 02:14:41,1745918081,5328,p,3.6,10.4,176.8,-70,-70.1
536,545,2025-04-29 02:14:50,1745918090,5337,p,3.59,10.4,176.8,-70,-70.1
537,546,2025-04-29 02:15:00,1745918100,5347,p,3.59,10.4,176.8,-70,-70.1
538,547,2025-04-29 02:15:10,1745918110,5357,p,3.59,10.4,176.8,-70,-70.1
539,548,2025-04-29 02:15:20,1745918120,5367,p,3.58,10.4,176.8,-70,-70.1
540,549,2025-04-29 02:15:30,1745918130,5377,p,3.59,10.3,176.8,-70,-70.1
541,550,2025-04-29 02:15:40,1745918140,5387,p,3.6,10.4,176.8,-70,-70.1
542,551,2025-04-29 02:15:50,1745918150,5397,p,3.59,10.4,176.8,-70,-70.1
543,552,2025-04-29 02:16:00,1745918160,5407,p,3.58,10.4,176.8,-70,-70.1
544,553,2025-04-29 02:16:10,1745918170,5417,p,3.58,10.3,176.8,-70,-70.1
545,554,2025-04-29 02:16:20,1745918180,5427,p,3.57,10.3,176.8,-70,-70.1
546,555,2025-04-29 02:16:30,1745918190,5437,p,3.58,10.3,176.8,-70,-70.1
547,556,2025-04-29 02:16:40,1745918200,5447,p,3.58,10.3,176.8,-70,-70.1
548,557,2025-04-29 02:16:50,1745918210,5457,p,3.58,10.4,176.8,-70,-70.1
549,558,2025-04-29 02:17:00,1745918220,5467,p,3.58,10.4,176.8,-70,-70.1
550,559,2025-04-29 02:17:10,1745918230,5477,p,3.58,10.4,176.8,-70,-70.1
551,560,2025-04-29 02:17:20,1745918240,5487,p,3.57,10.4,176.8,-70,-70.1
552,561,2025-04-29 02:17:30,1745918250,5497,p,3.58,10.4,176.8,-70,-70.1
553,562,2025-04-29 02:17:40,1745918260,5507,p,3.58,10.4,176.8,-70,-70.1
554,563,2025-04-29 02:17:50,1745918270,5517,p,3.57,10.4,176.8,-70,-70.1
555,564,2025-04-29 02:18:00,1745918280,5527,p,3.57,10.4,176.8,-70,-70.1
556,565,2025-04-29 02:18:10,1745918290,5537,p,3.56,10.4,176.8,-70,-70.1
557,566,2025-04-29 02:18:20,1745918300,5547,p,3.56,10.4,176.8,-70,-70.1
558,567,2025-04-29 02:18:29,1745918309,5556,p,3.56,10.3,176.8,-70,-70.1
559,568,2025-04-29 02:18:39,1745918319,5566,p,3.55,10.3,176.8,-70,-70.1
560,569,2025-04-29 02:18:49,1745918329,5576,p,3.54,10.3,176.8,-70,-70.1
561,570,2025-04-29 02:18:59,1745918339,5586,p,3.54,10.3,176.8,-70,-70.1
562,571,2025-04-29 02:19:09,1745918349,5596,p,3.53,10.3,176.8,-70,-70.1
563,572,2025-04-29 02:19:19,1745918359,5606,p,3.55,10.3,176.8,-70,-70.1
564,573,2025-04-29 02:19:29,1745918369,5616,p,3.56,10.3,176.8,-70,-70.1
565,574,2025-04-29 02:19:39,1745918379,5626,p,3.56,10.3,176.8,-70,-70.1
566,575,2025-04-29 02:19:49,1745918389,5636,p,3.55,10.3,176.8,-70,-70.1
567,576,2025-04-29 02:19:59,1745918399,5646,p,3.56,10.3,176.8,-70,-70.1
568,577,2025-04-29 02:20:09,1745918409,5656,p,3.56,10.4,176.8,-70,-70.1
569,578,2025-04-29 02:20:19,1745918419,5666,p,3.56,10.4,176.8,-70,-70.1
570,579,2025-04-29 02:20:29,1745918429,5676,p,3.56,10.4,176.8,-70,-70.1
571,580,2025-04-29 02:20:39,1745918439,5686,p,3.55,10.4,176.8,-70,-70.1
572,581,2025-04-29 02:20:49,1745918449,5696,p,3.55,10.4,176.8,-70,-70.1
573,582,2025-04-29 02:20:59,1745918459,5706,p,3.54,10.4,176.8,-70,-70.1
574,583,2025-04-29 02:21:09,1745918469,5716,p,3.54,10.4,176.8,-70,-70.1
575,584,2025-04-29 02:21:19,1745918479,5726,p,3.53,10.3,176.8,-70,-70.1
576,585,2025-04-29 02:21:29,1745918489,5736,p,3.52,10.3,176.8,-70,-70.1
577,586,2025-04-29 02:21:39,1745918499,5746,p,3.52,10.3,176.8,-70,-70.1
578,587,2025-04-29 02:21:49,1745918509,5756,p,3.52,10.3,176.8,-70,-70.1
579,588,2025-04-29 02:21:58,1745918518,5765,p,3.53,10.3,176.8,-70,-70.1
580,589,2025-04-29 02:22:08,1745918528,5775,p,3.53,10.3,176.8,-70,-70.1
581,590,2025-04-29 02:22:18,1745918538,5785,p,3.54,10.3,176.8,-70,-70.1
582,591,2025-04-29 02:22:28,1745918548,5795,p,3.55,10.3,176.8,-70,-70.1
583,592,2025-04-29 02:22:38,1745918558,5805,p,3.54,10.4,176.8,-70,-70.1
584,593,2025-04-29 02:22:48,1745918568,5815,p,3.54,10.4,176.8,-70,-70.1
585,594,2025-04-29 02:22:58,1745918578,5825,p,3.54,10.4,176.8,-70,-70.1
586,595,2025-04-29 02:23:08,1745918588,5835,p,3.53,10.4,176.8,-70,-70.1
587,596,2025-04-29 02:23:18,1745918598,5845,p,3.54,10.4,176.8,-70,-70.1
588,597,2025-04-29 02:23:28,1745918608,5855,p,3.52,10.3,176.8,-70,-70.1
589,598,2025-04-29 02:23:38,1745918618,5865,p,3.52,10.3,176.8,-70,-70.1
590,599,2025-04-29 02:23:48,1745918628,5875,p,3.51,10.3,176.8,-70,-70.1
591,600,2025-04-29 02:23:58,1745918638,5885,p,3.5,10.3,176.8,-70,-70.1
592,601,2025-04-29 02:24:08,1745918648,5895,p,3.51,10.3,176.8,-70,-70.1
593,602,2025-04-29 02:24:18,1745918658,5905,p,3.52,10.3,176.8,-70,-70.1
594,603,2025-04-29 02:24:28,1745918668,5915,p,3.52,10.3,176.8,-70,-70.1
595,604,2025-04-29 02:24:38,1745918678,5925,p,3.52,10.3,176.8,-70,-70.1
596,605,2025-04-29 02:24:48,1745918688,5935,p,3.52,10.3,176.8,-70,-70.1
597,606,2025-04-29 02:24:58,1745918698,5945,p,3.52,10.3,176.8,-70,-70.1
598,607,2025-04-29 02:25:08,1745918708,5955,p,3.52,10.3,176.8,-70,-70.1
599,608,2025-04-29 02:25:18,1745918718,5965,p,3.52,10.4,176.8,-70,-70.1
600,609,2025-04-29 02:25:28,1745918728,5975,p,3.51,10.4,176.8,-70,-70.1
601,610,2025-04-29 02:25:37,1745918737,5984,p,3.51,10.3,176.8,-70,-70.1
602,611,2025-04-29 02:25:47,1745918747,5994,p,3.5,10.3,176.8,-70,-70.1
603,612,2025-04-29 02:25:57,1745918757,6004,p,3.5,10.3,176.8,-70,-70.1
604,613,2025-04-29 02:26:07,1745918767,6014,p,3.5,10.3,176.8,-70,-70.1
605,614,2025-04-29 02:26:17,1745918777,6024,p,3.49,10.3,176.8,-70,-70.1
606,615,2025-04-29 02:26:27,1745918787,6034,p,3.5,10.3,176.8,-70,-70.1
607,616,2025-04-29 02:26:37,1745918797,6044,p,3.51,10.3,176.8,-70,-70.1
608,617,2025-04-29 02:26:47,1745918807,6054,p,3.51,10.3,176.8,-70,-70.1
609,618,2025-04-29 02:26:57,1745918817,6064,p,3.5,10.3,176.8,-70,-70.1
610,619,2025-04-29 02:27:07,1745918827,6074,p,3.51,10.3,176.8,-70,-70.1
611,620,2025-04-29 02:27:17,1745918837,6084,p,3.51,10.3,176.8,-70,-70.1
612,621,2025-04-29 02:27:27,1745918847,6094,p,3.5,10.3,176.8,-70,-70.1
613,622,2025-04-29 02:27:37,1745918857,6104,p,3.49,10.3,176.8,-70,-70.1
614,623,2025-04-29 02:27:47,1745918867,6114,p,3.49,10.3,176.8,-70,-70.1
615,624,2025-04-29 02:27:57,1745918877,6124,p,3.49,10.3,176.8,-70,-70.1
616,625,2025-04-29 02:28:07,1745918887,6134,p,3.48,10.3,176.8,-70,-70.1
617,626,2025-04-29 02:28:17,1745918897,6144,p,3.48,10.3,176.8,-70,-70.1
618,627,2025-04-29 02:28:27,1745918907,6154,p,3.49,10.3,176.8,-70,-70.1
619,628,2025-04-29 02:28:37,1745918917,6164,p,3.48,10.3,176.8,-70,-70.1
620,629,2025-04-29 02:28:47,1745918927,6174,p,3.49,10.3,176.8,-70,-70.1
621,630,2025-04-29 02:28:57,1745918937,6184,p,3.49,10.3,176.8,-70,-70.1
622,631,2025-04-29 02:29:07,1745918947,6194,p,3.49,10.3,176.8,-70,-70.1
623,632,2025-04-29 02:29:16,1745918956,6203,p,3.49,10.3,176.8,-70,-70.1
624,633,2025-04-29 02:29:26,1745918966,6213,p,3.49,10.3,176.8,-70,-70.1
625,634,2025-04-29 02:29:36,1745918976,6223,p,3.49,10.3,176.8,-70,-70.1
626,635,2025-04-29 02:29:46,1745918986,6233,p,3.48,10.3,176.8,-70,-70.1
627,636,2025-04-29 02:29:56,1745918996,6243,p,3.48,10.3,176.8,-70,-70.1
628,637,2025-04-29 02:30:06,1745919006,6253,p,3.48,10.3,176.8,-70,-70.1
629,638,2025-04-29 02:30:16,1745919016,6263,p,3.48,10.3,176.8,-70,-70.1
630,639,2025-04-29 02:30:26,1745919026,6273,p,3.47,10.3,176.8,-70,-70.1
631,640,2025-04-29 02:30:36,1745919036,6283,p,3.47,10.3,176.8,-70,-70.1
632,641,2025-04-29 02:30:46,1745919046,6293,p,3.48,10.3,176.8,-70,-70.1
633,642,2025-04-29 02:30:56,1745919056,6303,p,3.47,10.3,176.8,-70,-70.1
634,643,2025-04-29 02:31:06,1745919066,6313,p,3.48,10.3,176.8,-70,-70.1
635,644,2025-04-29 02:31:16,1745919076,6323,p,3.48,10.3,176.8,-70,-70.1
636,645,2025-04-29 02:31:26,1745919086,6333,p,3.48,10.3,176.8,-70,-70.1
637,646,2025-04-29 02:31:36,1745919096,6343,p,3.47,10.3,176.8,-70,-70.1
638,647,2025-04-29 02:31:46,1745919106,6353,p,3.47,10.3,176.8,-70,-70.1
639,648,2025-04-29 02:31:56,1745919116,6363,p,3.47,10.3,176.8,-70,-70.1
640,649,2025-04-29 02:32:06,1745919126,6373,p,3.47,10.3,176.8,-70,-70.1
641,650,2025-04-29 02:32:16,1745919136,6383,p,3.47,10.3,176.8,-70,-70.1
642,651,2025-04-29 02:32:26,1745919146,6393,p,3.47,10.3,176.8,-70,-70.1
643,652,2025-04-29 02:32:36,1745919156,6403,p,3.46,10.3,176.8,-70,-70.1
644,653,2025-04-29 02:32:46,1745919166,6413,p,3.46,10.3,176.8,-70,-70.1
645,654,2025-04-29 02:32:55,1745919175,6422,p,3.47,10.3,176.8,-70,-70.1
646,655,2025-04-29 02:33:05,1745919185,6432,p,3.47,10.3,176.8,-70,-70.1
647,656,2025-04-29 02:33:15,1745919195,6442,p,3.46,10.3,176.8,-70,-70.1
648,657,2025-04-29 02:33:25,1745919205,6452,p,3.46,10.3,176.8,-70,-70.1
649,658,2025-04-29 02:33:35,1745919215,6462,p,3.45,10.3,176.8,-70,-70.1
650,659,2025-04-29 02:33:45,1745919225,6472,p,3.45,10.3,176.8,-70,-70.1
651,660,2025-04-29 02:33:55,1745919235,6482,p,3.46,10.3,176.8,-70,-70.1
652,661,2025-04-29 02:34:05,1745919245,6492,p,3.45,10.3,176.8,-70,-70.1
653,662,2025-04-29 02:34:15,1745919255,6502,p,3.45,10.3,176.8,-70,-70.1
654,663,2025-04-29 02:34:25,1745919265,6512,p,3.45,10.3,176.8,-70,-70.1
655,664,2025-04-29 02:34:35,1745919275,6522,p,3.45,10.3,176.8,-70,-70.1
656,665,2025-04-29 02:34:45,1745919285,6532,p,3.45,10.3,176.8,-70,-70.1
657,666,2025-04-29 02:34:55,1745919295,6542,p,3.44,10.3,176.8,-70,-70.1
658,667,2025-04-29 02:35:05,1745919305,6552,p,3.44,10.3,176.8,-70,-70.1
659,668,2025-04-29 02:35:15,1745919315,6562,p,3.45,10.3,176.8,-70,-70.1
660,669,2025-04-29 02:35:25,1745919325,6572,p,3.44,10.3,176.8,-70,-70.1
661,670,2025-04-29 02:35:35,1745919335,6582,p,3.45,10.3,176.8,-70,-70.1
662,671,2025-04-29 02:35:45,1745919345,6592,p,3.44,10.3,176.8,-70,-70.1
663,672,2025-04-29 02:35:55,1745919355,6602,p,3.43,10.3,176.8,-70,-70.1
664,673,2025-04-29 02:36:05,1745919365,6612,p,3.44,10.3,176.8,-70,-70.1
665,674,2025-04-29 02:36:15,1745919375,6622,p,3.44,10.3,176.8,-70,-70.1
666,675,2025-04-29 02:36:25,1745919385,6632,p,3.44,10.3,176.8,-70,-70.1
667,676,2025-04-29 02:36:34,1745919394,6641,p,3.43,10.3,176.8,-70,-70.1
668,677,2025-04-29 02:36:44,1745919404,6651,p,3.42,10.3,176.8,-70,-70.1
669,678,2025-04-29 02:36:54,1745919414,6661,p,3.42,10.3,176.8,-70,-70.1
670,679,2025-04-29 02:37:04,1745919424,6671,p,3.43,10.3,176.8,-70,-70.1
671,680,2025-04-29 02:37:14,1745919434,6681,p,3.44,10.3,176.8,-70,-70.1
672,681,2025-04-29 02:37:24,1745919444,6691,p,3.43,10.3,176.8,-70,-70.1
673,682,2025-04-29 02:37:34,1745919454,6701,p,3.43,10.3,176.8,-70,-70.1
674,683,2025-04-29 02:37:44,1745919464,6711,p,3.43,10.3,176.8,-70,-70.1
675,684,2025-04-29 02:37:54,1745919474,6721,p,3.42,10.3,176.8,-70,-70.1
676,685,2025-04-29 02:38:04,1745919484,6731,p,3.42,10.3,176.8,-70,-70.1
677,686,2025-04-29 02:38:14,1745919494,6741,p,3.42,10.3,176.8,-70,-70.1
678,687,2025-04-29 02:38:24,1745919504,6751,p,3.43,10.3,176.8,-70,-70.1
679,688,2025-04-29 02:38:34,1745919514,6761,p,3.41,10.3,176.8,-70,-70.1
680,689,2025-04-29 02:38:44,1745919524,6771,p,3.41,10.3,176.8,-70,-70.1
681,690,2025-04-29 02:38:54,1745919534,6781,p,3.41,10.3,176.8,-70,-70.1
682,691,2025-04-29 02:39:04,1745919544,6791,p,3.42,10.3,176.8,-70,-70.1
683,692,2025-04-29 02:39:14,1745919554,6801,p,3.41,10.3,176.8,-70,-70.1
684,693,2025-04-29 02:39:24,1745919564,6811,p,3.41,10.3,176.8,-70,-70.1
685,694,2025-04-29 02:39:34,1745919574,6821,p,3.4,10.3,176.8,-70,-70.1
686,695,2025-04-29 02:39:44,1745919584,6831,p,3.39,10.3,176.8,-70,-70.1
687,696,2025-04-29 02:39:54,1745919594,6841,p,3.39,10.3,176.8,-70,-70.1
688,697,2025-04-29 02:40:04,1745919604,6851,p,3.39,10.3,176.8,-70,-70.1
689,698,2025-04-29 02:40:13,1745919613,6860,p,3.4,10.3,176.8,-70,-70.1
690,699,2025-04-29 02:40:23,1745919623,6870,p,3.41,10.3,176.8,-70,-70.1
691,700,2025-04-29 02:40:33,1745919633,6880,p,3.41,10.3,176.8,-70,-70.1
692,701,2025-04-29 02:40:43,1745919643,6890,p,3.42,10.3,176.8,-70,-70.1
693,702,2025-04-29 02:40:53,1745919653,6900,p,3.41,10.3,176.8,-70,-70.1
694,703,2025-04-29 02:41:03,1745919663,6910,p,3.41,10.3,176.8,-70,-70.1
695,704,2025-04-29 02:41:13,1745919673,6920,p,3.4,10.3,176.8,-70,-70.1
696,705,2025-04-29 02:41:23,1745919683,6930,p,3.4,10.3,176.8,-70,-70.1
697,706,2025-04-29 02:41:33,1745919693,6940,p,3.39,10.3,176.8,-70,-70.1
698,707,2025-04-29 02:41:43,1745919703,6950,p,3.39,10.3,176.8,-70,-70.1
699,708,2025-04-29 02:41:53,1745919713,6960,p,3.38,10.3,176.8,-70,-70.1
700,709,2025-04-29 02:42:03,1745919723,6970,p,3.36,10.3,176.8,-70,-70.1
701,710,2025-04-29 02:42:13,1745919733,6980,p,3.36,10.3,176.8,-70,-70.1
702,711,2025-04-29 02:42:23,1745919743,6990,p,3.36,10.3,176.8,-70,-70.1
703,712,2025-04-29 02:42:33,1745919753,7000,p,3.37,10.3,176.8,-70,-70.1
704,713,2025-04-29 02:42:43,1745919763,7010,p,3.38,10.3,176.8,-70,-70.1
705,714,2025-04-29 02:42:53,1745919773,7020,p,3.37,10.3,176.8,-70,-70.1
706,715,2025-04-29 02:43:03,1745919783,7030,p,3.37,10.3,176.8,-70,-70.1
707,716,2025-04-29 02:43:13,1745919793,7040,p,3.38,10.3,176.8,-70,-70.1
708,717,2025-04-29 02:43:23,1745919803,7050,p,3.39,10.3,176.8,-70,-70.1
709,718,2025-04-29 02:43:33,1745919813,7060,p,3.39,10.3,176.8,-70,-70.1
710,719,2025-04-29 02:43:42,1745919822,7069,p,3.39,10.3,176.8,-70,-70.1
711,720,2025-04-29 02:43:52,1745919832,7079,p,3.4,10.3,176.8,-70,-70.1
712,721,2025-04-29 02:44:02,1745919842,7089,p,3.4,10.3,176.8,-70,-70.1
713,722,2025-04-29 02:44:12,1745919852,7099,p,3.39,10.3,176.8,-70,-70.1
714,723,2025-04-29 02:44:22,1745919862,7109,p,3.39,10.3,176.8,-70,-70.1
715,724,2025-04-29 02:44:32,1745919872,7119,p,3.38,10.3,176.8,-70,-70.1
716,725,2025-04-29 02:44:42,1745919882,7129,p,3.38,10.3,176.8,-70,-70.1
717,726,2025-04-29 02:44:52,1745919892,7139,p,3.37,10.3,176.8,-70,-70.1
718,727,2025-04-29 02:45:02,1745919902,7149,p,3.37,10.3,176.8,-70,-70.1
719,728,2025-04-29 02:45:12,1745919912,7159,p,3.38,10.3,176.8,-70,-70.1
720,729,2025-04-29 02:45:22,1745919922,7169,p,3.39,10.3,176.8,-70,-70.1
721,730,2025-04-29 02:45:32,1745919932,7179,p,3.39,10.3,176.8,-70,-70.1
722,731,2025-04-29 02:45:42,1745919942,7189,p,3.38,10.3,176.8,-70,-70.1
723,732,2025-04-29 02:45:52,1745919952,7199,p,3.39,10.3,176.8,-70,-70.1
724,733,2025-04-29 02:46:02,1745919962,7209,p,3.38,10.3,176.8,-70,-70.1
725,734,2025-04-29 02:46:12,1745919972,7219,p,3.38,10.3,176.8,-70,-70.1
726,735,2025-04-29 02:46:22,1745919982,7229,p,3.38,10.3,176.8,-70,-70.1
727,736,2025-04-29 02:46:32,1745919992,7239,p,3.38,10.3,176.8,-70,-70.1
728,737,2025-04-29 02:46:42,1745920002,7249,p,3.38,10.3,176.8,-70,-70.1
729,738,2025-04-29 02:46:52,1745920012,7259,p,3.38,10.3,176.8,-70,-70.1
730,739,2025-04-29 02:47:02,1745920022,7269,p,3.37,10.3,176.8,-70,-70.1
731,740,2025-04-29 02:47:12,1745920032,7279,p,3.37,10.3,176.8,-70,-70.1
732,741,2025-04-29 02:47:21,1745920041,7288,p,3.36,10.3,176.8,-70,-70.1
733,742,2025-04-29 02:47:31,1745920051,7298,p,3.36,10.3,176.8,-70,-70.1
734,743,2025-04-29 02:47:41,1745920061,7308,p,3.36,10.3,176.8,-70,-70.1
735,744,2025-04-29 02:47:51,1745920071,7318,p,3.36,10.3,176.8,-70,-70.1
736,745,2025-04-29 02:48:01,1745920081,7328,p,3.35,10.3,176.8,-70,-70.1
737,746,2025-04-29 02:48:11,1745920091,7338,p,3.35,10.3,176.8,-70,-70.1
738,747,2025-04-29 02:48:21,1745920101,7348,p,3.35,10.3,176.8,-70,-70.1
739,748,2025-04-29 02:48:31,1745920111,7358,p,3.35,10.3,176.8,-70,-70.1
740,749,2025-04-29 02:48:41,1745920121,7368,p,3.37,10.3,176.8,-70,-70.1
741,750,2025-04-29 02:48:51,1745920131,7378,p,3.37,10.3,176.8,-70,-70.1
742,751,2025-04-29 02:49:01,1745920141,7388,p,3.37,10.3,176.8,-70,-70.1
743,752,2025-04-29 02:49:11,1745920151,7398,p,3.37,10.3,176.8,-70,-70.1
744,753,2025-04-29 02:49:21,1745920161,7408,p,3.37,10.3,176.8,-70,-70.1
745,754,2025-04-29 02:49:31,1745920171,7418,p,3.37,10.3,176.8,-70,-70.1
746,755,2025-04-29 02:49:41,1745920181,7428,p,3.36,10.3,176.8,-70,-70.1
747,756,2025-04-29 02:49:51,1745920191,7438,p,3.36,10.3,176.8,-70,-70.1
748,757,2025-04-29 02:50:01,1745920201,7448,p,3.35,10.3,176.8,-70,-70.1
749,758,2025-04-29 02:50:11,1745920211,7458,p,3.34,10.3,176.8,-70,-70.1
750,759,2025-04-29 02:50:21,1745920221,7468,p,3.34,10.3,176.8,-70,-70.1
751,760,2025-04-29 02:50:31,1745920231,7478,p,3.33,10.3,176.8,-70,-70.1
752,761,2025-04-29 02:50:41,1745920241,7488,p,3.33,10.3,176.8,-70,-70.1
753,762,2025-04-29 02:50:51,1745920251,7498,p,3.34,10.3,176.8,-70,-70.1
754,763,2025-04-29 02:51:00,1745920260,7507,p,3.35,10.3,176.8,-70,-70.1
755,764,2025-04-29 02:51:10,1745920270,7517,p,3.36,10.3,176.8,-70,-70.1
756,765,2025-04-29 02:51:20,1745920280,7527,p,3.35,10.3,176.8,-70,-70.1
757,766,2025-04-29 02:51:30,1745920290,7537,p,3.35,10.3,176.8,-70,-70.1
758,767,2025-04-29 02:51:40,1745920300,7547,p,3.35,10.3,176.8,-70,-70.1
759,768,2025-04-29 02:51:50,1745920310,7557,p,3.35,10.3,176.8,-70,-70.1
760,769,2025-04-29 02:52:00,1745920320,7567,p,3.36,10.3,176.8,-70,-70.1
761,770,2025-04-29 02:52:10,1745920330,7577,p,3.35,10.3,176.8,-70,-70.1
762,771,2025-04-29 02:52:20,1745920340,7587,p,3.35,10.3,176.8,-70,-70.1
763,772,2025-04-29 02:52:30,1745920350,7597,p,3.35,10.3,176.8,-70,-70.1
764,773,2025-04-29 02:52:40,1745920360,7607,p,3.35,10.3,176.8,-70,-70.1
765,774,2025-04-29 02:52:50,1745920370,7617,p,3.35,10.3,176.8,-70,-70.1
766,775,2025-04-29 02:53:00,1745920380,7627,p,3.34,10.3,176.8,-70,-70.1
767,776,2025-04-29 02:53:10,1745920390,7637,p,3.35,10.3,176.8,-70,-70.1
768,777,2025-04-29 02:53:20,1745920400,7647,p,3.35,10.3,176.8,-70,-70.1
769,778,2025-04-29 02:53:30,1745920410,7657,p,3.34,10.3,176.8,-70,-70.1
770,779,2025-04-29 02:53:40,1745920420,7667,p,3.35,10.3,176.8,-70,-70.1
771,780,2025-04-29 02:53:50,1745920430,7677,p,3.34,10.3,176.8,-70,-70.1
772,781,2025-04-29 02:54:00,1745920440,7687,p,3.35,10.3,176.8,-70,-70.1
773,782,2025-04-29 02:54:10,1745920450,7697,p,3.34,10.3,176.8,-70,-70.1
774,783,2025-04-29 02:54:20,1745920460,7707,p,3.34,10.3,176.8,-70,-70.1
775,784,2025-04-29 02:54:29,1745920469,7716,p,3.33,10.3,176.8,-70,-70.1
776,785,2025-04-29 02:54:39,1745920479,7726,p,3.33,10.3,176.8,-70,-70.1
777,786,2025-04-29 02:54:49,1745920489,7736,p,3.33,10.3,176.8,-70,-70.1
778,787,2025-04-29 02:54:59,1745920499,7746,p,3.33,10.3,176.8,-70,-70.1
779,788,2025-04-29 02:55:09,1745920509,7756,p,3.33,10.3,176.8,-70,-70.1
780,789,2025-04-29 02:55:19,1745920519,7766,p,3.33,10.3,176.8,-70,-70.1
781,790,2025-04-29 02:55:29,1745920529,7776,p,3.34,10.3,176.8,-70,-70.1
782,791,2025-04-29 02:55:39,1745920539,7786,p,3.34,10.3,176.8,-70,-70.1
783,792,2025-04-29 02:55:49,1745920549,7796,p,3.33,10.3,176.8,-70,-70.1
784,793,2025-04-29 02:55:59,1745920559,7806,p,3.33,10.3,176.8,-70,-70.1
785,794,2025-04-29 02:56:09,1745920569,7816,p,3.32,10.3,176.8,-70,-70.1
786,795,2025-04-29 02:56:19,1745920579,7826,p,3.33,10.3,176.8,-70,-70.1
787,796,2025-04-29 02:56:29,1745920589,7836,p,3.33,10.3,176.8,-70,-70.1
788,797,2025-04-29 02:56:39,1745920599,7846,p,3.33,10.3,176.8,-70,-70.1
789,798,2025-04-29 02:56:49,1745920609,7856,p,3.32,10.3,176.8,-70,-70.1
790,799,2025-04-29 02:56:59,1745920619,7866,p,3.32,10.3,176.8,-70,-70.1
791,800,2025-04-29 02:57:09,1745920629,7876,p,3.32,10.3,176.8,-70,-70.1
792,801,2025-04-29 02:57:19,1745920639,7886,p,3.32,10.3,176.8,-70,-70.1
793,802,2025-04-29 02:57:29,1745920649,7896,p,3.32,10.3,176.8,-70,-70.1
794,803,2025-04-29 02:57:39,1745920659,7906,p,3.31,10.3,176.8,-70,-70.1
795,804,2025-04-29 02:57:49,1745920669,7916,p,3.31,10.3,176.8,-70,-70.1
796,805,2025-04-29 02:57:59,1745920679,7926,p,3.31,10.3,176.8,-70,-70.1
797,806,2025-04-29 02:58:08,1745920688,7935,p,3.31,10.3,176.8,-70,-70.1
798,807,2025-04-29 02:58:18,1745920698,7945,p,3.32,10.3,176.8,-70,-70.1
799,808,2025-04-29 02:58:28,1745920708,7955,p,3.31,10.3,176.8,-70,-70.1
800,809,2025-04-29 02:58:38,1745920718,7965,p,3.32,10.3,176.8,-70,-70.1
801,810,2025-04-29 02:58:48,1745920728,7975,p,3.33,10.3,176.8,-70,-70.1
802,811,2025-04-29 02:58:58,1745920738,7985,p,3.32,10.3,176.8,-70,-70.1
803,812,2025-04-29 02:59:08,1745920748,7995,p,3.32,10.3,176.8,-70,-70.1
804,813,2025-04-29 02:59:18,1745920758,8005,p,3.31,10.3,176.8,-70,-70.1
805,814,2025-04-29 02:59:28,1745920768,8015,p,3.31,10.3,176.8,-70,-70.1
806,815,2025-04-29 02:59:38,1745920778,8025,p,3.31,10.3,176.8,-70,-70.1
807,816,2025-04-29 02:59:48,1745920788,8035,p,3.31,10.3,176.8,-70,-70.1
808,817,2025-04-29 02:59:58,1745920798,8045,p,3.31,10.3,176.8,-70,-70.1
809,818,2025-04-29 03:00:08,1745920808,8055,p,3.31,10.3,176.8,-70,-70.1
810,819,2025-04-29 03:00:18,1745920818,8065,p,3.3,10.3,176.8,-70,-70.1
811,820,2025-04-29 03:00:28,1745920828,8075,p,3.3,10.3,176.8,-70,-70.1
812,821,2025-04-29 03:00:38,1745920838,8085,p,3.31,10.3,176.8,-70,-70.1
813,822,2025-04-29 03:00:48,1745920848,8095,p,3.3,10.3,176.8,-70,-70.1
814,823,2025-04-29 03:00:58,1745920858,8105,p,3.31,10.3,176.8,-70,-70.1
815,824,2025-04-29 03:01:08,1745920868,8115,p,3.31,10.3,176.8,-70,-70.1
816,825,2025-04-29 03:01:18,1745920878,8125,p,3.31,10.3,176.8,-70,-70.1
817,826,2025-04-29 03:01:28,1745920888,8135,p,3.32,10.3,176.8,-70,-70.1
818,827,2025-04-29 03:01:38,1745920898,8145,p,3.32,10.3,176.8,-70,-70.1
819,828,2025-04-29 03:01:48,1745920908,8155,p,3.32,10.3,176.8,-70,-70.1
820,829,2025-04-29 03:01:57,1745920917,8164,p,3.31,10.3,176.8,-70,-70.1
821,830,2025-04-29 03:02:07,1745920927,8174,p,3.31,10.3,176.8,-70,-70.1
822,831,2025-04-29 03:02:17,1745920937,8184,p,3.3,10.3,176.8,-70,-70.1
823,832,2025-04-29 03:02:27,1745920947,8194,p,3.3,10.3,176.8,-70,-70.1
824,833,2025-04-29 03:02:37,1745920957,8204,p,3.29,10.3,176.8,-70,-70.1
825,834,2025-04-29 03:02:47,1745920967,8214,p,3.3,10.3,176.8,-70,-70.1
826,835,2025-04-29 03:02:57,1745920977,8224,p,3.28,10.3,176.8,-70,-70.1
827,836,2025-04-29 03:03:07,1745920987,8234,p,3.29,10.3,176.8,-70,-70.1
828,837,2025-04-29 03:03:17,1745920997,8244,p,3.29,10.3,176.8,-70,-70.1
