Number,Id,Datetime,Timestamp,Runtime,Type,Depth,Temperature,Heading,Roll,Pitch
1,2,2024-10-21 02:44:02,1729503842,12,p,0.19,19.2,179.9,-86.7,-1.4
2,3,2024-10-21 02:44:12,1729503852,22,p,0.19,19.1,179.6,-87.1,-1.6
3,4,2024-10-21 02:44:22,1729503862,32,p,0.19,19.1,179.6,-86.4,-1.6
4,5,2024-10-21 02:44:32,1729503872,42,p,0.19,19,179.6,-85.9,-1.6
5,6,2024-10-21 02:44:42,1729503882,52,p,0.18,19,180.1,-86.6,-1.1
6,7,2024-10-21 02:44:52,1729503892,62,p,0.19,19,180.1,-87.4,-1.1
7,8,2024-10-21 02:45:02,1729503902,72,p,0.19,18.9,179.9,-87.2,-1.4
8,9,2024-10-21 02:45:12,1729503912,82,p,0.98,15.7,115.3,-84.3,1.8
9,10,2024-10-21 02:45:22,1729503922,92,p,1.31,12.5,181.6,-86.6,2.3
10,11,2024-10-21 02:45:32,1729503932,102,p,2.03,11.4,174.9,-85.7,-0.7
11,12,2024-10-21 02:45:42,1729503942,112,p,6.05,10.7,180.9,-103.6,43.1
12,13,2024-10-21 02:45:52,1729503952,122,p,6.08,10.5,180.3,-106.9,29.6
13,14,2024-10-21 02:46:02,1729503962,132,p,6.08,10.4,180.3,-106.9,29.6
14,15,2024-10-21 02:46:12,1729503972,142,p,6.09,10.4,180.3,-106.9,29.6
15,16,2024-10-21 02:46:22,1729503982,152,p,6.09,10.3,180.3,-106.9,29.6
16,17,2024-10-21 02:46:31,1729503991,161,p,6.09,10.3,180.3,-106.9,29.6
17,18,2024-10-21 02:46:41,1729504001,171,p,6.09,10.2,180.3,-106.9,29.6
18,19,2024-10-21 02:46:51,1729504011,181,p,6.09,10.2,180.3,-106.9,29.6
19,20,2024-10-21 02:47:01,1729504021,191,p,6.09,10.2,180.3,-106.9,29.6
20,21,2024-10-21 02:47:11,1729504031,201,p,6.09,10.2,180.3,-106.9,29.6
21,22,2024-10-21 02:47:21,1729504041,211,p,6.09,10.1,180.3,-106.9,29.6
22,23,2024-10-21 02:47:31,1729504051,221,p,6.09,10.1,180.3,-106.9,29.6
23,24,2024-10-21 02:47:41,1729504061,231,p,6.09,10.1,180.3,-106.9,29.6
24,25,2024-10-21 02:47:51,1729504071,241,p,6.09,10.1,180.3,-106.9,29.6
25,26,2024-10-21 02:48:01,1729504081,251,p,6.09,10.1,180.3,-106.9,29.6
26,27,2024-10-21 02:48:11,1729504091,261,p,6.09,10.1,180.3,-106.9,29.6
27,28,2024-10-21 02:48:21,1729504101,271,p,6.09,10.1,180.3,-106.9,29.6
28,29,2024-10-21 02:48:31,1729504111,281,p,6.09,10.1,180.3,-106.9,29.6
29,30,2024-10-21 02:48:41,1729504121,291,p,6.09,10.1,180.3,-106.9,29.6
30,31,2024-10-21 02:48:51,1729504131,301,p,6.09,10.1,180.3,-106.9,29.6
31,32,2024-10-21 02:49:01,1729504141,311,p,6.1,10.1,180.3,-106.9,29.6
32,33,2024-10-21 02:49:11,1729504151,321,p,6.1,10.1,180.3,-106.9,29.6
33,34,2024-10-21 02:49:21,1729504161,331,p,6.11,10.1,180.3,-106.9,29.6
34,35,2024-10-21 02:49:31,1729504171,341,p,6.1,10.1,180.3,-106.9,29.6
35,36,2024-10-21 02:49:41,1729504181,351,p,6.1,10.1,180.3,-106.9,29.6
36,37,2024-10-21 02:49:51,1729504191,361,p,6.1,10.1,180.3,-106.9,29.6
37,38,2024-10-21 02:50:01,1729504201,371,p,6.1,10.1,180.3,-106.9,29.6
38,39,2024-10-21 02:50:11,1729504211,381,p,6.1,10.1,180.3,-106.9,29.6
39,40,2024-10-21 02:50:20,1729504220,390,p,6.11,10.1,180.3,-106.9,29.6
40,41,2024-10-21 02:50:30,1729504230,400,p,6.11,10.1,180.3,-106.9,29.6
41,42,2024-10-21 02:50:40,1729504240,410,p,6.11,10.1,180.3,-106.9,29.6
42,43,2024-10-21 02:50:50,1729504250,420,p,6.1,10.1,180.3,-106.9,29.6
43,44,2024-10-21 02:51:00,1729504260,430,p,6.11,10.1,180.3,-106.9,29.6
44,45,2024-10-21 02:51:10,1729504270,440,p,6.11,10.1,180.3,-106.9,29.6
45,46,2024-10-21 02:51:20,1729504280,450,p,6.11,10.1,180.3,-106.9,29.6
46,47,2024-10-21 02:51:30,1729504290,460,p,6.11,10.1,180.3,-106.9,29.6
47,48,2024-10-21 02:51:40,1729504300,470,p,6.11,10.1,180.3,-106.9,29.6
48,49,2024-10-21 02:51:50,1729504310,480,p,6.11,10.1,180.3,-106.9,29.6
49,50,2024-10-21 02:52:00,1729504320,490,p,6.11,10.1,180.3,-106.9,29.6
50,51,2024-10-21 02:52:10,1729504330,500,p,6.11,10.1,180.3,-106.9,29.6
51,52,2024-10-21 02:52:20,1729504340,510,p,6.11,10.1,180.3,-106.9,29.6
52,53,2024-10-21 02:52:30,1729504350,520,p,6.12,10.1,180.3,-106.9,29.6
53,54,2024-10-21 02:52:40,1729504360,530,p,6.11,10.1,180.3,-106.9,29.6
54,55,2024-10-21 02:52:50,1729504370,540,p,6.11,10.1,180.3,-106.9,29.6
55,56,2024-10-21 02:53:00,1729504380,550,p,6.11,10.1,180.3,-106.9,29.6
56,57,2024-10-21 02:53:10,1729504390,560,p,6.12,10.1,180.3,-106.9,29.6
57,58,2024-10-21 02:53:20,1729504400,570,p,6.12,10,180.3,-106.9,29.6
58,59,2024-10-21 02:53:30,1729504410,580,p,6.11,10,180.3,-106.9,29.6
59,60,2024-10-21 02:53:40,1729504420,590,p,6.12,10,180.3,-106.9,29.6
60,61,2024-10-21 02:53:50,1729504430,600,p,6.12,10,180.3,-106.9,29.6
61,62,2024-10-21 02:53:59,1729504439,609,p,6.12,10,180.3,-106.9,29.6
62,63,2024-10-21 02:54:09,1729504449,619,p,6.12,10,180.3,-106.9,29.6
63,64,2024-10-21 02:54:19,1729504459,629,p,6.12,10,180.3,-106.9,29.6
64,65,2024-10-21 02:54:29,1729504469,639,p,6.12,10,180.3,-106.9,29.6
65,66,2024-10-21 02:54:39,1729504479,649,p,6.12,10,180.3,-106.9,29.6
66,67,2024-10-21 02:54:49,1729504489,659,p,6.12,10,180.3,-106.9,29.6
67,68,2024-10-21 02:54:59,1729504499,669,p,6.13,10,180.3,-106.9,29.6
68,69,2024-10-21 02:55:09,1729504509,679,p,6.12,10,180.3,-106.9,29.6
69,70,2024-10-21 02:55:19,1729504519,689,p,6.12,10,180.3,-106.9,29.6
70,71,2024-10-21 02:55:29,1729504529,699,p,6.12,10,180.3,-106.9,29.6
71,72,2024-10-21 02:55:39,1729504539,709,p,6.13,10,180.3,-106.9,29.6
72,73,2024-10-21 02:55:49,1729504549,719,p,6.13,10,180.3,-106.9,29.6
73,74,2024-10-21 02:55:59,1729504559,729,p,6.13,10,180.3,-106.9,29.6
74,75,2024-10-21 02:56:09,1729504569,739,p,6.13,10,180.3,-106.9,29.6
75,76,2024-10-21 02:56:19,1729504579,749,p,6.13,10,180.3,-106.9,29.6
76,77,2024-10-21 02:56:29,1729504589,759,p,6.13,10,180.3,-106.9,29.6
77,78,2024-10-21 02:56:39,1729504599,769,p,6.13,10,180.3,-106.9,29.6
78,79,2024-10-21 02:56:49,1729504609,779,p,6.13,10,180.3,-106.9,29.7
79,80,2024-10-21 02:56:59,1729504619,789,p,6.13,10,180.3,-106.9,29.7
80,81,2024-10-21 02:57:09,1729504629,799,p,6.13,10,180.3,-106.9,29.7
81,82,2024-10-21 02:57:19,1729504639,809,p,6.13,10,180.3,-106.9,29.7
82,83,2024-10-21 02:57:29,1729504649,819,p,6.13,10,180.3,-106.9,29.7
83,84,2024-10-21 02:57:38,1729504658,828,p,6.12,10,180.3,-106.9,29.7
84,85,2024-10-21 02:57:48,1729504668,838,p,6.13,10,180.3,-106.9,29.7
85,86,2024-10-21 02:57:58,1729504678,848,p,6.13,10,180.3,-106.9,29.7
86,87,2024-10-21 02:58:08,1729504688,858,p,6.13,10,180.3,-106.9,29.7
87,88,2024-10-21 02:58:18,1729504698,868,p,6.13,10,180.3,-106.9,29.7
88,89,2024-10-21 02:58:28,1729504708,878,p,6.13,10,180.3,-106.9,29.7
89,90,2024-10-21 02:58:38,1729504718,888,p,6.14,10,180.3,-106.9,29.7
90,91,2024-10-21 02:58:48,1729504728,898,p,6.14,10,180.3,-106.9,29.7
91,92,2024-10-21 02:58:58,1729504738,908,p,6.13,10,180.3,-106.9,29.7
92,93,2024-10-21 02:59:08,1729504748,918,p,6.13,10,180.3,-106.9,29.7
93,94,2024-10-21 02:59:18,1729504758,928,p,6.13,10,180.3,-106.9,29.7
94,95,2024-10-21 02:59:28,1729504768,938,p,6.14,10,180.3,-106.9,29.7
95,96,2024-10-21 02:59:38,1729504778,948,p,6.13,10,180.3,-106.9,29.7
96,97,2024-10-21 02:59:48,1729504788,958,p,6.13,10,180.3,-106.9,29.7
97,98,2024-10-21 02:59:58,1729504798,968,p,6.14,10.1,180.3,-106.9,29.7
98,99,2024-10-21 03:00:08,1729504808,978,p,6.14,10.1,180.3,-106.9,29.7
99,100,2024-10-21 03:00:18,1729504818,988,p,6.14,10.1,180.3,-106.9,29.7
100,101,2024-10-21 03:00:28,1729504828,998,p,6.14,10.1,180.3,-106.9,29.7
101,102,2024-10-21 03:00:38,1729504838,1008,p,6.14,10.1,180.3,-106.9,29.7
102,103,2024-10-21 03:00:48,1729504848,1018,p,6.14,10.1,180.3,-106.9,29.7
103,104,2024-10-21 03:00:58,1729504858,1028,p,6.14,10.1,180.3,-106.9,29.7
104,105,2024-10-21 03:01:08,1729504868,1038,p,6.14,10.1,180.3,-106.9,29.7
105,106,2024-10-21 03:01:17,1729504877,1047,p,6.14,10.1,180.3,-106.9,29.7
106,107,2024-10-21 03:01:27,1729504887,1057,p,6.14,10.1,180.3,-106.9,29.7
107,108,2024-10-21 03:01:37,1729504897,1067,p,6.14,10.1,180.3,-106.9,29.7
108,109,2024-10-21 03:01:47,1729504907,1077,p,6.14,10.1,180.3,-106.9,29.7
109,110,2024-10-21 03:01:57,1729504917,1087,p,6.14,10.2,180.3,-106.9,29.7
110,111,2024-10-21 03:02:07,1729504927,1097,p,6.14,10.2,180.3,-106.9,29.7
111,112,2024-10-21 03:02:17,1729504937,1107,p,6.14,10.2,180.3,-106.9,29.7
112,113,2024-10-21 03:02:27,1729504947,1117,p,6.14,10.2,180.3,-106.9,29.7
113,114,2024-10-21 03:02:37,1729504957,1127,p,6.14,10.2,180.3,-106.9,29.7
114,115,2024-10-21 03:02:47,1729504967,1137,p,6.14,10.1,180.3,-106.9,29.7
115,116,2024-10-21 03:02:57,1729504977,1147,p,6.14,10.1,180.3,-106.9,29.7
116,117,2024-10-21 03:03:07,1729504987,1157,p,6.15,10.1,180.3,-106.9,29.7
117,118,2024-10-21 03:03:17,1729504997,1167,p,6.14,10.1,180.3,-106.9,29.7
118,119,2024-10-21 03:03:27,1729505007,1177,p,6.14,10.1,180.3,-106.9,29.7
119,120,2024-10-21 03:03:37,1729505017,1187,p,6.14,10.1,180.3,-106.9,29.7
120,121,2024-10-21 03:03:47,1729505027,1197,p,6.15,10.1,180.3,-106.9,29.7
121,122,2024-10-21 03:03:57,1729505037,1207,p,6.15,10.1,180.3,-106.9,29.7
122,123,2024-10-21 03:04:07,1729505047,1217,p,6.14,10.1,180.3,-106.9,29.7
123,124,2024-10-21 03:04:17,1729505057,1227,p,6.15,10.1,180.3,-106.9,29.7
124,125,2024-10-21 03:04:27,1729505067,1237,p,6.15,10.1,180.3,-106.9,29.7
125,126,2024-10-21 03:04:37,1729505077,1247,p,6.15,10.1,180.3,-106.9,29.7
126,127,2024-10-21 03:04:47,1729505087,1257,p,6.15,10.1,180.3,-106.9,29.7
127,128,2024-10-21 03:04:57,1729505097,1267,p,6.15,10.1,180.3,-106.9,29.7
128,129,2024-10-21 03:05:06,1729505106,1276,p,6.15,10.1,180.3,-106.9,29.7
129,130,2024-10-21 03:05:16,1729505116,1286,p,6.14,10.2,180.3,-106.9,29.7
130,131,2024-10-21 03:05:26,1729505126,1296,p,6.15,10.2,180.3,-106.9,29.7
131,132,2024-10-21 03:05:36,1729505136,1306,p,6.15,10.1,180.3,-106.9,29.7
132,133,2024-10-21 03:05:46,1729505146,1316,p,6.14,10.1,180.3,-106.9,29.7
133,134,2024-10-21 03:05:56,1729505156,1326,p,6.15,10.2,180.3,-106.9,29.7
134,135,2024-10-21 03:06:06,1729505166,1336,p,6.15,10.2,180.3,-106.9,29.7
135,136,2024-10-21 03:06:16,1729505176,1346,p,6.14,10.2,180.3,-106.9,29.7
136,137,2024-10-21 03:06:26,1729505186,1356,p,6.14,10.2,180.3,-106.9,29.7
137,138,2024-10-21 03:06:36,1729505196,1366,p,6.15,10.2,180.3,-106.9,29.7
138,139,2024-10-21 03:06:46,1729505206,1376,p,6.15,10.2,180.3,-106.9,29.7
139,140,2024-10-21 03:06:56,1729505216,1386,p,6.14,10.2,180.3,-106.9,29.7
140,141,2024-10-21 03:07:06,1729505226,1396,p,6.14,10.2,180.3,-106.9,29.7
141,142,2024-10-21 03:07:16,1729505236,1406,p,6.14,10.2,180.3,-106.9,29.7
142,143,2024-10-21 03:07:26,1729505246,1416,p,6.15,10.2,180.3,-106.9,29.7
143,144,2024-10-21 03:07:36,1729505256,1426,p,6.14,10.2,180.3,-106.9,29.7
144,145,2024-10-21 03:07:46,1729505266,1436,p,6.14,10.2,180.3,-106.9,29.7
145,146,2024-10-21 03:07:56,1729505276,1446,p,6.14,10.2,180.3,-106.9,29.7
146,147,2024-10-21 03:08:06,1729505286,1456,p,6.15,10.2,180.3,-106.9,29.7
147,148,2024-10-21 03:08:16,1729505296,1466,p,6.14,10.2,180.3,-106.9,29.7
148,149,2024-10-21 03:08:26,1729505306,1476,p,6.15,10.2,180.3,-106.9,29.7
149,150,2024-10-21 03:08:36,1729505316,1486,p,6.14,10.2,180.3,-106.9,29.7
150,151,2024-10-21 03:08:45,1729505325,1495,p,6.15,10.2,180.3,-106.9,29.7
151,152,2024-10-21 03:08:55,1729505335,1505,p,6.15,10.2,180.3,-106.9,29.7
152,153,2024-10-21 03:09:05,1729505345,1515,p,6.14,10.2,180.3,-106.9,29.7
153,154,2024-10-21 03:09:15,1729505355,1525,p,6.14,10.2,180.3,-106.9,29.7
154,155,2024-10-21 03:09:25,1729505365,1535,p,6.15,10.2,180.3,-106.9,29.7
155,156,2024-10-21 03:09:35,1729505375,1545,p,6.14,10.2,180.3,-106.9,29.7
156,157,2024-10-21 03:09:45,1729505385,1555,p,6.14,10.2,180.3,-106.9,29.7
157,158,2024-10-21 03:09:55,1729505395,1565,p,6.14,10.2,180.3,-106.9,29.7
158,159,2024-10-21 03:10:05,1729505405,1575,p,6.14,10.2,180.3,-106.9,29.7
159,160,2024-10-21 03:10:15,1729505415,1585,p,6.13,10.2,180.3,-106.9,29.7
160,161,2024-10-21 03:10:25,1729505425,1595,p,6.14,10.1,180.3,-106.9,29.7
161,162,2024-10-21 03:10:35,1729505435,1605,p,6.14,10.1,180.3,-106.9,29.7
162,163,2024-10-21 03:10:45,1729505445,1615,p,6.14,10.2,180.3,-106.9,29.7
163,164,2024-10-21 03:10:55,1729505455,1625,p,6.14,10.1,180.3,-106.9,29.7
164,165,2024-10-21 03:11:05,1729505465,1635,p,6.14,10.1,180.3,-106.9,29.7
165,166,2024-10-21 03:11:15,1729505475,1645,p,6.14,10.1,180.3,-106.9,29.7
166,167,2024-10-21 03:11:25,1729505485,1655,p,6.14,10.1,180.3,-106.9,29.7
167,168,2024-10-21 03:11:35,1729505495,1665,p,6.14,10.1,180.3,-106.9,29.7
168,169,2024-10-21 03:11:45,1729505505,1675,p,6.14,10.1,180.3,-106.9,29.7
169,170,2024-10-21 03:11:55,1729505515,1685,p,6.14,10.1,180.3,-106.9,29.7
170,171,2024-10-21 03:12:05,1729505525,1695,p,6.14,10.1,180.3,-106.9,29.7
171,172,2024-10-21 03:12:15,1729505535,1705,p,6.14,10.1,180.3,-106.9,29.7
172,173,2024-10-21 03:12:25,1729505545,1715,p,6.14,10.1,180.3,-106.9,29.7
173,174,2024-10-21 03:12:34,1729505554,1724,p,6.14,10.1,180.3,-106.9,29.7
174,175,2024-10-21 03:12:44,1729505564,1734,p,6.14,10.1,180.3,-106.9,29.7
175,176,2024-10-21 03:12:54,1729505574,1744,p,6.14,10.2,180.3,-106.9,29.7
176,177,2024-10-21 03:13:04,1729505584,1754,p,6.15,10.2,180.3,-106.9,29.7
177,178,2024-10-21 03:13:14,1729505594,1764,p,6.15,10.2,180.3,-106.9,29.7
178,179,2024-10-21 03:13:24,1729505604,1774,p,6.14,10.2,180.3,-106.9,29.7
179,180,2024-10-21 03:13:34,1729505614,1784,p,6.15,10.2,180.3,-106.9,29.7
180,181,2024-10-21 03:13:44,1729505624,1794,p,6.14,10.2,180.3,-106.9,29.7
181,182,2024-10-21 03:13:54,1729505634,1804,p,6.14,10.2,180.3,-106.9,29.7
182,183,2024-10-21 03:14:04,1729505644,1814,p,6.14,10.2,180.3,-106.9,29.7
183,184,2024-10-21 03:14:14,1729505654,1824,p,6.14,10.2,180.3,-106.9,29.7
184,185,2024-10-21 03:14:24,1729505664,1834,p,6.14,10.2,180.3,-106.9,29.7
185,186,2024-10-21 03:14:34,1729505674,1844,p,6.14,10.2,180.3,-106.9,29.7
186,187,2024-10-21 03:14:44,1729505684,1854,p,6.15,10.2,180.3,-106.9,29.7
187,188,2024-10-21 03:14:54,1729505694,1864,p,6.14,10.2,180.3,-106.9,29.7
188,189,2024-10-21 03:15:04,1729505704,1874,p,6.14,10.2,180.3,-106.9,29.7
189,190,2024-10-21 03:15:14,1729505714,1884,p,6.14,10.2,180.3,-106.9,29.7
190,191,2024-10-21 03:15:24,1729505724,1894,p,6.15,10.2,180.3,-106.9,29.7
191,192,2024-10-21 03:15:34,1729505734,1904,p,6.15,10.2,180.3,-106.9,29.7
192,193,2024-10-21 03:15:44,1729505744,1914,p,6.14,10.1,180.3,-106.9,29.7
193,194,2024-10-21 03:15:54,1729505754,1924,p,6.15,10.1,180.3,-106.9,29.7
194,195,2024-10-21 03:16:04,1729505764,1934,p,6.14,10.1,180.3,-106.9,29.7
195,196,2024-10-21 03:16:13,1729505773,1943,p,6.15,10.1,180.3,-106.9,29.7
196,197,2024-10-21 03:16:23,1729505783,1953,p,6.14,10.1,180.3,-106.9,29.7
197,198,2024-10-21 03:16:33,1729505793,1963,p,6.15,10.1,180.3,-106.9,29.7
198,199,2024-10-21 03:16:43,1729505803,1973,p,6.15,10.1,180.3,-106.9,29.7
199,200,2024-10-21 03:16:53,1729505813,1983,p,6.15,10.1,180.3,-106.9,29.7
200,201,2024-10-21 03:17:03,1729505823,1993,p,6.14,10.1,180.3,-106.9,29.7
201,202,2024-10-21 03:17:13,1729505833,2003,p,6.14,10.1,180.3,-106.9,29.7
202,203,2024-10-21 03:17:23,1729505843,2013,p,6.14,10.1,180.3,-106.9,29.7
203,204,2024-10-21 03:17:33,1729505853,2023,p,6.14,10.1,180.3,-106.9,29.7
204,205,2024-10-21 03:17:43,1729505863,2033,p,6.14,10.1,180.3,-106.9,29.7
205,206,2024-10-21 03:17:53,1729505873,2043,p,6.14,10.1,180.3,-106.9,29.7
206,207,2024-10-21 03:18:03,1729505883,2053,p,6.14,10.1,180.3,-106.9,29.7
207,208,2024-10-21 03:18:13,1729505893,2063,p,6.14,10.1,180.3,-106.9,29.7
208,209,2024-10-21 03:18:23,1729505903,2073,p,6.14,10.1,180.3,-106.9,29.7
209,210,2024-10-21 03:18:33,1729505913,2083,p,6.14,10.1,180.3,-106.9,29.7
210,211,2024-10-21 03:18:43,1729505923,2093,p,6.13,10.1,180.3,-106.9,29.7
211,212,2024-10-21 03:18:53,1729505933,2103,p,6.14,10.1,180.3,-106.9,29.7
212,213,2024-10-21 03:19:03,1729505943,2113,p,6.14,10.1,180.3,-106.9,29.7
213,214,2024-10-21 03:19:13,1729505953,2123,p,6.14,10.1,180.3,-106.9,29.7
214,215,2024-10-21 03:19:23,1729505963,2133,p,6.14,10.1,180.3,-106.9,29.7
215,216,2024-10-21 03:19:33,1729505973,2143,p,6.14,10.1,180.3,-106.9,29.7
216,217,2024-10-21 03:19:43,1729505983,2153,p,6.13,10.1,180.3,-106.9,29.7
217,218,2024-10-21 03:19:52,1729505992,2162,p,6.13,10.1,180.3,-106.9,29.7
218,219,2024-10-21 03:20:02,1729506002,2172,p,6.13,10.1,180.3,-106.9,29.7
219,220,2024-10-21 03:20:12,1729506012,2182,p,6.12,10.1,180.3,-106.9,29.7
220,221,2024-10-21 03:20:22,1729506022,2192,p,6.13,10.1,180.3,-106.9,29.7
221,222,2024-10-21 03:20:32,1729506032,2202,p,6.13,10.1,180.3,-106.9,29.7
222,223,2024-10-21 03:20:42,1729506042,2212,p,6.13,10.1,180.3,-106.9,29.7
223,224,2024-10-21 03:20:52,1729506052,2222,p,6.13,10.1,180.3,-106.9,29.7
224,225,2024-10-21 03:21:02,1729506062,2232,p,6.13,10.1,180.3,-106.9,29.7
225,226,2024-10-21 03:21:12,1729506072,2242,p,6.12,10.1,180.3,-106.9,29.7
226,227,2024-10-21 03:21:22,1729506082,2252,p,6.12,10.1,180.3,-106.9,29.7
227,228,2024-10-21 03:21:32,1729506092,2262,p,6.13,10.1,180.3,-106.9,29.7
228,229,2024-10-21 03:21:42,1729506102,2272,p,6.12,10.1,180.3,-106.9,29.7
229,230,2024-10-21 03:21:52,1729506112,2282,p,6.12,10.1,180.3,-106.9,29.7
230,231,2024-10-21 03:22:02,1729506122,2292,p,6.12,10.1,180.3,-106.9,29.7
231,232,2024-10-21 03:22:12,1729506132,2302,p,6.12,10.1,180.3,-106.9,29.7
232,233,2024-10-21 03:22:22,1729506142,2312,p,6.12,10.1,180.3,-106.9,29.7
233,234,2024-10-21 03:22:32,1729506152,2322,p,6.13,10.1,180.3,-106.9,29.7
234,235,2024-10-21 03:22:42,1729506162,2332,p,6.13,10.1,180.3,-106.9,29.7
235,236,2024-10-21 03:22:52,1729506172,2342,p,6.12,10.1,180.3,-106.9,29.7
236,237,2024-10-21 03:23:02,1729506182,2352,p,6.12,10.1,180.3,-106.9,29.7
237,238,2024-10-21 03:23:12,1729506192,2362,p,6.12,10.1,180.3,-106.9,29.7
238,239,2024-10-21 03:23:22,1729506202,2372,p,6.12,10.1,180.3,-106.9,29.7
239,240,2024-10-21 03:23:32,1729506212,2382,p,6.12,10.1,180.3,-106.9,29.7
240,241,2024-10-21 03:23:41,1729506221,2391,p,6.12,10.1,180.3,-106.9,29.7
241,242,2024-10-21 03:23:51,1729506231,2401,p,6.12,10.1,180.3,-106.9,29.7
242,243,2024-10-21 03:24:01,1729506241,2411,p,6.12,10.1,180.3,-106.9,29.7
243,244,2024-10-21 03:24:11,1729506251,2421,p,6.12,10.1,180.3,-106.9,29.7
244,245,2024-10-21 03:24:21,1729506261,2431,p,6.11,10.1,180.3,-106.9,29.7
245,246,2024-10-21 03:24:31,1729506271,2441,p,6.12,10.1,180.3,-106.9,29.7
246,247,2024-10-21 03:24:41,1729506281,2451,p,6.12,10.1,180.3,-106.9,29.7
247,248,2024-10-21 03:24:51,1729506291,2461,p,6.12,10.1,180.3,-106.9,29.7
248,249,2024-10-21 03:25:01,1729506301,2471,p,6.13,10.1,180.3,-106.9,29.7
249,250,2024-10-21 03:25:11,1729506311,2481,p,6.13,10.1,180.3,-106.9,29.7
250,251,2024-10-21 03:25:21,1729506321,2491,p,6.12,10.1,180.3,-106.9,29.7
251,252,2024-10-21 03:25:31,1729506331,2501,p,6.11,10.1,180.3,-106.9,29.7
252,253,2024-10-21 03:25:41,1729506341,2511,p,6.12,10.1,180.3,-106.9,29.7
253,254,2024-10-21 03:25:51,1729506351,2521,p,6.12,10.1,180.3,-106.9,29.7
254,255,2024-10-21 03:26:01,1729506361,2531,p,6.12,10.1,180.3,-106.9,29.7
255,256,2024-10-21 03:26:11,1729506371,2541,p,6.12,10.1,180.3,-106.9,29.7
256,257,2024-10-21 03:26:21,1729506381,2551,p,6.1,10.1,180.3,-106.9,29.7
257,258,2024-10-21 03:26:31,1729506391,2561,p,6.11,10.1,180.3,-106.9,29.7
258,259,2024-10-21 03:26:41,1729506401,2571,p,6.11,10.1,180.3,-106.9,29.7
259,260,2024-10-21 03:26:51,1729506411,2581,p,6.11,10.1,180.3,-106.9,29.7
260,261,2024-10-21 03:27:01,1729506421,2591,p,6.11,10.1,180.3,-106.9,29.7
261,262,2024-10-21 03:27:11,1729506431,2601,p,6.11,10.1,180.3,-106.9,29.7
262,263,2024-10-21 03:27:20,1729506440,2610,p,6.12,10.1,180.3,-106.9,29.7
263,264,2024-10-21 03:27:30,1729506450,2620,p,6.12,10.1,180.3,-106.9,29.7
264,265,2024-10-21 03:27:40,1729506460,2630,p,6.11,10.1,180.3,-106.9,29.7
265,266,2024-10-21 03:27:50,1729506470,2640,p,6.11,10.1,180.3,-106.9,29.7
266,267,2024-10-21 03:28:00,1729506480,2650,p,6.11,10.1,180.3,-106.9,29.7
267,268,2024-10-21 03:28:10,1729506490,2660,p,6.11,10.1,180.3,-106.9,29.7
268,269,2024-10-21 03:28:20,1729506500,2670,p,6.12,10.1,180.3,-106.9,29.7
269,270,2024-10-21 03:28:30,1729506510,2680,p,6.11,10,180.3,-106.9,29.7
270,271,2024-10-21 03:28:40,1729506520,2690,p,6.1,10.1,180.3,-106.9,29.7
271,272,2024-10-21 03:28:50,1729506530,2700,p,6.1,10.1,180.3,-106.9,29.7
272,273,2024-10-21 03:29:00,1729506540,2710,p,6.1,10,180.3,-106.9,29.7
273,274,2024-10-21 03:29:10,1729506550,2720,p,6.11,10,180.3,-106.9,29.7
274,275,2024-10-21 03:29:20,1729506560,2730,p,6.11,10,180.3,-106.9,29.7
275,276,2024-10-21 03:29:30,1729506570,2740,p,6.12,10,180.3,-106.9,29.7
276,277,2024-10-21 03:29:40,1729506580,2750,p,6.11,10,180.3,-106.9,29.7
277,278,2024-10-21 03:29:50,1729506590,2760,p,6.11,10,180.3,-106.9,29.7
278,279,2024-10-21 03:30:00,1729506600,2770,p,6.11,10,180.3,-106.9,29.7
279,280,2024-10-21 03:30:10,1729506610,2780,p,6.11,10,180.3,-106.9,29.7
280,281,2024-10-21 03:30:20,1729506620,2790,p,6.1,10,180.3,-106.9,29.7
281,282,2024-10-21 03:30:30,1729506630,2800,p,6.11,10,180.3,-106.9,29.7
282,283,2024-10-21 03:30:40,1729506640,2810,p,6.1,10,180.3,-106.9,29.7
283,284,2024-10-21 03:30:50,1729506650,2820,p,6.1,10,180.3,-106.9,29.7
284,285,2024-10-21 03:30:59,1729506659,2829,p,6.11,10,180.3,-106.9,29.7
285,286,2024-10-21 03:31:09,1729506669,2839,p,6.11,10,180.3,-106.9,29.7
286,287,2024-10-21 03:31:19,1729506679,2849,p,6.11,10,180.3,-106.9,29.7
287,288,2024-10-21 03:31:29,1729506689,2859,p,6.1,10,180.3,-106.9,29.7
288,289,2024-10-21 03:31:39,1729506699,2869,p,6.11,10,180.3,-106.9,29.7
289,290,2024-10-21 03:31:49,1729506709,2879,p,6.1,10,180.3,-106.9,29.7
290,291,2024-10-21 03:31:59,1729506719,2889,p,6.1,10,180.3,-106.9,29.7
291,292,2024-10-21 03:32:09,1729506729,2899,p,6.1,10,180.3,-106.9,29.7
292,293,2024-10-21 03:32:19,1729506739,2909,p,6.1,10,180.3,-106.9,29.7
293,294,2024-10-21 03:32:29,1729506749,2919,p,6.1,10,180.3,-106.9,29.7
294,295,2024-10-21 03:32:39,1729506759,2929,p,6.09,10,180.3,-106.9,29.7
295,296,2024-10-21 03:32:49,1729506769,2939,p,6.09,10,180.3,-106.9,29.7
296,297,2024-10-21 03:32:59,1729506779,2949,p,6.1,10,180.3,-106.9,29.7
297,298,2024-10-21 03:33:09,1729506789,2959,p,6.1,10.1,180.3,-106.9,29.7
298,299,2024-10-21 03:33:19,1729506799,2969,p,6.1,10.1,180.3,-106.9,29.7
299,300,2024-10-21 03:33:29,1729506809,2979,p,6.09,10.1,180.3,-106.9,29.7
300,301,2024-10-21 03:33:39,1729506819,2989,p,6.09,10,180.3,-106.9,29.7
301,302,2024-10-21 03:33:49,1729506829,2999,p,6.1,10,180.3,-106.9,29.7
302,303,2024-10-21 03:33:59,1729506839,3009,p,6.1,10,180.3,-106.9,29.7
303,304,2024-10-21 03:34:09,1729506849,3019,p,6.09,10,180.3,-106.9,29.7
304,305,2024-10-21 03:34:19,1729506859,3029,p,6.09,10,180.3,-106.9,29.7
305,306,2024-10-21 03:34:29,1729506869,3039,p,6.09,10.1,180.3,-106.9,29.7
306,307,2024-10-21 03:34:38,1729506878,3048,p,6.09,10.1,180.3,-106.9,29.7
307,308,2024-10-21 03:34:48,1729506888,3058,p,6.1,10,180.3,-106.9,29.7
308,309,2024-10-21 03:34:58,1729506898,3068,p,6.1,10,180.3,-106.9,29.7
309,310,2024-10-21 03:35:08,1729506908,3078,p,6.09,10,180.3,-106.9,29.7
310,311,2024-10-21 03:35:18,1729506918,3088,p,6.09,10,180.3,-106.9,29.7
311,312,2024-10-21 03:35:28,1729506928,3098,p,6.09,10,180.3,-106.9,29.7
312,313,2024-10-21 03:35:38,1729506938,3108,p,6.09,10,180.3,-106.9,29.7
313,314,2024-10-21 03:35:48,1729506948,3118,p,6.09,10,180.3,-106.9,29.7
314,315,2024-10-21 03:35:58,1729506958,3128,p,6.09,10,180.3,-106.9,29.7
315,316,2024-10-21 03:36:08,1729506968,3138,p,6.09,10,180.3,-106.9,29.7
316,317,2024-10-21 03:36:18,1729506978,3148,p,6.09,10,180.3,-106.9,29.7
317,318,2024-10-21 03:36:28,1729506988,3158,p,6.09,10,180.3,-106.9,29.7
318,319,2024-10-21 03:36:38,1729506998,3168,p,6.09,10,180.3,-106.9,29.7
319,320,2024-10-21 03:36:48,1729507008,3178,p,6.09,10,180.3,-106.9,29.7
320,321,2024-10-21 03:36:58,1729507018,3188,p,6.09,10,180.3,-106.9,29.7
321,322,2024-10-21 03:37:08,1729507028,3198,p,6.08,10,180.3,-106.9,29.7
322,323,2024-10-21 03:37:18,1729507038,3208,p,6.08,10,180.3,-106.9,29.7
323,324,2024-10-21 03:37:28,1729507048,3218,p,6.08,10,180.3,-106.9,29.7
324,325,2024-10-21 03:37:38,1729507058,3228,p,6.09,10,180.3,-106.9,29.7
325,326,2024-10-21 03:37:48,1729507068,3238,p,6.08,10,180.3,-106.9,29.7
326,327,2024-10-21 03:37:58,1729507078,3248,p,6.08,10,180.3,-106.9,29.7
327,328,2024-10-21 03:38:08,1729507088,3258,p,6.08,10,180.3,-106.9,29.7
328,329,2024-10-21 03:38:18,1729507098,3268,p,6.08,10,180.3,-106.9,29.7
329,330,2024-10-21 03:38:27,1729507107,3277,p,6.08,10,180.3,-106.9,29.7
330,331,2024-10-21 03:38:37,1729507117,3287,p,6.08,10,180.3,-106.9,29.7
331,332,2024-10-21 03:38:47,1729507127,3297,p,6.08,10,180.3,-106.9,29.7
332,333,2024-10-21 03:38:57,1729507137,3307,p,6.08,10,180.3,-106.9,29.7
333,334,2024-10-21 03:39:07,1729507147,3317,p,6.08,10,180.3,-106.9,29.7
334,335,2024-10-21 03:39:17,1729507157,3327,p,6.08,10,180.3,-106.9,29.7
335,336,2024-10-21 03:39:27,1729507167,3337,p,6.08,10,180.3,-106.9,29.7
336,337,2024-10-21 03:39:37,1729507177,3347,p,6.08,10,180.3,-106.9,29.7
337,338,2024-10-21 03:39:47,1729507187,3357,p,6.08,10,180.3,-106.9,29.7
338,339,2024-10-21 03:39:57,1729507197,3367,p,6.08,10,180.3,-106.9,29.7
339,340,2024-10-21 03:40:07,1729507207,3377,p,6.08,10,180.3,-106.9,29.7
340,341,2024-10-21 03:40:17,1729507217,3387,p,6.08,10,180.3,-106.9,29.7
341,342,2024-10-21 03:40:27,1729507227,3397,p,6.08,10,180.3,-106.9,29.7
342,343,2024-10-21 03:40:37,1729507237,3407,p,6.08,10,180.3,-106.9,29.7
343,344,2024-10-21 03:40:47,1729507247,3417,p,6.08,10,180.3,-106.9,29.7
344,345,2024-10-21 03:40:57,1729507257,3427,p,6.08,10,180.3,-106.9,29.7
345,346,2024-10-21 03:41:07,1729507267,3437,p,6.08,10,180.3,-106.9,29.7
346,347,2024-10-21 03:41:17,1729507277,3447,p,6.08,10,180.3,-106.9,29.7
347,348,2024-10-21 03:41:27,1729507287,3457,p,6.08,10,180.3,-106.9,29.7
348,349,2024-10-21 03:41:37,1729507297,3467,p,6.08,10,180.3,-106.9,29.7
349,350,2024-10-21 03:41:47,1729507307,3477,p,6.07,10,180.3,-106.9,29.7
350,351,2024-10-21 03:41:57,1729507317,3487,p,6.08,10,180.3,-106.9,29.7
351,352,2024-10-21 03:42:07,1729507327,3497,p,6.07,10,180.3,-106.9,29.7
352,353,2024-10-21 03:42:16,1729507336,3506,p,6.07,10,180.3,-106.9,29.7
353,354,2024-10-21 03:42:26,1729507346,3516,p,6.07,10,180.3,-106.9,29.7
354,355,2024-10-21 03:42:36,1729507356,3526,p,6.07,10,180.3,-106.9,29.7
355,356,2024-10-21 03:42:46,1729507366,3536,p,6.07,10,180.3,-106.9,29.7
356,357,2024-10-21 03:42:56,1729507376,3546,p,6.07,10,180.3,-106.9,29.7
357,358,2024-10-21 03:43:06,1729507386,3556,p,6.07,10,180.3,-106.9,29.7
358,359,2024-10-21 03:43:16,1729507396,3566,p,6.07,10,180.3,-106.9,29.7
359,360,2024-10-21 03:43:26,1729507406,3576,p,6.07,10,180.3,-106.9,29.7
360,361,2024-10-21 03:43:36,1729507416,3586,p,6.07,10,180.3,-106.9,29.7
361,362,2024-10-21 03:43:46,1729507426,3596,p,6.07,10,180.3,-106.9,29.7
362,363,2024-10-21 03:43:56,1729507436,3606,p,6.06,10,180.3,-106.9,29.7
363,364,2024-10-21 03:44:06,1729507446,3616,p,6.07,10,180.3,-106.9,29.7
364,365,2024-10-21 03:44:16,1729507456,3626,p,6.07,10,180.3,-106.9,29.7
365,366,2024-10-21 03:44:26,1729507466,3636,p,6.07,10,180.3,-106.9,29.7
366,367,2024-10-21 03:44:36,1729507476,3646,p,6.07,10,180.3,-106.9,29.7
367,368,2024-10-21 03:44:46,1729507486,3656,p,6.07,10,180.3,-106.9,29.7
368,369,2024-10-21 03:44:56,1729507496,3666,p,6.06,10,180.3,-106.9,29.7
369,370,2024-10-21 03:45:06,1729507506,3676,p,6.07,10,180.3,-106.9,29.7
370,371,2024-10-21 03:45:16,1729507516,3686,p,6.07,10,180.3,-106.9,29.7
371,372,2024-10-21 03:45:26,1729507526,3696,p,6.06,10,180.3,-106.9,29.7
372,373,2024-10-21 03:45:36,1729507536,3706,p,6.07,10,180.3,-106.9,29.7
373,374,2024-10-21 03:45:46,1729507546,3716,p,6.07,10,180.3,-106.9,29.7
374,375,2024-10-21 03:45:55,1729507555,3725,p,6.06,10,180.3,-106.9,29.7
375,376,2024-10-21 03:46:05,1729507565,3735,p,6.07,10,180.3,-106.9,29.7
376,377,2024-10-21 03:46:15,1729507575,3745,p,6.06,10.1,180.3,-106.9,29.7
377,378,2024-10-21 03:46:25,1729507585,3755,p,6.07,10,180.3,-106.9,29.7
378,379,2024-10-21 03:46:35,1729507595,3765,p,6.05,10,180.3,-106.9,29.7
379,380,2024-10-21 03:46:45,1729507605,3775,p,6.07,10,180.3,-106.9,29.7
380,381,2024-10-21 03:46:55,1729507615,3785,p,6.06,10,180.3,-106.9,29.7
381,382,2024-10-21 03:47:05,1729507625,3795,p,6.07,10.1,180.3,-106.9,29.7
382,383,2024-10-21 03:47:15,1729507635,3805,p,6.06,10.1,180.3,-106.9,29.7
383,384,2024-10-21 03:47:25,1729507645,3815,p,6.06,10.1,180.3,-106.9,29.7
384,385,2024-10-21 03:47:35,1729507655,3825,p,6.06,10.1,180.3,-106.9,29.7
385,386,2024-10-21 03:47:45,1729507665,3835,p,6.06,10.1,180.3,-106.9,29.7
386,387,2024-10-21 03:47:55,1729507675,3845,p,6.06,10.1,180.3,-106.9,29.7
387,388,2024-10-21 03:48:05,1729507685,3855,p,6.06,10,180.3,-106.9,29.7
388,389,2024-10-21 03:48:15,1729507695,3865,p,6.06,10,180.3,-106.9,29.7
389,390,2024-10-21 03:48:25,1729507705,3875,p,6.06,10,180.3,-106.9,29.7
390,391,2024-10-21 03:48:35,1729507715,3885,p,6.06,10,180.3,-106.9,29.7
391,392,2024-10-21 03:48:45,1729507725,3895,p,6.06,10,180.3,-106.9,29.7
392,393,2024-10-21 03:48:55,1729507735,3905,p,6.05,10,180.3,-106.9,29.7
393,394,2024-10-21 03:49:05,1729507745,3915,p,6.05,10,180.3,-106.9,29.7
394,395,2024-10-21 03:49:15,1729507755,3925,p,6.06,10,180.3,-106.9,29.7
395,396,2024-10-21 03:49:25,1729507765,3935,p,6.05,10,180.3,-106.9,29.7
396,397,2024-10-21 03:49:34,1729507774,3944,p,6.05,10,180.3,-106.9,29.7
397,398,2024-10-21 03:49:44,1729507784,3954,p,6.05,10,180.3,-106.9,29.7
398,399,2024-10-21 03:49:54,1729507794,3964,p,6.06,10.1,180.3,-106.9,29.7
399,400,2024-10-21 03:50:04,1729507804,3974,p,6.06,10.1,180.3,-106.9,29.7
400,401,2024-10-21 03:50:14,1729507814,3984,p,6.05,10.1,180.3,-106.9,29.7
401,402,2024-10-21 03:50:24,1729507824,3994,p,6.05,10.1,180.3,-106.9,29.7
402,403,2024-10-21 03:50:34,1729507834,4004,p,6.05,10.1,180.3,-106.9,29.7
403,404,2024-10-21 03:50:44,1729507844,4014,p,6.05,10.1,180.3,-106.9,29.7
404,405,2024-10-21 03:50:54,1729507854,4024,p,6.05,10,180.3,-106.9,29.7
405,406,2024-10-21 03:51:04,1729507864,4034,p,6.05,10,180.3,-106.9,29.7
406,407,2024-10-21 03:51:14,1729507874,4044,p,6.05,10.1,180.3,-106.9,29.7
407,408,2024-10-21 03:51:24,1729507884,4054,p,6.05,10.1,180.3,-106.9,29.7
408,409,2024-10-21 03:51:34,1729507894,4064,p,6.05,10.1,180.3,-106.9,29.7
409,410,2024-10-21 03:51:44,1729507904,4074,p,6.05,10.1,180.3,-106.9,29.7
410,411,2024-10-21 03:51:54,1729507914,4084,p,6.04,10.1,180.3,-106.9,29.7
411,412,2024-10-21 03:52:04,1729507924,4094,p,6.05,10.1,180.3,-106.9,29.7
412,413,2024-10-21 03:52:14,1729507934,4104,p,6.04,10.1,180.3,-106.9,29.7
413,414,2024-10-21 03:52:24,1729507944,4114,p,6.04,10.1,180.3,-106.9,29.7
414,415,2024-10-21 03:52:34,1729507954,4124,p,6.04,10.1,180.3,-106.9,29.7
415,416,2024-10-21 03:52:44,1729507964,4134,p,6.03,10.1,180.3,-106.9,29.7
416,417,2024-10-21 03:52:54,1729507974,4144,p,6.04,10.1,180.3,-106.9,29.7
417,418,2024-10-21 03:53:04,1729507984,4154,p,6.04,10,180.3,-106.9,29.7
418,419,2024-10-21 03:53:14,1729507994,4164,p,6.04,10,180.3,-106.9,29.7
419,420,2024-10-21 03:53:23,1729508003,4173,p,6.04,10,180.3,-106.9,29.7
420,421,2024-10-21 03:53:33,1729508013,4183,p,6.04,10,180.3,-106.9,29.7
421,422,2024-10-21 03:53:43,1729508023,4193,p,6.04,10,180.3,-106.9,29.7
422,423,2024-10-21 03:53:53,1729508033,4203,p,6.04,10,180.3,-106.9,29.7
423,424,2024-10-21 03:54:03,1729508043,4213,p,6.04,10,180.3,-106.9,29.7
424,425,2024-10-21 03:54:13,1729508053,4223,p,6.03,10,180.3,-106.9,29.7
425,426,2024-10-21 03:54:23,1729508063,4233,p,6.04,10,180.3,-106.9,29.7
426,427,2024-10-21 03:54:33,1729508073,4243,p,6.04,10,180.3,-106.9,29.7
427,428,2024-10-21 03:54:43,1729508083,4253,p,6.04,10,180.3,-106.9,29.7
428,429,2024-10-21 03:54:53,1729508093,4263,p,6.04,10.1,180.3,-106.9,29.7
429,430,2024-10-21 03:55:03,1729508103,4273,p,6.04,10,180.3,-106.9,29.7
430,431,2024-10-21 03:55:13,1729508113,4283,p,6.03,10,180.3,-106.9,29.7
431,432,2024-10-21 03:55:23,1729508123,4293,p,6.04,10,180.3,-106.9,29.7
432,433,2024-10-21 03:55:33,1729508133,4303,p,6.04,10,180.3,-106.9,29.7
433,434,2024-10-21 03:55:43,1729508143,4313,p,6.04,10,180.3,-106.9,29.7
434,435,2024-10-21 03:55:53,1729508153,4323,p,6.03,10,180.3,-106.9,29.7
435,436,2024-10-21 03:56:03,1729508163,4333,p,6.04,10,180.3,-106.9,29.7
436,437,2024-10-21 03:56:13,1729508173,4343,p,6.03,10,180.3,-106.9,29.7
437,438,2024-10-21 03:56:23,1729508183,4353,p,6.03,10,180.3,-106.9,29.7
438,439,2024-10-21 03:56:33,1729508193,4363,p,6.03,10,180.3,-106.9,29.7
439,440,2024-10-21 03:56:43,1729508203,4373,p,6.03,10,180.3,-106.9,29.7
440,441,2024-10-21 03:56:52,1729508212,4382,p,6.04,10,180.3,-106.9,29.7
441,442,2024-10-21 03:57:02,1729508222,4392,p,6.04,10,180.3,-106.9,29.7
442,443,2024-10-21 03:57:12,1729508232,4402,p,6.03,10,180.3,-106.9,29.7
443,444,2024-10-21 03:57:22,1729508242,4412,p,6.03,10.1,180.3,-106.9,29.7
444,445,2024-10-21 03:57:32,1729508252,4422,p,6.04,10.1,180.3,-106.9,29.7
445,446,2024-10-21 03:57:42,1729508262,4432,p,6.03,10,180.3,-106.9,29.7
446,447,2024-10-21 03:57:52,1729508272,4442,p,6.03,10,180.3,-106.9,29.7
447,448,2024-10-21 03:58:02,1729508282,4452,p,6.02,10,180.3,-106.9,29.7
448,449,2024-10-21 03:58:12,1729508292,4462,p,6.03,10,180.3,-106.9,29.7
449,450,2024-10-21 03:58:22,1729508302,4472,p,6.03,10.1,180.3,-106.9,29.7
450,451,2024-10-21 03:58:32,1729508312,4482,p,6.03,10.1,180.3,-106.9,29.7
451,452,2024-10-21 03:58:42,1729508322,4492,p,6.03,10,180.3,-106.9,29.7
452,453,2024-10-21 03:58:52,1729508332,4502,p,6.02,10,180.3,-106.9,29.7
453,454,2024-10-21 03:59:02,1729508342,4512,p,6.03,10.1,180.3,-106.9,29.7
454,455,2024-10-21 03:59:12,1729508352,4522,p,6.03,10.1,180.3,-106.9,29.7
455,456,2024-10-21 03:59:22,1729508362,4532,p,6.03,10.1,180.3,-106.9,29.7
456,457,2024-10-21 03:59:32,1729508372,4542,p,6.03,10,180.3,-106.9,29.7
457,458,2024-10-21 03:59:42,1729508382,4552,p,6.03,10.1,180.3,-106.9,29.7
458,459,2024-10-21 03:59:52,1729508392,4562,p,6.03,10.1,180.3,-106.9,29.7
459,460,2024-10-21 04:00:02,1729508402,4572,p,6.02,10.1,180.3,-106.9,29.7
460,461,2024-10-21 04:00:12,1729508412,4582,p,6.03,10.1,180.3,-106.9,29.7
461,462,2024-10-21 04:00:22,1729508422,4592,p,6.02,10.1,180.3,-106.9,29.7
462,463,2024-10-21 04:00:32,1729508432,4602,p,6.02,10.1,180.3,-106.9,29.7
463,464,2024-10-21 04:00:41,1729508441,4611,p,6.02,10.1,180.3,-106.9,29.7
464,465,2024-10-21 04:00:51,1729508451,4621,p,6.02,10.1,180.3,-106.9,29.7
465,466,2024-10-21 04:01:01,1729508461,4631,p,6.02,10.1,180.3,-106.9,29.7
466,467,2024-10-21 04:01:11,1729508471,4641,p,6.02,10.1,180.3,-106.9,29.7
467,468,2024-10-21 04:01:21,1729508481,4651,p,6.02,10.1,180.3,-106.9,29.7
468,469,2024-10-21 04:01:31,1729508491,4661,p,6.02,10.1,180.3,-106.9,29.7
469,470,2024-10-21 04:01:41,1729508501,4671,p,6.02,10.1,180.3,-106.9,29.7
470,471,2024-10-21 04:01:51,1729508511,4681,p,6.01,10.1,180.3,-106.9,29.7
471,472,2024-10-21 04:02:01,1729508521,4691,p,6.02,10.1,180.3,-106.9,29.7
472,473,2024-10-21 04:02:11,1729508531,4701,p,6.02,10.1,180.3,-106.9,29.7
473,474,2024-10-21 04:02:21,1729508541,4711,p,6.01,10.1,180.3,-106.9,29.7
474,475,2024-10-21 04:02:31,1729508551,4721,p,6.01,10.1,180.3,-106.9,29.7
475,476,2024-10-21 04:02:41,1729508561,4731,p,6.02,10.1,180.3,-106.9,29.7
476,477,2024-10-21 04:02:51,1729508571,4741,p,6.02,10.1,180.3,-106.9,29.7
477,478,2024-10-21 04:03:01,1729508581,4751,p,6.02,10.1,180.3,-106.9,29.7
478,479,2024-10-21 04:03:11,1729508591,4761,p,6.02,10.1,180.3,-106.9,29.7
479,480,2024-10-21 04:03:21,1729508601,4771,p,6.02,10.1,180.3,-106.9,29.7
480,481,2024-10-21 04:03:31,1729508611,4781,p,6.02,10.1,180.3,-106.9,29.7
481,482,2024-10-21 04:03:41,1729508621,4791,p,6.01,10.1,180.3,-106.9,29.7
482,483,2024-10-21 04:03:51,1729508631,4801,p,6.01,10.1,180.3,-106.9,29.7
483,484,2024-10-21 04:04:01,1729508641,4811,p,6.01,10.1,180.3,-106.9,29.7
484,485,2024-10-21 04:04:11,1729508651,4821,p,6.02,10.1,180.3,-106.9,29.7
485,486,2024-10-21 04:04:21,1729508661,4831,p,6.01,10.1,180.3,-106.9,29.7
486,487,2024-10-21 04:04:30,1729508670,4840,p,6.02,10.1,180.3,-106.9,29.7
487,488,2024-10-21 04:04:40,1729508680,4850,p,6.01,10.1,180.3,-106.9,29.7
488,489,2024-10-21 04:04:50,1729508690,4860,p,6.01,10.1,180.3,-106.9,29.7
489,490,2024-10-21 04:05:00,1729508700,4870,p,6.01,10.1,180.3,-106.9,29.7
490,491,2024-10-21 04:05:10,1729508710,4880,p,6.01,10.1,180.3,-106.9,29.7
491,492,2024-10-21 04:05:20,1729508720,4890,p,6.01,10.1,180.3,-106.9,29.7
492,493,2024-10-21 04:05:30,1729508730,4900,p,6.01,10.1,180.3,-106.9,29.7
493,494,2024-10-21 04:05:40,1729508740,4910,p,6.01,10.1,180.3,-106.9,29.7
494,495,2024-10-21 04:05:50,1729508750,4920,p,6.01,10.1,180.3,-106.9,29.7
495,496,2024-10-21 04:06:00,1729508760,4930,p,6.01,10.1,180.3,-106.9,29.7
496,497,2024-10-21 04:06:10,1729508770,4940,p,6.01,10.1,180.3,-106.9,29.7
497,498,2024-10-21 04:06:20,1729508780,4950,p,6.01,10.1,180.3,-106.9,29.7
498,499,2024-10-21 04:06:30,1729508790,4960,p,6,10.1,180.3,-106.9,29.7
499,500,2024-10-21 04:06:40,1729508800,4970,p,6,10.1,180.3,-106.9,29.7
500,501,2024-10-21 04:06:50,1729508810,4980,p,6.01,10.1,180.3,-106.9,29.7
501,502,2024-10-21 04:07:00,1729508820,4990,p,6.01,10.1,180.3,-106.9,29.7
502,503,2024-10-21 04:07:10,1729508830,5000,p,6.01,10.1,180.3,-106.9,29.7
503,504,2024-10-21 04:07:20,1729508840,5010,p,6.01,10.1,180.3,-106.9,29.7
504,505,2024-10-21 04:07:30,1729508850,5020,p,6.01,10.1,180.3,-106.9,29.7
505,506,2024-10-21 04:07:40,1729508860,5030,p,6.01,10.1,180.3,-106.9,29.7
506,507,2024-10-21 04:07:50,1729508870,5040,p,6.01,10.1,180.3,-106.9,29.7
507,508,2024-10-21 04:08:00,1729508880,5050,p,6.01,10.1,180.3,-106.9,29.7
508,509,2024-10-21 04:08:09,1729508889,5059,p,6.01,10.1,180.3,-106.9,29.7
509,510,2024-10-21 04:08:19,1729508899,5069,p,6.01,10.1,180.3,-106.9,29.7
510,511,2024-10-21 04:08:29,1729508909,5079,p,6,10.1,180.3,-106.9,29.7
511,512,2024-10-21 04:08:39,1729508919,5089,p,6,10.1,180.3,-106.9,29.7
512,513,2024-10-21 04:08:49,1729508929,5099,p,6,10.1,180.3,-106.9,29.7
513,514,2024-10-21 04:08:59,1729508939,5109,p,6,10.1,180.3,-106.9,29.7
514,515,2024-10-21 04:09:09,1729508949,5119,p,6,10.1,180.3,-106.9,29.7
515,516,2024-10-21 04:09:19,1729508959,5129,p,6,10.1,180.3,-106.9,29.7
516,517,2024-10-21 04:09:29,1729508969,5139,p,6,10.1,180.3,-106.9,29.7
517,518,2024-10-21 04:09:39,1729508979,5149,p,6,10.1,180.3,-106.9,29.7
518,519,2024-10-21 04:09:49,1729508989,5159,p,6,10.1,180.3,-106.9,29.7
519,520,2024-10-21 04:09:59,1729508999,5169,p,6,10.1,180.3,-106.9,29.7
520,521,2024-10-21 04:10:09,1729509009,5179,p,6,10.1,180.3,-106.9,29.7
521,522,2024-10-21 04:10:19,1729509019,5189,p,6,10.1,180.3,-106.9,29.7
522,523,2024-10-21 04:10:29,1729509029,5199,p,6,10.1,180.3,-106.9,29.7
523,524,2024-10-21 04:10:39,1729509039,5209,p,6,10.1,180.3,-106.9,29.7
524,525,2024-10-21 04:10:49,1729509049,5219,p,6,10.1,180.3,-106.9,29.7
525,526,2024-10-21 04:10:59,1729509059,5229,p,6,10.1,180.3,-106.9,29.7
526,527,2024-10-21 04:11:09,1729509069,5239,p,6,10.1,180.3,-106.9,29.7
527,528,2024-10-21 04:11:19,1729509079,5249,p,6,10.1,180.3,-106.9,29.7
528,529,2024-10-21 04:11:29,1729509089,5259,p,6,10.1,180.3,-106.9,29.7
529,530,2024-10-21 04:11:39,1729509099,5269,p,6,10.1,180.3,-106.9,29.7
530,531,2024-10-21 04:11:49,1729509109,5279,p,6,10.1,180.3,-106.9,29.7
531,532,2024-10-21 04:11:58,1729509118,5288,p,6,10.1,180.3,-106.9,29.7
532,533,2024-10-21 04:12:08,1729509128,5298,p,6,10.1,180.3,-106.9,29.7
533,534,2024-10-21 04:12:18,1729509138,5308,p,6,10.1,180.3,-106.9,29.7
534,535,2024-10-21 04:12:28,1729509148,5318,p,6,10.1,180.3,-106.9,29.7
535,536,2024-10-21 04:12:38,1729509158,5328,p,6,10.1,180.3,-106.9,29.7
536,537,2024-10-21 04:12:48,1729509168,5338,p,5.99,10.1,180.3,-106.9,29.7
537,538,2024-10-21 04:12:58,1729509178,5348,p,6,10.1,180.3,-106.9,29.7
538,539,2024-10-21 04:13:08,1729509188,5358,p,6,10.1,180.3,-106.9,29.7
539,540,2024-10-21 04:13:18,1729509198,5368,p,6,10.2,180.3,-106.9,29.7
540,541,2024-10-21 04:13:28,1729509208,5378,p,6,10.2,180.3,-106.9,29.7
541,542,2024-10-21 04:13:38,1729509218,5388,p,6,10.2,180.3,-106.9,29.7
542,543,2024-10-21 04:13:48,1729509228,5398,p,5.99,10.2,180.3,-106.9,29.7
543,544,2024-10-21 04:13:58,1729509238,5408,p,6,10.2,180.3,-106.9,29.7
544,545,2024-10-21 04:14:08,1729509248,5418,p,5.99,10.2,180.3,-106.9,29.7
545,546,2024-10-21 04:14:18,1729509258,5428,p,5.99,10.2,180.3,-106.9,29.7
546,547,2024-10-21 04:14:28,1729509268,5438,p,5.99,10.2,180.3,-106.9,29.7
547,548,2024-10-21 04:14:38,1729509278,5448,p,5.99,10.2,180.3,-106.9,29.7
548,549,2024-10-21 04:14:48,1729509288,5458,p,5.99,10.2,180.3,-106.9,29.7
549,550,2024-10-21 04:14:58,1729509298,5468,p,5.99,10.2,180.3,-106.9,29.7
550,551,2024-10-21 04:15:08,1729509308,5478,p,5.99,10.2,180.3,-106.9,29.7
551,552,2024-10-21 04:15:18,1729509318,5488,p,5.99,10.2,180.3,-106.9,29.7
552,553,2024-10-21 04:15:28,1729509328,5498,p,5.99,10.2,180.3,-106.9,29.7
553,554,2024-10-21 04:15:37,1729509337,5507,p,5.99,10.2,180.3,-106.9,29.7
554,555,2024-10-21 04:15:47,1729509347,5517,p,5.99,10.2,180.3,-106.9,29.7
555,556,2024-10-21 04:15:57,1729509357,5527,p,5.99,10.2,180.3,-106.9,29.7
556,557,2024-10-21 04:16:07,1729509367,5537,p,5.99,10.2,180.3,-106.9,29.7
557,558,2024-10-21 04:16:17,1729509377,5547,p,5.99,10.1,180.3,-106.9,29.7
558,559,2024-10-21 04:16:27,1729509387,5557,p,5.99,10.1,180.3,-106.9,29.7
559,560,2024-10-21 04:16:37,1729509397,5567,p,5.98,10.1,180.3,-106.9,29.7
560,561,2024-10-21 04:16:47,1729509407,5577,p,5.99,10,180.3,-106.9,29.7
561,562,2024-10-21 04:16:57,1729509417,5587,p,5.99,10,180.3,-106.9,29.7
562,563,2024-10-21 04:17:07,1729509427,5597,p,5.99,10,180.3,-106.9,29.7
563,564,2024-10-21 04:17:17,1729509437,5607,p,5.99,10,180.3,-106.9,29.7
564,565,2024-10-21 04:17:27,1729509447,5617,p,5.99,10,180.3,-106.9,29.7
565,566,2024-10-21 04:17:37,1729509457,5627,p,5.98,10,180.3,-106.9,29.7
566,567,2024-10-21 04:17:47,1729509467,5637,p,5.98,10,180.3,-106.9,29.7
567,568,2024-10-21 04:17:57,1729509477,5647,p,5.98,10,180.3,-106.9,29.7
568,569,2024-10-21 04:18:07,1729509487,5657,p,5.98,10,180.3,-106.9,29.7
569,570,2024-10-21 04:18:17,1729509497,5667,p,5.98,10,180.3,-106.9,29.7
570,571,2024-10-21 04:18:27,1729509507,5677,p,5.97,10,180.3,-106.9,29.7
571,572,2024-10-21 04:18:37,1729509517,5687,p,5.98,10,180.3,-106.9,29.7
572,573,2024-10-21 04:18:47,1729509527,5697,p,5.98,10,180.3,-106.9,29.7
573,574,2024-10-21 04:18:57,1729509537,5707,p,5.98,10,180.3,-106.9,29.7
574,575,2024-10-21 04:19:07,1729509547,5717,p,5.98,10,180.3,-106.9,29.7
575,576,2024-10-21 04:19:17,1729509557,5727,p,5.99,10,180.3,-106.9,29.7
576,577,2024-10-21 04:19:26,1729509566,5736,p,5.98,10,180.3,-106.9,29.7
577,578,2024-10-21 04:19:36,1729509576,5746,p,5.98,10,180.3,-106.9,29.7
578,579,2024-10-21 04:19:46,1729509586,5756,p,5.98,10,180.3,-106.9,29.7
579,580,2024-10-21 04:19:56,1729509596,5766,p,5.98,10,180.3,-106.9,29.7
580,581,2024-10-21 04:20:06,1729509606,5776,p,5.98,10,180.3,-106.9,29.7
581,582,2024-10-21 04:20:16,1729509616,5786,p,5.98,10,180.3,-106.9,29.7
582,583,2024-10-21 04:20:26,1729509626,5796,p,5.98,10,180.3,-106.9,29.7
583,584,2024-10-21 04:20:36,1729509636,5806,p,5.97,10,180.3,-106.9,29.7
584,585,2024-10-21 04:20:46,1729509646,5816,p,5.97,10,180.3,-106.9,29.7
585,586,2024-10-21 04:20:56,1729509656,5826,p,5.98,10,180.3,-106.9,29.7
586,587,2024-10-21 04:21:06,1729509666,5836,p,5.98,10.1,180.3,-106.9,29.7
587,588,2024-10-21 04:21:16,1729509676,5846,p,5.97,10.1,180.3,-106.9,29.7
588,589,2024-10-21 04:21:26,1729509686,5856,p,5.98,10.1,180.3,-106.9,29.7
589,590,2024-10-21 04:21:36,1729509696,5866,p,5.98,10.1,180.3,-106.9,29.7
590,591,2024-10-21 04:21:46,1729509706,5876,p,5.98,10.1,180.3,-106.9,29.7
591,592,2024-10-21 04:21:56,1729509716,5886,p,5.97,10.1,180.3,-106.9,29.7
592,593,2024-10-21 04:22:06,1729509726,5896,p,5.97,10.1,180.3,-106.9,29.7
593,594,2024-10-21 04:22:16,1729509736,5906,p,5.98,10.1,180.3,-106.9,29.7
594,595,2024-10-21 04:22:26,1729509746,5916,p,5.98,10.1,180.3,-106.9,29.7
595,596,2024-10-21 04:22:36,1729509756,5926,p,5.97,10.1,180.3,-106.9,29.7
596,597,2024-10-21 04:22:46,1729509766,5936,p,5.98,10.1,180.3,-106.9,29.7
597,598,2024-10-21 04:22:56,1729509776,5946,p,5.98,10.1,180.3,-106.9,29.7
598,599,2024-10-21 04:23:05,1729509785,5955,p,5.97,10.1,180.3,-106.9,29.7
599,600,2024-10-21 04:23:15,1729509795,5965,p,5.98,10.2,180.3,-106.9,29.7
600,601,2024-10-21 04:23:25,1729509805,5975,p,5.98,10.2,180.3,-106.9,29.7
601,602,2024-10-21 04:23:35,1729509815,5985,p,5.98,10.2,180.3,-106.9,29.7
602,603,2024-10-21 04:23:45,1729509825,5995,p,5.99,10.2,180.3,-106.9,29.7
603,604,2024-10-21 04:23:55,1729509835,6005,p,5.97,10.2,180.3,-106.9,29.7
604,605,2024-10-21 04:24:05,1729509845,6015,p,5.98,10.2,180.3,-106.9,29.7
605,606,2024-10-21 04:24:15,1729509855,6025,p,5.98,10.2,180.3,-107,29.7
606,607,2024-10-21 04:24:25,1729509865,6035,p,5.98,10.2,180.3,-107,29.7
607,608,2024-10-21 04:24:35,1729509875,6045,p,5.98,10.2,180.3,-107,29.7
608,609,2024-10-21 04:24:45,1729509885,6055,p,5.97,10.2,180.3,-107,29.7
609,610,2024-10-21 04:24:55,1729509895,6065,p,5.97,10.2,180.3,-107,29.7
610,611,2024-10-21 04:25:05,1729509905,6075,p,5.97,10.2,180.3,-107,29.7
611,612,2024-10-21 04:25:15,1729509915,6085,p,5.97,10.2,180.3,-107,29.7
612,613,2024-10-21 04:25:25,1729509925,6095,p,5.97,10.2,180.3,-107,29.7
613,614,2024-10-21 04:25:35,1729509935,6105,p,5.98,10.1,180.3,-107,29.7
614,615,2024-10-21 04:25:45,1729509945,6115,p,5.97,10.1,180.3,-107,29.7
615,616,2024-10-21 04:25:55,1729509955,6125,p,5.97,10.1,180.3,-107,29.7
616,617,2024-10-21 04:26:05,1729509965,6135,p,5.97,10.1,180.3,-107,29.7
617,618,2024-10-21 04:26:15,1729509975,6145,p,5.98,10.1,180.3,-107,29.7
618,619,2024-10-21 04:26:25,1729509985,6155,p,5.97,10.1,180.3,-107,29.7
619,620,2024-10-21 04:26:35,1729509995,6165,p,5.97,10.1,180.3,-107,29.7
620,621,2024-10-21 04:26:45,1729510005,6175,p,5.97,10.1,180.3,-107,29.7
621,622,2024-10-21 04:26:54,1729510014,6184,p,5.98,10.1,180.3,-107,29.7
622,623,2024-10-21 04:27:04,1729510024,6194,p,5.97,10.1,180.3,-107,29.7
623,624,2024-10-21 04:27:14,1729510034,6204,p,5.98,10.1,180.3,-107,29.7
624,625,2024-10-21 04:27:24,1729510044,6214,p,5.98,10.1,180.3,-107,29.7
625,626,2024-10-21 04:27:34,1729510054,6224,p,5.97,10.1,180.3,-107,29.7
626,627,2024-10-21 04:27:44,1729510064,6234,p,5.97,10.1,180.3,-107,29.7
627,628,2024-10-21 04:27:54,1729510074,6244,p,5.97,10.1,180.3,-107,29.7
628,629,2024-10-21 04:28:04,1729510084,6254,p,5.97,10.1,180.3,-107,29.7
629,630,2024-10-21 04:28:14,1729510094,6264,p,5.96,10.1,180.3,-107,29.7
630,631,2024-10-21 04:28:24,1729510104,6274,p,5.97,10.1,180.3,-107,29.7
631,632,2024-10-21 04:28:34,1729510114,6284,p,5.97,10.1,180.3,-107,29.7
632,633,2024-10-21 04:28:44,1729510124,6294,p,5.97,10.1,180.3,-107,29.7
633,634,2024-10-21 04:28:54,1729510134,6304,p,5.97,10.1,180.3,-107,29.7
634,635,2024-10-21 04:29:04,1729510144,6314,p,5.97,10.1,180.3,-107,29.7
635,636,2024-10-21 04:29:14,1729510154,6324,p,5.97,10,180.3,-107,29.7
636,637,2024-10-21 04:29:24,1729510164,6334,p,5.96,10,180.3,-107,29.7
637,638,2024-10-21 04:29:34,1729510174,6344,p,5.97,10,180.3,-107,29.7
638,639,2024-10-21 04:29:44,1729510184,6354,p,5.97,10.1,180.3,-107,29.7
639,640,2024-10-21 04:29:54,1729510194,6364,p,5.97,10.1,180.3,-107,29.7
640,641,2024-10-21 04:30:04,1729510204,6374,p,5.97,10.1,180.3,-107,29.7
641,642,2024-10-21 04:30:14,1729510214,6384,p,5.97,10.1,180.3,-107,29.7
642,643,2024-10-21 04:30:24,1729510224,6394,p,5.97,10.1,180.3,-107,29.7
643,644,2024-10-21 04:30:33,1729510233,6403,p,5.97,10.1,180.3,-107,29.7
644,645,2024-10-21 04:30:43,1729510243,6413,p,5.97,10.1,180.3,-107,29.7
645,646,2024-10-21 04:30:53,1729510253,6423,p,5.97,10.1,180.3,-107,29.7
646,647,2024-10-21 04:31:03,1729510263,6433,p,5.97,10.1,180.3,-107,29.7
647,648,2024-10-21 04:31:13,1729510273,6443,p,5.97,10.1,180.3,-107,29.7
648,649,2024-10-21 04:31:23,1729510283,6453,p,5.97,10.1,180.3,-107,29.7
649,650,2024-10-21 04:31:33,1729510293,6463,p,5.96,10.1,180.3,-107,29.7
650,651,2024-10-21 04:31:43,1729510303,6473,p,5.97,10.1,180.3,-107,29.7
651,652,2024-10-21 04:31:53,1729510313,6483,p,5.97,10.1,180.3,-107,29.7
652,653,2024-10-21 04:32:03,1729510323,6493,p,5.97,10.1,180.3,-107,29.7
653,654,2024-10-21 04:32:13,1729510333,6503,p,5.97,10,180.3,-107,29.7
654,655,2024-10-21 04:32:23,1729510343,6513,p,5.95,10,180.3,-107,29.7
655,656,2024-10-21 04:32:33,1729510353,6523,p,5.96,10,180.3,-107,29.7
656,657,2024-10-21 04:32:43,1729510363,6533,p,5.97,10.1,180.3,-107,29.7
657,658,2024-10-21 04:32:53,1729510373,6543,p,5.96,10,180.3,-107,29.7
658,659,2024-10-21 04:33:03,1729510383,6553,p,5.96,10,180.3,-107,29.7
659,660,2024-10-21 04:33:13,1729510393,6563,p,5.97,10,180.3,-107,29.7
660,661,2024-10-21 04:33:23,1729510403,6573,p,5.97,10,180.3,-107,29.7
661,662,2024-10-21 04:33:33,1729510413,6583,p,5.97,10,180.3,-107,29.7
662,663,2024-10-21 04:33:43,1729510423,6593,p,5.96,10,180.3,-107,29.7
663,664,2024-10-21 04:33:53,1729510433,6603,p,5.96,10,180.3,-107,29.7
664,665,2024-10-21 04:34:03,1729510443,6613,p,5.96,10,180.3,-107,29.7
665,666,2024-10-21 04:34:12,1729510452,6622,p,5.96,10,180.3,-107,29.7
666,667,2024-10-21 04:34:22,1729510462,6632,p,5.96,10,180.3,-107,29.7
667,668,2024-10-21 04:34:32,1729510472,6642,p,5.96,10,180.3,-107,29.7
668,669,2024-10-21 04:34:42,1729510482,6652,p,5.97,10,180.3,-107,29.7
669,670,2024-10-21 04:34:52,1729510492,6662,p,5.96,10,180.3,-107,29.7
670,671,2024-10-21 04:35:02,1729510502,6672,p,5.96,10,180.3,-107,29.7
671,672,2024-10-21 04:35:12,1729510512,6682,p,5.95,10,180.3,-107,29.7
672,673,2024-10-21 04:35:22,1729510522,6692,p,5.96,10,180.3,-107,29.7
673,674,2024-10-21 04:35:32,1729510532,6702,p,5.96,10,180.3,-107,29.7
674,675,2024-10-21 04:35:42,1729510542,6712,p,5.97,10,180.3,-107,29.7
675,676,2024-10-21 04:35:52,1729510552,6722,p,5.96,10,180.3,-107,29.7
676,677,2024-10-21 04:36:02,1729510562,6732,p,5.96,10,180.3,-107,29.7
677,678,2024-10-21 04:36:12,1729510572,6742,p,5.96,10,180.3,-107,29.7
678,679,2024-10-21 04:36:22,1729510582,6752,p,5.96,10,180.3,-107,29.7
679,680,2024-10-21 04:36:32,1729510592,6762,p,5.96,10,180.3,-107,29.7
680,681,2024-10-21 04:36:42,1729510602,6772,p,5.96,10,180.3,-107,29.7
681,682,2024-10-21 04:36:52,1729510612,6782,p,5.97,10,180.3,-107,29.7
682,683,2024-10-21 04:37:02,1729510622,6792,p,5.96,10,180.3,-107,29.7
683,684,2024-10-21 04:37:12,1729510632,6802,p,5.96,10,180.3,-107,29.7
684,685,2024-10-21 04:37:22,1729510642,6812,p,5.95,10,180.3,-107,29.7
685,686,2024-10-21 04:37:32,1729510652,6822,p,5.95,10,180.3,-107,29.7
686,687,2024-10-21 04:37:42,1729510662,6832,p,5.96,10,180.3,-107,29.7
687,688,2024-10-21 04:37:52,1729510672,6842,p,5.96,10,180.3,-107,29.7
688,689,2024-10-21 04:38:01,1729510681,6851,p,5.96,10,180.3,-107,29.7
689,690,2024-10-21 04:38:11,1729510691,6861,p,5.96,10,180.3,-107,29.7
690,691,2024-10-21 04:38:21,1729510701,6871,p,5.96,10,180.3,-107,29.7
691,692,2024-10-21 04:38:31,1729510711,6881,p,5.96,10,180.3,-107,29.7
692,693,2024-10-21 04:38:41,1729510721,6891,p,5.96,10,180.3,-107,29.7
693,694,2024-10-21 04:38:51,1729510731,6901,p,5.96,10,180.3,-107,29.7
694,695,2024-10-21 04:39:01,1729510741,6911,p,5.96,10,180.3,-107,29.7
695,696,2024-10-21 04:39:11,1729510751,6921,p,5.97,10,180.3,-107,29.7
696,697,2024-10-21 04:39:21,1729510761,6931,p,5.96,10,180.3,-107,29.7
697,698,2024-10-21 04:39:31,1729510771,6941,p,5.96,10,180.3,-107,29.7
698,699,2024-10-21 04:39:41,1729510781,6951,p,5.96,10.1,180.3,-107,29.7
699,700,2024-10-21 04:39:51,1729510791,6961,p,5.95,10.1,180.3,-107,29.7
700,701,2024-10-21 04:40:01,1729510801,6971,p,5.95,10.1,180.3,-107,29.7
701,702,2024-10-21 04:40:11,1729510811,6981,p,5.96,10.1,180.3,-107,29.7
702,703,2024-10-21 04:40:21,1729510821,6991,p,5.96,10.1,180.3,-107,29.7
703,704,2024-10-21 04:40:31,1729510831,7001,p,5.96,10.1,180.3,-107,29.7
704,705,2024-10-21 04:40:41,1729510841,7011,p,5.95,10.1,180.3,-107,29.7
705,706,2024-10-21 04:40:51,1729510851,7021,p,5.96,10.1,180.3,-107,29.7
706,707,2024-10-21 04:41:01,1729510861,7031,p,5.96,10.1,180.3,-107,29.7
707,708,2024-10-21 04:41:11,1729510871,7041,p,5.96,10.1,180.3,-107,29.7
708,709,2024-10-21 04:41:21,1729510881,7051,p,5.96,10.1,180.3,-107,29.7
709,710,2024-10-21 04:41:31,1729510891,7061,p,5.96,10.1,180.3,-107,29.7
710,711,2024-10-21 04:41:40,1729510900,7070,p,5.96,10.1,180.3,-107,29.7
711,712,2024-10-21 04:41:50,1729510910,7080,p,5.96,10.1,180.3,-107,29.7
712,713,2024-10-21 04:42:00,1729510920,7090,p,5.96,10.1,180.3,-107,29.7
713,714,2024-10-21 04:42:10,1729510930,7100,p,5.96,10.1,180.3,-107,29.7
714,715,2024-10-21 04:42:20,1729510940,7110,p,5.96,10.1,180.3,-107,29.7
715,716,2024-10-21 04:42:30,1729510950,7120,p,5.96,10.1,180.3,-107,29.7
716,717,2024-10-21 04:42:40,1729510960,7130,p,5.96,10.1,180.3,-107,29.7
717,718,2024-10-21 04:42:50,1729510970,7140,p,5.95,10.1,180.3,-107,29.7
718,719,2024-10-21 04:43:00,1729510980,7150,p,5.96,10.1,180.3,-107,29.7
719,720,2024-10-21 04:43:10,1729510990,7160,p,5.95,10.1,180.3,-107,29.7
720,721,2024-10-21 04:43:20,1729511000,7170,p,5.96,10.1,180.3,-107,29.7
721,722,2024-10-21 04:43:30,1729511010,7180,p,5.96,10.1,180.3,-107,29.7
722,723,2024-10-21 04:43:40,1729511020,7190,p,5.96,10.1,180.3,-107,29.7
723,724,2024-10-21 04:43:50,1729511030,7200,p,5.96,10.1,180.3,-107,29.7
724,725,2024-10-21 04:44:00,1729511040,7210,p,5.96,10.1,180.3,-107,29.7
725,726,2024-10-21 04:44:10,1729511050,7220,p,5.97,10.1,180.3,-107,29.7
726,727,2024-10-21 04:44:20,1729511060,7230,p,5.96,10.1,180.3,-107,29.7
727,728,2024-10-21 04:44:30,1729511070,7240,p,5.96,10.1,180.3,-107,29.7
728,729,2024-10-21 04:44:40,1729511080,7250,p,5.96,10.1,180.3,-107,29.7
729,730,2024-10-21 04:44:50,1729511090,7260,p,5.96,10.1,180.3,-107,29.7
730,731,2024-10-21 04:45:00,1729511100,7270,p,5.96,10.1,180.3,-107,29.7
731,732,2024-10-21 04:45:10,1729511110,7280,p,5.96,10.1,180.3,-107,29.7
732,733,2024-10-21 04:45:20,1729511120,7290,p,5.96,10.1,180.3,-107,29.7
733,734,2024-10-21 04:45:29,1729511129,7299,p,5.96,10.1,180.3,-107,29.7
734,735,2024-10-21 04:45:39,1729511139,7309,p,5.96,10,180.3,-107,29.7
735,736,2024-10-21 04:45:49,1729511149,7319,p,5.96,10,180.3,-107,29.7
736,737,2024-10-21 04:45:59,1729511159,7329,p,5.96,10,180.3,-107,29.7
737,738,2024-10-21 04:46:09,1729511169,7339,p,5.97,10,180.3,-107,29.7
738,739,2024-10-21 04:46:19,1729511179,7349,p,5.96,10,180.3,-107,29.7
739,740,2024-10-21 04:46:29,1729511189,7359,p,5.96,10,180.3,-107,29.7
740,741,2024-10-21 04:46:39,1729511199,7369,p,5.96,10,180.3,-107,29.7
741,742,2024-10-21 04:46:49,1729511209,7379,p,5.95,10,180.3,-107,29.7
742,743,2024-10-21 04:46:59,1729511219,7389,p,5.95,10,180.3,-107,29.7
743,744,2024-10-21 04:47:09,1729511229,7399,p,5.96,10,180.3,-107,29.7
744,745,2024-10-21 04:47:19,1729511239,7409,p,5.96,10,180.3,-107,29.7
745,746,2024-10-21 04:47:29,1729511249,7419,p,5.96,10.1,180.3,-107,29.7
746,747,2024-10-21 04:47:39,1729511259,7429,p,5.96,10,180.3,-107,29.7
747,748,2024-10-21 04:47:49,1729511269,7439,p,5.95,10,180.3,-107,29.7
748,749,2024-10-21 04:47:59,1729511279,7449,p,5.95,10.1,180.3,-107,29.7
749,750,2024-10-21 04:48:09,1729511289,7459,p,5.95,10.1,180.3,-107,29.7
750,751,2024-10-21 04:48:19,1729511299,7469,p,5.96,10.1,180.3,-107,29.7
751,752,2024-10-21 04:48:29,1729511309,7479,p,5.96,10.1,180.3,-107,29.7
752,753,2024-10-21 04:48:39,1729511319,7489,p,5.95,10.1,180.3,-107,29.7
753,754,2024-10-21 04:48:49,1729511329,7499,p,5.95,10.1,180.3,-107,29.7
754,755,2024-10-21 04:48:59,1729511339,7509,p,5.95,10.1,180.3,-107,29.7
755,756,2024-10-21 04:49:08,1729511348,7518,p,5.95,10.1,180.3,-107,29.7
756,757,2024-10-21 04:49:18,1729511358,7528,p,5.95,10.1,180.3,-107,29.7
757,758,2024-10-21 04:49:28,1729511368,7538,p,5.95,10.1,180.3,-107,29.7
758,759,2024-10-21 04:49:38,1729511378,7548,p,5.96,10.1,180.3,-107,29.7
759,760,2024-10-21 04:49:48,1729511388,7558,p,5.96,10.1,180.3,-107,29.7
760,761,2024-10-21 04:49:58,1729511398,7568,p,5.95,10.1,180.3,-107,29.7
761,762,2024-10-21 04:50:08,1729511408,7578,p,5.96,10.1,180.3,-107,29.7
762,763,2024-10-21 04:50:18,1729511418,7588,p,5.96,10.1,180.3,-107,29.7
763,764,2024-10-21 04:50:28,1729511428,7598,p,5.95,10.1,180.3,-107,29.7
764,765,2024-10-21 04:50:38,1729511438,7608,p,5.96,10.1,180.3,-107,29.7
765,766,2024-10-21 04:50:48,1729511448,7618,p,5.95,10.1,180.3,-107,29.7
766,767,2024-10-21 04:50:58,1729511458,7628,p,5.95,10.1,180.3,-107,29.7
767,768,2024-10-21 04:51:08,1729511468,7638,p,5.95,10.1,180.3,-107,29.7
768,769,2024-10-21 04:51:18,1729511478,7648,p,5.96,10.1,180.3,-107,29.7
769,770,2024-10-21 04:51:28,1729511488,7658,p,5.96,10.1,180.3,-107,29.7
770,771,2024-10-21 04:51:38,1729511498,7668,p,5.96,10.1,180.3,-107,29.7
771,772,2024-10-21 04:51:48,1729511508,7678,p,5.95,10.1,180.3,-107,29.7
772,773,2024-10-21 04:51:58,1729511518,7688,p,5.95,10.1,180.3,-107,29.7
773,774,2024-10-21 04:52:08,1729511528,7698,p,5.95,10.1,180.3,-107,29.7
774,775,2024-10-21 04:52:18,1729511538,7708,p,5.95,10.1,180.3,-107,29.7
775,776,2024-10-21 04:52:28,1729511548,7718,p,5.95,10.1,180.3,-107,29.7
776,777,2024-10-21 04:52:38,1729511558,7728,p,5.95,10.1,180.3,-107,29.7
777,778,2024-10-21 04:52:47,1729511567,7737,p,5.95,10.1,180.3,-107,29.7
778,779,2024-10-21 04:52:57,1729511577,7747,p,5.95,10.1,180.3,-107,29.7
779,780,2024-10-21 04:53:07,1729511587,7757,p,5.96,10.1,180.3,-107,29.7
780,781,2024-10-21 04:53:17,1729511597,7767,p,5.95,10.1,180.3,-107,29.7
781,782,2024-10-21 04:53:27,1729511607,7777,p,5.96,10.1,180.3,-107,29.7
782,783,2024-10-21 04:53:37,1729511617,7787,p,5.95,10,180.3,-107,29.7
783,784,2024-10-21 04:53:47,1729511627,7797,p,5.95,10.1,180.3,-107,29.7
784,785,2024-10-21 04:53:57,1729511637,7807,p,5.94,10.1,180.3,-107,29.7
785,786,2024-10-21 04:54:07,1729511647,7817,p,5.95,10.1,180.3,-107,29.7
786,787,2024-10-21 04:54:17,1729511657,7827,p,5.95,10.1,180.3,-107,29.7
787,788,2024-10-21 04:54:27,1729511667,7837,p,5.95,10.1,180.3,-107,29.7
788,789,2024-10-21 04:54:37,1729511677,7847,p,5.96,10.1,180.3,-107,29.7
789,790,2024-10-21 04:54:47,1729511687,7857,p,5.95,10.1,180.3,-107,29.7
790,791,2024-10-21 04:54:57,1729511697,7867,p,5.95,10.1,180.3,-107,29.7
791,792,2024-10-21 04:55:07,1729511707,7877,p,5.95,10.1,180.3,-107,29.7
792,793,2024-10-21 04:55:17,1729511717,7887,p,5.95,10.1,180.3,-107,29.7
793,794,2024-10-21 04:55:27,1729511727,7897,p,5.95,10.1,180.3,-107,29.7
794,795,2024-10-21 04:55:37,1729511737,7907,p,5.95,10.1,180.3,-107,29.7
795,796,2024-10-21 04:55:47,1729511747,7917,p,5.95,10.1,180.3,-107,29.7
796,797,2024-10-21 04:55:57,1729511757,7927,p,5.95,10.1,180.3,-107,29.7
797,798,2024-10-21 04:56:07,1729511767,7937,p,5.96,10.1,180.3,-107,29.7
798,799,2024-10-21 04:56:17,1729511777,7947,p,5.95,10.1,180.3,-107,29.7
799,800,2024-10-21 04:56:27,1729511787,7957,p,5.95,10.1,180.3,-107,29.7
800,801,2024-10-21 04:56:36,1729511796,7966,p,5.95,10.1,180.3,-107,29.7
801,802,2024-10-21 04:56:46,1729511806,7976,p,5.95,10.1,180.3,-107,29.7
802,803,2024-10-21 04:56:56,1729511816,7986,p,5.96,10.1,180.3,-107,29.7
803,804,2024-10-21 04:57:06,1729511826,7996,p,5.95,10.1,180.3,-107,29.7
804,805,2024-10-21 04:57:16,1729511836,8006,p,5.96,10.1,180.3,-107,29.7
805,806,2024-10-21 04:57:26,1729511846,8016,p,5.95,10.1,180.3,-107,29.7
806,807,2024-10-21 04:57:36,1729511856,8026,p,5.96,10.1,180.3,-107,29.7
807,808,2024-10-21 04:57:46,1729511866,8036,p,5.96,10.1,180.3,-107,29.7
808,809,2024-10-21 04:57:56,1729511876,8046,p,5.96,10.1,180.3,-107,29.7
809,810,2024-10-21 04:58:06,1729511886,8056,p,5.95,10.1,180.3,-107,29.7
810,811,2024-10-21 04:58:16,1729511896,8066,p,5.96,10.1,180.3,-107,29.7
811,812,2024-10-21 04:58:26,1729511906,8076,p,5.96,10.1,180.3,-107,29.7
812,813,2024-10-21 04:58:36,1729511916,8086,p,5.96,10.1,180.3,-107,29.7
813,814,2024-10-21 04:58:46,1729511926,8096,p,5.95,10.1,180.3,-107,29.7
814,815,2024-10-21 04:58:56,1729511936,8106,p,5.96,10.1,180.3,-107,29.7
815,816,2024-10-21 04:59:06,1729511946,8116,p,5.96,10.1,180.3,-107,29.7
816,817,2024-10-21 04:59:16,1729511956,8126,p,5.96,10.1,180.3,-107,29.7
817,818,2024-10-21 04:59:26,1729511966,8136,p,5.96,10.1,180.3,-107,29.7
818,819,2024-10-21 04:59:36,1729511976,8146,p,5.95,10.1,180.3,-107,29.7
