Number,Id,Datetime,Timestamp,Runtime,Type,Depth,Temperature,Heading,Roll,Pitch
1,2,2024-07-22 01:01:19,1721635279,12,p,0.76,14.8,182.1,-85.5,0.2
2,3,2024-07-22 01:01:29,1721635289,22,p,1.09,14.5,182.6,-86.2,0.4
3,4,2024-07-22 01:01:39,1721635299,32,p,1.09,14.4,167.9,-80.2,13.9
4,5,2024-07-22 01:01:49,1721635309,42,p,1.48,14.4,176,-80.4,13.6
5,6,2024-07-22 01:01:59,1721635319,52,p,1.49,14.4,181.8,-80.7,15.6
6,7,2024-07-22 01:02:09,1721635329,62,p,1.41,14.3,182.6,-79.2,14.1
7,8,2024-07-22 01:02:19,1721635339,72,p,1.49,14.3,179.2,-80.7,18.8
8,9,2024-07-22 01:02:29,1721635349,82,p,1.14,14.3,164.8,-84.2,0.2
9,10,2024-07-22 01:02:39,1721635359,92,p,1.32,14.3,179.9,-81.8,8.1
10,11,2024-07-22 01:02:49,1721635369,102,p,1.16,14.3,205.9,-79.7,10.8
11,12,2024-07-22 01:02:59,1721635379,112,p,1.15,14.3,201.3,-79.8,7.9
12,13,2024-07-22 01:03:09,1721635389,122,p,2.41,14.3,210.8,-80.8,19.5
13,14,2024-07-22 01:03:19,1721635399,132,p,3.56,14.3,211.1,-82.5,24.3
14,15,2024-07-22 01:03:29,1721635409,142,p,3.74,14.3,223.4,-105.9,68.2
15,16,2024-07-22 01:03:39,1721635419,152,p,3.74,14.3,223.4,-105.9,68.2
16,17,2024-07-22 01:03:49,1721635429,162,p,3.73,14.3,223.4,-105.9,68.2
17,18,2024-07-22 01:03:59,1721635439,172,p,3.73,14.3,223.6,-106.1,67.7
18,19,2024-07-22 01:04:09,1721635449,182,p,3.73,14.3,223.6,-106.1,67.7
19,20,2024-07-22 01:04:18,1721635458,191,p,3.74,14.3,223.6,-106.1,67.7
20,21,2024-07-22 01:04:28,1721635468,201,p,3.74,14.3,223.6,-106.1,67.7
21,22,2024-07-22 01:04:38,1721635478,211,p,3.74,14.3,223.6,-106.1,67.7
22,23,2024-07-22 01:04:48,1721635488,221,p,3.74,14.3,223.6,-106.1,67.7
23,24,2024-07-22 01:04:58,1721635498,231,p,3.74,14.3,223.6,-106.1,67.7
24,25,2024-07-22 01:05:08,1721635508,241,p,3.73,14.3,223.6,-106.1,67.7
25,26,2024-07-22 01:05:18,1721635518,251,p,3.73,14.3,223.6,-106.1,67.7
26,27,2024-07-22 01:05:28,1721635528,261,p,3.73,14.3,223.6,-106.1,67.7
27,28,2024-07-22 01:05:38,1721635538,271,p,3.74,14.3,223.6,-106.1,67.7
28,29,2024-07-22 01:05:48,1721635548,281,p,3.73,14.3,223.6,-106.1,67.7
29,30,2024-07-22 01:05:58,1721635558,291,p,3.73,14.3,223.6,-106.1,67.7
30,31,2024-07-22 01:06:08,1721635568,301,p,3.72,14.3,223.6,-106.1,67.7
31,32,2024-07-22 01:06:18,1721635578,311,p,3.72,14.3,223.6,-106.1,67.7
32,33,2024-07-22 01:06:28,1721635588,321,p,3.72,14.3,223.6,-106.1,67.7
33,34,2024-07-22 01:06:38,1721635598,331,p,3.72,14.3,223.6,-106.1,67.7
34,35,2024-07-22 01:06:48,1721635608,341,p,3.72,14.3,223.6,-106.1,67.7
35,36,2024-07-22 01:06:58,1721635618,351,p,3.74,14.3,223.6,-106.1,67.7
36,37,2024-07-22 01:07:08,1721635628,361,p,3.73,14.3,223.6,-106.1,67.7
37,38,2024-07-22 01:07:18,1721635638,371,p,3.75,14.3,223.6,-106.1,67.7
38,39,2024-07-22 01:07:28,1721635648,381,p,3.74,14.3,223.6,-106.1,67.7
39,40,2024-07-22 01:07:38,1721635658,391,p,3.74,14.3,223.6,-106.1,67.7
40,41,2024-07-22 01:07:48,1721635668,401,p,3.73,14.3,223.6,-106.1,67.7
41,42,2024-07-22 01:07:57,1721635677,410,p,3.72,14.3,223.6,-106.1,67.7
42,43,2024-07-22 01:08:07,1721635687,420,p,3.72,14.3,223.6,-106.1,67.7
43,44,2024-07-22 01:08:17,1721635697,430,p,3.72,14.3,223.6,-106.1,67.7
44,45,2024-07-22 01:08:27,1721635707,440,p,3.73,14.3,223.6,-106.1,67.7
45,46,2024-07-22 01:08:37,1721635717,450,p,3.73,14.3,223.6,-106.1,67.7
46,47,2024-07-22 01:08:47,1721635727,460,p,3.72,14.3,223.6,-106.1,67.7
47,48,2024-07-22 01:08:57,1721635737,470,p,3.72,14.3,223.6,-106.1,67.7
48,49,2024-07-22 01:09:07,1721635747,480,p,3.72,14.3,223.6,-106.1,67.7
49,50,2024-07-22 01:09:17,1721635757,490,p,3.73,14.3,223.6,-106.1,67.7
50,51,2024-07-22 01:09:27,1721635767,500,p,3.74,14.3,223.6,-106.1,67.7
51,52,2024-07-22 01:09:37,1721635777,510,p,3.74,14.3,223.6,-106.1,67.7
52,53,2024-07-22 01:09:47,1721635787,520,p,3.73,14.3,223.6,-106.1,67.7
53,54,2024-07-22 01:09:57,1721635797,530,p,3.72,14.3,223.6,-106.1,67.7
54,55,2024-07-22 01:10:07,1721635807,540,p,3.72,14.3,223.6,-106.1,67.7
55,56,2024-07-22 01:10:17,1721635817,550,p,3.72,14.3,223.6,-106.1,67.7
56,57,2024-07-22 01:10:27,1721635827,560,p,3.72,14.3,223.6,-106.1,67.7
57,58,2024-07-22 01:10:37,1721635837,570,p,3.71,14.3,223.6,-106.1,67.7
58,59,2024-07-22 01:10:47,1721635847,580,p,3.72,14.3,223.6,-106.1,67.7
59,60,2024-07-22 01:10:57,1721635857,590,p,3.71,14.3,223.6,-106.1,67.7
60,61,2024-07-22 01:11:07,1721635867,600,p,3.71,14.3,223.6,-106.1,67.7
61,62,2024-07-22 01:11:17,1721635877,610,p,3.71,14.3,223.6,-106.1,67.7
62,63,2024-07-22 01:11:27,1721635887,620,p,3.71,14.3,223.6,-106.1,67.7
63,64,2024-07-22 01:11:37,1721635897,630,p,3.72,14.3,223.6,-106.1,67.7
64,65,2024-07-22 01:11:47,1721635907,640,p,3.72,14.3,223.6,-106.1,67.7
65,66,2024-07-22 01:11:56,1721635916,649,p,3.73,14.3,223.6,-106.1,67.7
66,67,2024-07-22 01:12:06,1721635926,659,p,3.72,14.3,223.6,-106.1,67.7
67,68,2024-07-22 01:12:16,1721635936,669,p,3.72,14.3,223.6,-106.1,67.7
68,69,2024-07-22 01:12:26,1721635946,679,p,3.72,14.3,223.6,-106.1,67.7
69,70,2024-07-22 01:12:36,1721635956,689,p,3.71,14.3,223.6,-106.1,67.7
70,71,2024-07-22 01:12:46,1721635966,699,p,3.71,14.3,223.6,-106.1,67.7
71,72,2024-07-22 01:12:56,1721635976,709,p,3.71,14.3,223.6,-106.1,67.7
72,73,2024-07-22 01:13:06,1721635986,719,p,3.71,14.3,223.6,-106.1,67.7
73,74,2024-07-22 01:13:16,1721635996,729,p,3.71,14.3,223.6,-106.1,67.7
74,75,2024-07-22 01:13:26,1721636006,739,p,3.7,14.3,223.6,-106.1,67.7
75,76,2024-07-22 01:13:36,1721636016,749,p,3.7,14.3,223.6,-106.1,67.7
76,77,2024-07-22 01:13:46,1721636026,759,p,3.71,14.2,223.6,-106.1,67.7
77,78,2024-07-22 01:13:56,1721636036,769,p,3.7,14.2,223.6,-106.1,67.7
78,79,2024-07-22 01:14:06,1721636046,779,p,3.7,14.3,223.6,-106.1,67.7
79,80,2024-07-22 01:14:16,1721636056,789,p,3.71,14.3,223.6,-106.1,67.7
80,81,2024-07-22 01:14:26,1721636066,799,p,3.71,14.3,223.6,-106.1,67.7
81,82,2024-07-22 01:14:36,1721636076,809,p,3.71,14.3,223.6,-106.1,67.7
82,83,2024-07-22 01:14:46,1721636086,819,p,3.71,14.3,223.6,-106.1,67.7
83,84,2024-07-22 01:14:56,1721636096,829,p,3.71,14.3,223.8,-106.2,67.3
84,85,2024-07-22 01:15:06,1721636106,839,p,3.71,14.3,223.8,-106.2,67.3
85,86,2024-07-22 01:15:16,1721636116,849,p,3.71,14.3,223.8,-106.2,67.3
86,87,2024-07-22 01:15:26,1721636126,859,p,3.7,14.3,223.8,-106.2,67.3
87,88,2024-07-22 01:15:35,1721636135,868,p,3.7,14.3,223.8,-106.2,67.3
88,89,2024-07-22 01:15:45,1721636145,878,p,3.68,14.3,223.8,-106.2,67.3
89,90,2024-07-22 01:15:55,1721636155,888,p,3.69,14.3,223.8,-106.2,67.3
90,91,2024-07-22 01:16:05,1721636165,898,p,3.68,14.3,223.8,-106.2,67.3
91,92,2024-07-22 01:16:15,1721636175,908,p,3.68,14.3,223.8,-106.2,67.3
92,93,2024-07-22 01:16:25,1721636185,918,p,3.69,14.3,223.8,-106.2,67.3
93,94,2024-07-22 01:16:35,1721636195,928,p,3.69,14.3,223.8,-106.2,67.3
94,95,2024-07-22 01:16:45,1721636205,938,p,3.69,14.3,223.8,-106.2,67.3
95,96,2024-07-22 01:16:55,1721636215,948,p,3.7,14.3,223.8,-106.2,67.3
96,97,2024-07-22 01:17:05,1721636225,958,p,3.7,14.3,223.8,-106.2,67.3
97,98,2024-07-22 01:17:15,1721636235,968,p,3.7,14.3,223.8,-106.2,67.3
98,99,2024-07-22 01:17:25,1721636245,978,p,3.7,14.3,223.8,-106.2,67.3
99,100,2024-07-22 01:17:35,1721636255,988,p,3.69,14.3,223.8,-106.2,67.3
100,101,2024-07-22 01:17:45,1721636265,998,p,3.69,14.3,223.8,-106.2,67.3
101,102,2024-07-22 01:17:55,1721636275,1008,p,3.68,14.3,223.8,-106.2,67.3
102,103,2024-07-22 01:18:05,1721636285,1018,p,3.68,14.3,223.8,-106.2,67.3
103,104,2024-07-22 01:18:15,1721636295,1028,p,3.68,14.3,223.8,-106.2,67.3
104,105,2024-07-22 01:18:25,1721636305,1038,p,3.68,14.3,223.8,-106.2,67.3
105,106,2024-07-22 01:18:35,1721636315,1048,p,3.68,14.3,223.8,-106.2,67.3
106,107,2024-07-22 01:18:45,1721636325,1058,p,3.67,14.3,223.8,-106.2,67.3
107,108,2024-07-22 01:18:55,1721636335,1068,p,3.67,14.3,223.8,-106.2,67.3
108,109,2024-07-22 01:19:05,1721636345,1078,p,3.67,14.3,223.8,-106.2,67.3
109,110,2024-07-22 01:19:14,1721636354,1087,p,3.68,14.3,223.8,-106.2,67.3
110,111,2024-07-22 01:19:24,1721636364,1097,p,3.67,14.3,223.8,-106.2,67.3
111,112,2024-07-22 01:19:34,1721636374,1107,p,3.67,14.3,223.8,-106.2,67.3
112,113,2024-07-22 01:19:44,1721636384,1117,p,3.67,14.3,223.8,-106.2,67.3
113,114,2024-07-22 01:19:54,1721636394,1127,p,3.67,14.3,223.8,-106.2,67.3
114,115,2024-07-22 01:20:04,1721636404,1137,p,3.67,14.3,223.8,-106.2,67.3
115,116,2024-07-22 01:20:14,1721636414,1147,p,3.66,14.3,223.8,-106.2,67.3
116,117,2024-07-22 01:20:24,1721636424,1157,p,3.67,14.3,223.8,-106.2,67.3
117,118,2024-07-22 01:20:34,1721636434,1167,p,3.67,14.3,223.8,-106.2,67.3
118,119,2024-07-22 01:20:44,1721636444,1177,p,3.67,14.3,223.8,-106.2,67.3
119,120,2024-07-22 01:20:54,1721636454,1187,p,3.66,14.3,223.8,-106.2,67.3
120,121,2024-07-22 01:21:04,1721636464,1197,p,3.66,14.3,223.8,-106.2,67.3
121,122,2024-07-22 01:21:14,1721636474,1207,p,3.66,14.3,223.8,-106.2,67.3
122,123,2024-07-22 01:21:24,1721636484,1217,p,3.65,14.3,223.8,-106.2,67.3
123,124,2024-07-22 01:21:34,1721636494,1227,p,3.64,14.3,223.8,-106.2,67.3
124,125,2024-07-22 01:21:44,1721636504,1237,p,3.64,14.2,223.8,-106.2,67.3
125,126,2024-07-22 01:21:54,1721636514,1247,p,3.66,14.2,223.8,-106.2,67.3
126,127,2024-07-22 01:22:04,1721636524,1257,p,3.67,14.2,223.8,-106.2,67.3
127,128,2024-07-22 01:22:14,1721636534,1267,p,3.67,14.3,223.8,-106.2,67.3
128,129,2024-07-22 01:22:24,1721636544,1277,p,3.67,14.3,223.8,-106.2,67.3
129,130,2024-07-22 01:22:34,1721636554,1287,p,3.67,14.3,223.8,-106.2,67.3
130,131,2024-07-22 01:22:44,1721636564,1297,p,3.66,14.3,223.8,-106.2,67.3
131,132,2024-07-22 01:22:54,1721636574,1307,p,3.65,14.3,223.8,-106.2,67.3
132,133,2024-07-22 01:23:03,1721636583,1316,p,3.65,14.3,223.8,-106.2,67.3
133,134,2024-07-22 01:23:13,1721636593,1326,p,3.65,14.3,223.8,-106.2,67.3
134,135,2024-07-22 01:23:23,1721636603,1336,p,3.64,14.3,223.8,-106.2,67.3
135,136,2024-07-22 01:23:33,1721636613,1346,p,3.65,14.2,223.8,-106.2,67.3
136,137,2024-07-22 01:23:43,1721636623,1356,p,3.65,14.2,223.8,-106.2,67.3
137,138,2024-07-22 01:23:53,1721636633,1366,p,3.65,14.2,223.8,-106.2,67.3
138,139,2024-07-22 01:24:03,1721636643,1376,p,3.65,14.2,223.8,-106.2,67.3
139,140,2024-07-22 01:24:13,1721636653,1386,p,3.65,14.2,223.8,-106.2,67.3
140,141,2024-07-22 01:24:23,1721636663,1396,p,3.64,14.2,223.8,-106.2,67.3
141,142,2024-07-22 01:24:33,1721636673,1406,p,3.64,14.2,223.8,-106.2,67.3
142,143,2024-07-22 01:24:43,1721636683,1416,p,3.63,14.2,223.8,-106.2,67.3
143,144,2024-07-22 01:24:53,1721636693,1426,p,3.64,14.2,223.8,-106.2,67.3
144,145,2024-07-22 01:25:03,1721636703,1436,p,3.64,14.2,223.8,-106.2,67.3
145,146,2024-07-22 01:25:13,1721636713,1446,p,3.64,14.2,223.8,-106.2,67.3
146,147,2024-07-22 01:25:23,1721636723,1456,p,3.64,14.2,223.8,-106.2,67.3
147,148,2024-07-22 01:25:33,1721636733,1466,p,3.64,14.2,223.8,-106.2,67.3
148,149,2024-07-22 01:25:43,1721636743,1476,p,3.64,14.2,223.8,-106.2,67.3
149,150,2024-07-22 01:25:53,1721636753,1486,p,3.63,14.2,223.8,-106.4,67.1
150,151,2024-07-22 01:26:03,1721636763,1496,p,3.62,14.2,223.8,-106.4,67.1
151,152,2024-07-22 01:26:13,1721636773,1506,p,3.62,14.2,223.8,-106.4,67.1
152,153,2024-07-22 01:26:23,1721636783,1516,p,3.62,14.2,223.8,-106.4,67.1
153,154,2024-07-22 01:26:33,1721636793,1526,p,3.61,14.2,223.8,-106.4,67.1
154,155,2024-07-22 01:26:43,1721636803,1536,p,3.62,14.2,223.8,-106.4,67.1
155,156,2024-07-22 01:26:52,1721636812,1545,p,3.62,14.2,223.8,-106.4,67.1
156,157,2024-07-22 01:27:02,1721636822,1555,p,3.61,14.2,223.8,-106.4,67.1
157,158,2024-07-22 01:27:12,1721636832,1565,p,3.62,14.2,223.8,-106.4,67.1
158,159,2024-07-22 01:27:22,1721636842,1575,p,3.62,14.3,223.8,-106.4,67.1
159,160,2024-07-22 01:27:32,1721636852,1585,p,3.62,14.3,223.8,-106.4,67.1
160,161,2024-07-22 01:27:42,1721636862,1595,p,3.62,14.2,223.8,-106.4,67.1
161,162,2024-07-22 01:27:52,1721636872,1605,p,3.61,14.3,223.8,-106.4,67.1
162,163,2024-07-22 01:28:02,1721636882,1615,p,3.6,14.3,223.8,-106.4,67.1
163,164,2024-07-22 01:28:12,1721636892,1625,p,3.6,14.3,223.8,-106.4,67.1
164,165,2024-07-22 01:28:22,1721636902,1635,p,3.6,14.3,223.8,-106.4,67.1
165,166,2024-07-22 01:28:32,1721636912,1645,p,3.6,14.3,223.8,-106.4,67.1
166,167,2024-07-22 01:28:42,1721636922,1655,p,3.59,14.3,223.8,-106.4,67.1
167,168,2024-07-22 01:28:52,1721636932,1665,p,3.6,14.2,223.8,-106.4,67.1
168,169,2024-07-22 01:29:02,1721636942,1675,p,3.6,14.3,223.8,-106.4,67.1
169,170,2024-07-22 01:29:12,1721636952,1685,p,3.6,14.3,223.8,-106.4,67.1
170,171,2024-07-22 01:29:22,1721636962,1695,p,3.61,14.3,223.8,-106.4,67.1
171,172,2024-07-22 01:29:32,1721636972,1705,p,3.59,14.3,223.8,-106.4,67.1
172,173,2024-07-22 01:29:42,1721636982,1715,p,3.6,14.2,223.8,-106.4,67.1
173,174,2024-07-22 01:29:52,1721636992,1725,p,3.6,14.3,223.8,-106.4,67.1
174,175,2024-07-22 01:30:02,1721637002,1735,p,3.59,14.3,223.8,-106.4,67.1
175,176,2024-07-22 01:30:12,1721637012,1745,p,3.58,14.2,223.8,-106.4,67.1
176,177,2024-07-22 01:30:22,1721637022,1755,p,3.58,14.2,223.8,-106.4,67.1
177,178,2024-07-22 01:30:31,1721637031,1764,p,3.58,14.2,223.8,-106.4,67.1
178,179,2024-07-22 01:30:41,1721637041,1774,p,3.59,14.2,223.8,-106.4,67.1
179,180,2024-07-22 01:30:51,1721637051,1784,p,3.58,14.2,223.8,-106.4,67.1
180,181,2024-07-22 01:31:01,1721637061,1794,p,3.58,14.2,223.8,-106.4,67.1
181,182,2024-07-22 01:31:11,1721637071,1804,p,3.59,14.2,223.8,-106.4,67.1
182,183,2024-07-22 01:31:21,1721637081,1814,p,3.59,14.2,223.8,-106.4,67.1
183,184,2024-07-22 01:31:31,1721637091,1824,p,3.59,14.3,223.8,-106.4,67.1
184,185,2024-07-22 01:31:41,1721637101,1834,p,3.58,14.2,223.8,-106.4,67.1
185,186,2024-07-22 01:31:51,1721637111,1844,p,3.57,14.2,223.8,-106.4,67.1
186,187,2024-07-22 01:32:01,1721637121,1854,p,3.57,14.2,223.8,-106.4,67.1
187,188,2024-07-22 01:32:11,1721637131,1864,p,3.57,14.2,223.8,-106.4,67.1
188,189,2024-07-22 01:32:21,1721637141,1874,p,3.57,14.2,223.8,-106.4,67.1
189,190,2024-07-22 01:32:31,1721637151,1884,p,3.57,14.2,223.8,-106.4,67.1
190,191,2024-07-22 01:32:41,1721637161,1894,p,3.57,14.2,223.8,-106.4,67.1
191,192,2024-07-22 01:32:51,1721637171,1904,p,3.58,14.2,223.8,-106.4,67.1
192,193,2024-07-22 01:33:01,1721637181,1914,p,3.58,14.2,223.8,-106.4,67.1
193,194,2024-07-22 01:33:11,1721637191,1924,p,3.58,14.2,223.8,-106.4,67.1
194,195,2024-07-22 01:33:21,1721637201,1934,p,3.57,14.2,223.8,-106.4,67.1
195,196,2024-07-22 01:33:31,1721637211,1944,p,3.57,14.2,223.8,-106.4,67.1
196,197,2024-07-22 01:33:41,1721637221,1954,p,3.57,14.2,223.8,-106.4,67.1
197,198,2024-07-22 01:33:51,1721637231,1964,p,3.57,14.2,223.8,-106.4,67.1
198,199,2024-07-22 01:34:01,1721637241,1974,p,3.57,14.2,223.8,-106.4,67.1
199,200,2024-07-22 01:34:11,1721637251,1984,p,3.56,14.2,223.8,-106.4,67.1
200,201,2024-07-22 01:34:20,1721637260,1993,p,3.56,14.2,223.8,-106.4,67.1
201,202,2024-07-22 01:34:30,1721637270,2003,p,3.56,14.2,223.8,-106.4,67.1
202,203,2024-07-22 01:34:40,1721637280,2013,p,3.56,14.2,223.8,-106.4,67.1
203,204,2024-07-22 01:34:50,1721637290,2023,p,3.56,14.2,223.8,-106.4,67.1
204,205,2024-07-22 01:35:00,1721637300,2033,p,3.56,14.2,223.8,-106.4,67.1
205,206,2024-07-22 01:35:10,1721637310,2043,p,3.55,14.2,223.8,-106.4,67.1
206,207,2024-07-22 01:35:20,1721637320,2053,p,3.56,14.2,223.8,-106.4,67.1
207,208,2024-07-22 01:35:30,1721637330,2063,p,3.56,14.2,223.8,-106.4,67.1
208,209,2024-07-22 01:35:40,1721637340,2073,p,3.55,14.2,223.8,-106.4,67.1
209,210,2024-07-22 01:35:50,1721637350,2083,p,3.55,14.2,223.8,-106.4,67.1
210,211,2024-07-22 01:36:00,1721637360,2093,p,3.54,14.2,223.8,-106.4,67.1
211,212,2024-07-22 01:36:10,1721637370,2103,p,3.54,14.2,223.8,-106.4,67.1
212,213,2024-07-22 01:36:20,1721637380,2113,p,3.53,14.2,223.8,-106.4,67.1
213,214,2024-07-22 01:36:30,1721637390,2123,p,3.54,14.2,223.8,-106.4,67.1
214,215,2024-07-22 01:36:40,1721637400,2133,p,3.54,14.2,223.8,-106.4,67.1
215,216,2024-07-22 01:36:50,1721637410,2143,p,3.54,14.2,223.9,-106.4,66.9
216,217,2024-07-22 01:37:00,1721637420,2153,p,3.54,14.2,223.9,-106.4,66.9
217,218,2024-07-22 01:37:10,1721637430,2163,p,3.54,14.2,223.9,-106.4,66.9
218,219,2024-07-22 01:37:20,1721637440,2173,p,3.54,14.2,223.9,-106.4,66.9
219,220,2024-07-22 01:37:30,1721637450,2183,p,3.55,14.2,223.9,-106.4,66.9
220,221,2024-07-22 01:37:40,1721637460,2193,p,3.54,14.2,223.9,-106.4,66.9
221,222,2024-07-22 01:37:50,1721637470,2203,p,3.54,14.2,223.9,-106.4,66.9
222,223,2024-07-22 01:37:59,1721637479,2212,p,3.53,14.2,223.9,-106.4,66.9
223,224,2024-07-22 01:38:09,1721637489,2222,p,3.53,14.2,223.9,-106.4,66.9
224,225,2024-07-22 01:38:19,1721637499,2232,p,3.53,14.2,223.9,-106.4,66.9
225,226,2024-07-22 01:38:29,1721637509,2242,p,3.52,14.2,223.9,-106.4,66.9
226,227,2024-07-22 01:38:39,1721637519,2252,p,3.52,14.2,223.9,-106.4,66.9
227,228,2024-07-22 01:38:49,1721637529,2262,p,3.52,14.2,223.9,-106.4,66.9
228,229,2024-07-22 01:38:59,1721637539,2272,p,3.52,14.2,223.9,-106.4,66.9
229,230,2024-07-22 01:39:09,1721637549,2282,p,3.51,14.2,223.9,-106.4,66.9
230,231,2024-07-22 01:39:19,1721637559,2292,p,3.5,14.2,223.9,-106.4,66.9
231,232,2024-07-22 01:39:29,1721637569,2302,p,3.51,14.2,223.9,-106.4,66.9
232,233,2024-07-22 01:39:39,1721637579,2312,p,3.51,14.2,223.9,-106.4,66.9
233,234,2024-07-22 01:39:49,1721637589,2322,p,3.5,14.2,223.9,-106.4,66.9
234,235,2024-07-22 01:39:59,1721637599,2332,p,3.51,14.2,223.9,-106.4,66.9
235,236,2024-07-22 01:40:09,1721637609,2342,p,3.51,14.2,223.9,-106.4,66.9
236,237,2024-07-22 01:40:19,1721637619,2352,p,3.51,14.2,223.9,-106.4,66.9
237,238,2024-07-22 01:40:29,1721637629,2362,p,3.51,14.2,223.9,-106.4,66.9
238,239,2024-07-22 01:40:39,1721637639,2372,p,3.51,14.2,223.9,-106.4,66.9
239,240,2024-07-22 01:40:49,1721637649,2382,p,3.51,14.2,223.9,-106.4,66.9
240,241,2024-07-22 01:40:59,1721637659,2392,p,3.5,14.2,223.9,-106.4,66.9
241,242,2024-07-22 01:41:09,1721637669,2402,p,3.51,14.2,223.9,-106.4,66.9
242,243,2024-07-22 01:41:19,1721637679,2412,p,3.51,14.2,223.9,-106.4,66.9
243,244,2024-07-22 01:41:29,1721637689,2422,p,3.51,14.2,223.9,-106.4,66.9
244,245,2024-07-22 01:41:38,1721637698,2431,p,3.5,14.2,223.9,-106.4,66.9
245,246,2024-07-22 01:41:48,1721637708,2441,p,3.49,14.2,223.9,-106.4,66.9
246,247,2024-07-22 01:41:58,1721637718,2451,p,3.5,14.3,223.9,-106.4,66.9
247,248,2024-07-22 01:42:08,1721637728,2461,p,3.5,14.2,223.9,-106.4,66.9
248,249,2024-07-22 01:42:18,1721637738,2471,p,3.49,14.2,223.9,-106.4,66.9
249,250,2024-07-22 01:42:28,1721637748,2481,p,3.48,14.2,223.9,-106.4,66.9
250,251,2024-07-22 01:42:38,1721637758,2491,p,3.48,14.2,223.9,-106.4,66.9
251,252,2024-07-22 01:42:48,1721637768,2501,p,3.48,14.2,223.9,-106.4,66.9
252,253,2024-07-22 01:42:58,1721637778,2511,p,3.48,14.2,223.9,-106.4,66.9
253,254,2024-07-22 01:43:08,1721637788,2521,p,3.49,14.2,223.9,-106.4,66.9
254,255,2024-07-22 01:43:18,1721637798,2531,p,3.49,14.2,223.9,-106.4,66.9
255,256,2024-07-22 01:43:28,1721637808,2541,p,3.5,14.3,223.9,-106.4,66.9
256,257,2024-07-22 01:43:38,1721637818,2551,p,3.49,14.3,223.9,-106.4,66.9
257,258,2024-07-22 01:43:48,1721637828,2561,p,3.49,14.2,223.9,-106.4,66.9
258,259,2024-07-22 01:43:58,1721637838,2571,p,3.48,14.3,223.9,-106.4,66.9
259,260,2024-07-22 01:44:08,1721637848,2581,p,3.48,14.3,223.9,-106.4,66.9
260,261,2024-07-22 01:44:18,1721637858,2591,p,3.47,14.2,223.9,-106.4,66.9
261,262,2024-07-22 01:44:28,1721637868,2601,p,3.47,14.2,223.9,-106.4,66.9
262,263,2024-07-22 01:44:38,1721637878,2611,p,3.48,14.2,223.9,-106.4,66.9
263,264,2024-07-22 01:44:48,1721637888,2621,p,3.47,14.2,223.9,-106.4,66.9
264,265,2024-07-22 01:44:58,1721637898,2631,p,3.48,14.2,223.9,-106.4,66.9
265,266,2024-07-22 01:45:08,1721637908,2641,p,3.48,14.2,223.9,-106.4,66.9
266,267,2024-07-22 01:45:17,1721637917,2650,p,3.47,14.2,223.9,-106.4,66.9
267,268,2024-07-22 01:45:27,1721637927,2660,p,3.47,14.2,223.9,-106.4,66.9
268,269,2024-07-22 01:45:37,1721637937,2670,p,3.47,14.2,223.9,-106.4,66.8
269,270,2024-07-22 01:45:47,1721637947,2680,p,3.46,14.2,223.9,-106.4,66.8
270,271,2024-07-22 01:45:57,1721637957,2690,p,3.46,14.2,223.9,-106.4,66.8
271,272,2024-07-22 01:46:07,1721637967,2700,p,3.46,14.2,223.9,-106.4,66.8
272,273,2024-07-22 01:46:17,1721637977,2710,p,3.46,14.2,223.9,-106.4,66.8
273,274,2024-07-22 01:46:27,1721637987,2720,p,3.45,14.2,223.9,-106.4,66.8
274,275,2024-07-22 01:46:37,1721637997,2730,p,3.46,14.2,223.9,-106.4,66.8
275,276,2024-07-22 01:46:47,1721638007,2740,p,3.46,14.2,223.9,-106.4,66.8
276,277,2024-07-22 01:46:57,1721638017,2750,p,3.46,14.2,223.9,-106.4,66.8
277,278,2024-07-22 01:47:07,1721638027,2760,p,3.46,14.2,223.9,-106.4,66.8
278,279,2024-07-22 01:47:17,1721638037,2770,p,3.46,14.2,223.9,-106.4,66.8
279,280,2024-07-22 01:47:27,1721638047,2780,p,3.45,14.2,223.9,-106.4,66.8
280,281,2024-07-22 01:47:37,1721638057,2790,p,3.45,14.2,223.9,-106.4,66.8
281,282,2024-07-22 01:47:47,1721638067,2800,p,3.44,14.2,223.9,-106.5,66.7
282,283,2024-07-22 01:47:57,1721638077,2810,p,3.44,14.2,223.9,-106.5,66.7
283,284,2024-07-22 01:48:07,1721638087,2820,p,3.44,14.2,223.9,-106.5,66.7
284,285,2024-07-22 01:48:17,1721638097,2830,p,3.43,14.2,223.9,-106.5,66.7
285,286,2024-07-22 01:48:27,1721638107,2840,p,3.44,14.2,223.9,-106.5,66.7
286,287,2024-07-22 01:48:37,1721638117,2850,p,3.44,14.2,223.9,-106.5,66.7
287,288,2024-07-22 01:48:47,1721638127,2860,p,3.44,14.2,223.9,-106.5,66.7
288,289,2024-07-22 01:48:56,1721638136,2869,p,3.44,14.2,223.9,-106.5,66.7
289,290,2024-07-22 01:49:06,1721638146,2879,p,3.44,14.2,223.9,-106.5,66.7
290,291,2024-07-22 01:49:16,1721638156,2889,p,3.44,14.2,223.9,-106.5,66.7
291,292,2024-07-22 01:49:26,1721638166,2899,p,3.44,14.2,223.9,-106.5,66.7
292,293,2024-07-22 01:49:36,1721638176,2909,p,3.43,14.2,223.9,-106.5,66.7
293,294,2024-07-22 01:49:46,1721638186,2919,p,3.44,14.2,223.9,-106.5,66.7
294,295,2024-07-22 01:49:56,1721638196,2929,p,3.44,14.2,223.9,-106.5,66.7
295,296,2024-07-22 01:50:06,1721638206,2939,p,3.43,14.2,223.9,-106.5,66.7
296,297,2024-07-22 01:50:16,1721638216,2949,p,3.43,14.2,223.9,-106.5,66.7
297,298,2024-07-22 01:50:26,1721638226,2959,p,3.42,14.3,223.9,-106.5,66.7
298,299,2024-07-22 01:50:36,1721638236,2969,p,3.42,14.2,223.9,-106.5,66.7
299,300,2024-07-22 01:50:46,1721638246,2979,p,3.42,14.2,223.9,-106.5,66.7
300,301,2024-07-22 01:50:56,1721638256,2989,p,3.41,14.2,223.9,-106.5,66.7
301,302,2024-07-22 01:51:06,1721638266,2999,p,3.41,14.2,223.9,-106.5,66.7
302,303,2024-07-22 01:51:16,1721638276,3009,p,3.4,14.2,223.9,-106.5,66.7
303,304,2024-07-22 01:51:26,1721638286,3019,p,3.42,14.2,223.9,-106.5,66.7
304,305,2024-07-22 01:51:36,1721638296,3029,p,3.42,14.2,223.9,-106.5,66.7
305,306,2024-07-22 01:51:46,1721638306,3039,p,3.42,14.2,223.9,-106.5,66.7
306,307,2024-07-22 01:51:56,1721638316,3049,p,3.42,14.2,223.9,-106.5,66.7
307,308,2024-07-22 01:52:06,1721638326,3059,p,3.42,14.2,223.9,-106.5,66.7
308,309,2024-07-22 01:52:16,1721638336,3069,p,3.41,14.2,223.9,-106.5,66.7
309,310,2024-07-22 01:52:26,1721638346,3079,p,3.41,14.2,223.9,-106.5,66.7
310,311,2024-07-22 01:52:35,1721638355,3088,p,3.41,14.2,223.9,-106.5,66.7
311,312,2024-07-22 01:52:45,1721638365,3098,p,3.4,14.3,223.9,-106.5,66.7
312,313,2024-07-22 01:52:55,1721638375,3108,p,3.4,14.2,223.9,-106.5,66.7
313,314,2024-07-22 01:53:05,1721638385,3118,p,3.39,14.2,223.9,-106.5,66.7
314,315,2024-07-22 01:53:15,1721638395,3128,p,3.39,14.2,223.9,-106.5,66.7
315,316,2024-07-22 01:53:25,1721638405,3138,p,3.39,14.2,223.9,-106.5,66.7
316,317,2024-07-22 01:53:35,1721638415,3148,p,3.39,14.2,223.9,-106.5,66.7
317,318,2024-07-22 01:53:45,1721638425,3158,p,3.39,14.2,223.9,-106.5,66.7
318,319,2024-07-22 01:53:55,1721638435,3168,p,3.39,14.2,223.9,-106.5,66.7
319,320,2024-07-22 01:54:05,1721638445,3178,p,3.4,14.2,223.9,-106.5,66.7
320,321,2024-07-22 01:54:15,1721638455,3188,p,3.4,14.2,223.9,-106.5,66.7
321,322,2024-07-22 01:54:25,1721638465,3198,p,3.39,14.2,223.9,-106.5,66.7
322,323,2024-07-22 01:54:35,1721638475,3208,p,3.38,14.2,223.9,-106.5,66.7
323,324,2024-07-22 01:54:45,1721638485,3218,p,3.39,14.2,223.9,-106.5,66.7
324,325,2024-07-22 01:54:55,1721638495,3228,p,3.39,14.2,223.9,-106.5,66.7
325,326,2024-07-22 01:55:05,1721638505,3238,p,3.39,14.2,223.9,-106.5,66.7
326,327,2024-07-22 01:55:15,1721638515,3248,p,3.39,14.2,223.9,-106.5,66.7
327,328,2024-07-22 01:55:25,1721638525,3258,p,3.38,14.2,223.9,-106.5,66.7
328,329,2024-07-22 01:55:35,1721638535,3268,p,3.38,14.2,223.9,-106.5,66.7
329,330,2024-07-22 01:55:45,1721638545,3278,p,3.38,14.2,223.9,-106.5,66.7
330,331,2024-07-22 01:55:55,1721638555,3288,p,3.38,14.2,223.9,-106.5,66.7
331,332,2024-07-22 01:56:05,1721638565,3298,p,3.38,14.2,223.9,-106.5,66.7
332,333,2024-07-22 01:56:14,1721638574,3307,p,3.38,14.2,223.9,-106.5,66.7
333,334,2024-07-22 01:56:24,1721638584,3317,p,3.39,14.2,223.9,-106.5,66.7
334,335,2024-07-22 01:56:34,1721638594,3327,p,3.38,14.2,223.9,-106.5,66.7
335,336,2024-07-22 01:56:44,1721638604,3337,p,3.38,14.2,223.9,-106.5,66.7
336,337,2024-07-22 01:56:54,1721638614,3347,p,3.38,14.2,223.9,-106.5,66.7
337,338,2024-07-22 01:57:04,1721638624,3357,p,3.37,14.2,223.9,-106.5,66.7
338,339,2024-07-22 01:57:14,1721638634,3367,p,3.37,14.2,223.9,-106.5,66.7
339,340,2024-07-22 01:57:24,1721638644,3377,p,3.37,14.2,223.9,-106.5,66.7
340,341,2024-07-22 01:57:34,1721638654,3387,p,3.37,14.2,223.9,-106.5,66.7
341,342,2024-07-22 01:57:44,1721638664,3397,p,3.37,14.2,223.9,-106.5,66.7
342,343,2024-07-22 01:57:54,1721638674,3407,p,3.37,14.2,223.9,-106.5,66.7
343,344,2024-07-22 01:58:04,1721638684,3417,p,3.38,14.2,223.9,-106.5,66.7
344,345,2024-07-22 01:58:14,1721638694,3427,p,3.37,14.3,223.9,-106.5,66.7
345,346,2024-07-22 01:58:24,1721638704,3437,p,3.37,14.2,223.9,-106.5,66.7
346,347,2024-07-22 01:58:34,1721638714,3447,p,3.37,14.2,223.9,-106.5,66.7
347,348,2024-07-22 01:58:44,1721638724,3457,p,3.36,14.2,223.9,-106.5,66.6
348,349,2024-07-22 01:58:54,1721638734,3467,p,3.36,14.2,223.9,-106.5,66.6
349,350,2024-07-22 01:59:04,1721638744,3477,p,3.36,14.2,223.9,-106.5,66.6
350,351,2024-07-22 01:59:14,1721638754,3487,p,3.36,14.2,223.9,-106.5,66.6
351,352,2024-07-22 01:59:24,1721638764,3497,p,3.36,14.2,223.9,-106.5,66.6
352,353,2024-07-22 01:59:34,1721638774,3507,p,3.35,14.2,223.9,-106.5,66.6
353,354,2024-07-22 01:59:44,1721638784,3517,p,3.36,14.2,223.9,-106.5,66.6
354,355,2024-07-22 01:59:53,1721638793,3526,p,3.36,14.2,223.9,-106.5,66.6
355,356,2024-07-22 02:00:03,1721638803,3536,p,3.36,14.2,223.9,-106.5,66.6
356,357,2024-07-22 02:00:13,1721638813,3546,p,3.36,14.2,223.9,-106.5,66.6
357,358,2024-07-22 02:00:23,1721638823,3556,p,3.35,14.2,223.9,-106.5,66.6
358,359,2024-07-22 02:00:33,1721638833,3566,p,3.35,14.2,223.9,-106.5,66.6
359,360,2024-07-22 02:00:43,1721638843,3576,p,3.35,14.2,223.9,-106.5,66.6
360,361,2024-07-22 02:00:53,1721638853,3586,p,3.35,14.2,223.9,-106.5,66.6
361,362,2024-07-22 02:01:03,1721638863,3596,p,3.35,14.2,223.9,-106.5,66.6
362,363,2024-07-22 02:01:13,1721638873,3606,p,3.35,14.2,223.9,-106.5,66.6
363,364,2024-07-22 02:01:23,1721638883,3616,p,3.35,14.2,223.9,-106.5,66.6
364,365,2024-07-22 02:01:33,1721638893,3626,p,3.35,14.2,223.9,-106.5,66.6
365,366,2024-07-22 02:01:43,1721638903,3636,p,3.34,14.2,223.9,-106.5,66.6
366,367,2024-07-22 02:01:53,1721638913,3646,p,3.34,14.2,223.9,-106.5,66.6
367,368,2024-07-22 02:02:03,1721638923,3656,p,3.33,14.2,223.9,-106.5,66.6
368,369,2024-07-22 02:02:13,1721638933,3666,p,3.33,14.2,223.9,-106.5,66.6
369,370,2024-07-22 02:02:23,1721638943,3676,p,3.33,14.2,223.9,-106.5,66.6
370,371,2024-07-22 02:02:33,1721638953,3686,p,3.34,14.2,223.9,-106.5,66.6
371,372,2024-07-22 02:02:43,1721638963,3696,p,3.33,14.2,223.9,-106.5,66.6
372,373,2024-07-22 02:02:53,1721638973,3706,p,3.33,14.2,223.9,-106.5,66.6
373,374,2024-07-22 02:03:03,1721638983,3716,p,3.33,14.2,223.9,-106.5,66.6
374,375,2024-07-22 02:03:13,1721638993,3726,p,3.33,14.2,223.9,-106.5,66.6
375,376,2024-07-22 02:03:23,1721639003,3736,p,3.32,14.2,223.9,-106.5,66.6
376,377,2024-07-22 02:03:32,1721639012,3745,p,3.33,14.2,223.9,-106.5,66.6
377,378,2024-07-22 02:03:42,1721639022,3755,p,3.33,14.2,223.9,-106.5,66.6
378,379,2024-07-22 02:03:52,1721639032,3765,p,3.33,14.2,223.9,-106.5,66.6
379,380,2024-07-22 02:04:02,1721639042,3775,p,3.33,14.2,223.9,-106.5,66.6
380,381,2024-07-22 02:04:12,1721639052,3785,p,3.33,14.2,223.9,-106.5,66.6
381,382,2024-07-22 02:04:22,1721639062,3795,p,3.32,14.2,223.9,-106.5,66.6
382,383,2024-07-22 02:04:32,1721639072,3805,p,3.32,14.2,223.9,-106.5,66.6
383,384,2024-07-22 02:04:42,1721639082,3815,p,3.32,14.2,223.9,-106.5,66.6
384,385,2024-07-22 02:04:52,1721639092,3825,p,3.32,14.2,223.9,-106.5,66.6
385,386,2024-07-22 02:05:02,1721639102,3835,p,3.32,14.2,223.9,-106.5,66.6
386,387,2024-07-22 02:05:12,1721639112,3845,p,3.32,14.2,223.9,-106.5,66.6
387,388,2024-07-22 02:05:22,1721639122,3855,p,3.32,14.2,223.9,-106.5,66.6
388,389,2024-07-22 02:05:32,1721639132,3865,p,3.31,14.2,223.9,-106.5,66.6
389,390,2024-07-22 02:05:42,1721639142,3875,p,3.31,14.2,223.9,-106.5,66.6
390,391,2024-07-22 02:05:52,1721639152,3885,p,3.31,14.2,223.9,-106.5,66.6
391,392,2024-07-22 02:06:02,1721639162,3895,p,3.3,14.2,223.9,-106.5,66.6
392,393,2024-07-22 02:06:12,1721639172,3905,p,3.31,14.2,223.9,-106.5,66.6
393,394,2024-07-22 02:06:22,1721639182,3915,p,3.31,14.2,223.9,-106.5,66.6
394,395,2024-07-22 02:06:32,1721639192,3925,p,3.31,14.2,223.9,-106.5,66.6
395,396,2024-07-22 02:06:42,1721639202,3935,p,3.31,14.2,223.9,-106.5,66.6
396,397,2024-07-22 02:06:52,1721639212,3945,p,3.31,14.2,223.9,-106.5,66.6
397,398,2024-07-22 02:07:02,1721639222,3955,p,3.3,14.2,223.9,-106.5,66.6
398,399,2024-07-22 02:07:12,1721639232,3965,p,3.3,14.2,223.9,-106.5,66.6
399,400,2024-07-22 02:07:21,1721639241,3974,p,3.3,14.2,223.9,-106.5,66.6
400,401,2024-07-22 02:07:31,1721639251,3984,p,3.3,14.2,223.9,-106.5,66.6
401,402,2024-07-22 02:07:41,1721639261,3994,p,3.3,14.2,223.9,-106.5,66.6
402,403,2024-07-22 02:07:51,1721639271,4004,p,3.31,14.2,223.9,-106.5,66.6
403,404,2024-07-22 02:08:01,1721639281,4014,p,3.31,14.2,223.9,-106.5,66.6
404,405,2024-07-22 02:08:11,1721639291,4024,p,3.31,14.2,223.9,-106.5,66.6
405,406,2024-07-22 02:08:21,1721639301,4034,p,3.31,14.2,223.9,-106.5,66.6
406,407,2024-07-22 02:08:31,1721639311,4044,p,3.31,14.2,223.9,-106.5,66.6
407,408,2024-07-22 02:08:41,1721639321,4054,p,3.31,14.2,223.9,-106.5,66.6
408,409,2024-07-22 02:08:51,1721639331,4064,p,3.31,14.2,223.9,-106.5,66.6
409,410,2024-07-22 02:09:01,1721639341,4074,p,3.31,14.2,223.9,-106.5,66.6
410,411,2024-07-22 02:09:11,1721639351,4084,p,3.3,14.2,223.9,-106.5,66.6
411,412,2024-07-22 02:09:21,1721639361,4094,p,3.29,14.2,223.9,-106.5,66.6
412,413,2024-07-22 02:09:31,1721639371,4104,p,3.29,14.2,223.9,-106.5,66.6
413,414,2024-07-22 02:09:41,1721639381,4114,p,3.29,14.2,223.9,-106.6,66.5
414,415,2024-07-22 02:09:51,1721639391,4124,p,3.29,14.2,223.9,-106.6,66.5
415,416,2024-07-22 02:10:01,1721639401,4134,p,3.28,14.2,223.9,-106.6,66.5
416,417,2024-07-22 02:10:11,1721639411,4144,p,3.28,14.2,223.9,-106.6,66.5
417,418,2024-07-22 02:10:21,1721639421,4154,p,3.29,14.2,223.9,-106.6,66.5
418,419,2024-07-22 02:10:31,1721639431,4164,p,3.29,14.2,223.9,-106.6,66.5
419,420,2024-07-22 02:10:41,1721639441,4174,p,3.3,14.2,223.9,-106.6,66.5
420,421,2024-07-22 02:10:51,1721639451,4184,p,3.3,14.2,223.9,-106.6,66.5
421,422,2024-07-22 02:11:01,1721639461,4194,p,3.3,14.2,223.9,-106.6,66.5
422,423,2024-07-22 02:11:10,1721639470,4203,p,3.3,14.2,223.9,-106.6,66.5
423,424,2024-07-22 02:11:20,1721639480,4213,p,3.29,14.2,223.9,-106.6,66.5
424,425,2024-07-22 02:11:30,1721639490,4223,p,3.29,14.2,223.9,-106.6,66.5
425,426,2024-07-22 02:11:40,1721639500,4233,p,3.29,14.2,223.9,-106.6,66.5
426,427,2024-07-22 02:11:50,1721639510,4243,p,3.29,14.2,223.9,-106.6,66.5
427,428,2024-07-22 02:12:00,1721639520,4253,p,3.29,14.2,223.9,-106.6,66.5
428,429,2024-07-22 02:12:10,1721639530,4263,p,3.28,14.2,223.9,-106.6,66.5
429,430,2024-07-22 02:12:20,1721639540,4273,p,3.29,14.2,223.9,-106.6,66.5
430,431,2024-07-22 02:12:30,1721639550,4283,p,3.28,14.2,223.9,-106.6,66.5
431,432,2024-07-22 02:12:40,1721639560,4293,p,3.27,14.2,223.9,-106.6,66.5
432,433,2024-07-22 02:12:50,1721639570,4303,p,3.27,14.2,223.9,-106.6,66.5
433,434,2024-07-22 02:13:00,1721639580,4313,p,3.27,14.2,223.9,-106.6,66.5
434,435,2024-07-22 02:13:10,1721639590,4323,p,3.27,14.2,223.9,-106.6,66.5
435,436,2024-07-22 02:13:20,1721639600,4333,p,3.27,14.2,223.9,-106.6,66.5
436,437,2024-07-22 02:13:30,1721639610,4343,p,3.27,14.1,223.9,-106.6,66.5
437,438,2024-07-22 02:13:40,1721639620,4353,p,3.27,14.1,223.9,-106.6,66.5
438,439,2024-07-22 02:13:50,1721639630,4363,p,3.28,14.1,223.9,-106.6,66.5
439,440,2024-07-22 02:14:00,1721639640,4373,p,3.27,14.2,223.9,-106.6,66.5
440,441,2024-07-22 02:14:10,1721639650,4383,p,3.27,14.2,223.9,-106.6,66.5
441,442,2024-07-22 02:14:20,1721639660,4393,p,3.27,14.2,223.9,-106.6,66.5
442,443,2024-07-22 02:14:30,1721639670,4403,p,3.27,14.2,223.9,-106.6,66.5
443,444,2024-07-22 02:14:40,1721639680,4413,p,3.27,14.2,223.9,-106.6,66.5
444,445,2024-07-22 02:14:49,1721639689,4422,p,3.27,14.2,223.9,-106.6,66.5
445,446,2024-07-22 02:14:59,1721639699,4432,p,3.26,14.2,223.9,-106.6,66.5
446,447,2024-07-22 02:15:09,1721639709,4442,p,3.26,14.2,223.9,-106.6,66.5
447,448,2024-07-22 02:15:19,1721639719,4452,p,3.26,14.1,223.9,-106.6,66.5
448,449,2024-07-22 02:15:29,1721639729,4462,p,3.25,14.1,223.9,-106.6,66.5
449,450,2024-07-22 02:15:39,1721639739,4472,p,3.25,14.1,223.9,-106.6,66.5
450,451,2024-07-22 02:15:49,1721639749,4482,p,3.25,14.1,223.9,-106.6,66.5
451,452,2024-07-22 02:15:59,1721639759,4492,p,3.25,14.1,223.9,-106.6,66.5
452,453,2024-07-22 02:16:09,1721639769,4502,p,3.25,14.1,223.9,-106.6,66.5
453,454,2024-07-22 02:16:19,1721639779,4512,p,3.25,14.1,223.9,-106.6,66.5
454,455,2024-07-22 02:16:29,1721639789,4522,p,3.25,14.1,223.9,-106.6,66.5
455,456,2024-07-22 02:16:39,1721639799,4532,p,3.26,14.1,223.9,-106.6,66.5
456,457,2024-07-22 02:16:49,1721639809,4542,p,3.25,14.1,223.9,-106.6,66.5
457,458,2024-07-22 02:16:59,1721639819,4552,p,3.24,14.1,223.9,-106.6,66.5
458,459,2024-07-22 02:17:09,1721639829,4562,p,3.25,14.1,223.9,-106.6,66.5
459,460,2024-07-22 02:17:19,1721639839,4572,p,3.25,14.1,223.9,-106.6,66.5
460,461,2024-07-22 02:17:29,1721639849,4582,p,3.24,14.1,223.9,-106.6,66.5
461,462,2024-07-22 02:17:39,1721639859,4592,p,3.24,14.1,223.9,-106.6,66.5
462,463,2024-07-22 02:17:49,1721639869,4602,p,3.24,14.1,223.9,-106.6,66.5
463,464,2024-07-22 02:17:59,1721639879,4612,p,3.23,14.1,223.9,-106.6,66.5
464,465,2024-07-22 02:18:09,1721639889,4622,p,3.24,14.1,223.9,-106.6,66.5
465,466,2024-07-22 02:18:19,1721639899,4632,p,3.24,14.1,223.9,-106.6,66.5
466,467,2024-07-22 02:18:28,1721639908,4641,p,3.24,14.2,223.9,-106.6,66.5
467,468,2024-07-22 02:18:38,1721639918,4651,p,3.23,14.2,223.9,-106.6,66.5
468,469,2024-07-22 02:18:48,1721639928,4661,p,3.24,14.2,223.9,-106.6,66.5
469,470,2024-07-22 02:18:58,1721639938,4671,p,3.24,14.2,223.9,-106.6,66.5
470,471,2024-07-22 02:19:08,1721639948,4681,p,3.24,14.2,223.9,-106.6,66.5
471,472,2024-07-22 02:19:18,1721639958,4691,p,3.24,14.2,223.9,-106.6,66.5
472,473,2024-07-22 02:19:28,1721639968,4701,p,3.23,14.2,223.9,-106.6,66.5
473,474,2024-07-22 02:19:38,1721639978,4711,p,3.23,14.2,223.9,-106.6,66.5
474,475,2024-07-22 02:19:48,1721639988,4721,p,3.23,14.2,223.9,-106.6,66.5
475,476,2024-07-22 02:19:58,1721639998,4731,p,3.23,14.2,223.9,-106.6,66.5
476,477,2024-07-22 02:20:08,1721640008,4741,p,3.23,14.2,223.9,-106.6,66.5
477,478,2024-07-22 02:20:18,1721640018,4751,p,3.23,14.2,223.9,-106.6,66.5
478,479,2024-07-22 02:20:28,1721640028,4761,p,3.23,14.2,224,-106.6,66.4
479,480,2024-07-22 02:20:38,1721640038,4771,p,3.23,14.2,224,-106.6,66.4
480,481,2024-07-22 02:20:48,1721640048,4781,p,3.23,14.2,224,-106.6,66.4
481,482,2024-07-22 02:20:58,1721640058,4791,p,3.23,14.2,224,-106.6,66.4
482,483,2024-07-22 02:21:08,1721640068,4801,p,3.23,14.2,224,-106.6,66.4
483,484,2024-07-22 02:21:18,1721640078,4811,p,3.23,14.2,224,-106.6,66.4
484,485,2024-07-22 02:21:28,1721640088,4821,p,3.22,14.2,224,-106.6,66.4
485,486,2024-07-22 02:21:38,1721640098,4831,p,3.22,14.2,224,-106.6,66.4
486,487,2024-07-22 02:21:48,1721640108,4841,p,3.22,14.2,224,-106.6,66.4
487,488,2024-07-22 02:21:58,1721640118,4851,p,3.21,14.2,224,-106.6,66.4
488,489,2024-07-22 02:22:08,1721640128,4861,p,3.21,14.2,224,-106.6,66.4
489,490,2024-07-22 02:22:17,1721640137,4870,p,3.21,14.2,224,-106.6,66.4
490,491,2024-07-22 02:22:27,1721640147,4880,p,3.21,14.2,224,-106.6,66.4
491,492,2024-07-22 02:22:37,1721640157,4890,p,3.21,14.2,224,-106.6,66.4
492,493,2024-07-22 02:22:47,1721640167,4900,p,3.21,14.2,224,-106.6,66.4
493,494,2024-07-22 02:22:57,1721640177,4910,p,3.22,14.2,224,-106.6,66.4
494,495,2024-07-22 02:23:07,1721640187,4920,p,3.22,14.2,224,-106.6,66.4
495,496,2024-07-22 02:23:17,1721640197,4930,p,3.22,14.2,224,-106.6,66.4
496,497,2024-07-22 02:23:27,1721640207,4940,p,3.21,14.2,224,-106.6,66.4
497,498,2024-07-22 02:23:37,1721640217,4950,p,3.22,14.2,224,-106.6,66.4
498,499,2024-07-22 02:23:47,1721640227,4960,p,3.21,14.2,224,-106.6,66.4
499,500,2024-07-22 02:23:57,1721640237,4970,p,3.21,14.2,224,-106.6,66.4
500,501,2024-07-22 02:24:07,1721640247,4980,p,3.2,14.2,224,-106.6,66.4
501,502,2024-07-22 02:24:17,1721640257,4990,p,3.2,14.2,224,-106.6,66.4
502,503,2024-07-22 02:24:27,1721640267,5000,p,3.2,14.2,224,-106.6,66.4
503,504,2024-07-22 02:24:37,1721640277,5010,p,3.2,14.2,224,-106.6,66.4
504,505,2024-07-22 02:24:47,1721640287,5020,p,3.21,14.2,224,-106.6,66.4
505,506,2024-07-22 02:24:57,1721640297,5030,p,3.19,14.1,224,-106.6,66.4
506,507,2024-07-22 02:25:07,1721640307,5040,p,3.19,14.2,224,-106.6,66.4
507,508,2024-07-22 02:25:17,1721640317,5050,p,3.19,14.2,224,-106.6,66.4
508,509,2024-07-22 02:25:27,1721640327,5060,p,3.2,14.2,224,-106.6,66.4
509,510,2024-07-22 02:25:37,1721640337,5070,p,3.2,14.2,224,-106.6,66.4
510,511,2024-07-22 02:25:47,1721640347,5080,p,3.19,14.2,224,-106.6,66.4
511,512,2024-07-22 02:25:56,1721640356,5089,p,3.19,14.2,224,-106.6,66.4
512,513,2024-07-22 02:26:06,1721640366,5099,p,3.19,14.1,224,-106.6,66.4
513,514,2024-07-22 02:26:16,1721640376,5109,p,3.19,14.1,224,-106.6,66.4
514,515,2024-07-22 02:26:26,1721640386,5119,p,3.19,14.1,224,-106.6,66.4
515,516,2024-07-22 02:26:36,1721640396,5129,p,3.19,14.1,224,-106.6,66.4
516,517,2024-07-22 02:26:46,1721640406,5139,p,3.19,14.1,224,-106.6,66.4
517,518,2024-07-22 02:26:56,1721640416,5149,p,3.2,14.2,224,-106.6,66.4
518,519,2024-07-22 02:27:06,1721640426,5159,p,3.2,14.2,224,-106.6,66.4
519,520,2024-07-22 02:27:16,1721640436,5169,p,3.19,14.2,224,-106.6,66.4
520,521,2024-07-22 02:27:26,1721640446,5179,p,3.19,14.2,224,-106.6,66.4
521,522,2024-07-22 02:27:36,1721640456,5189,p,3.18,14.2,224,-106.6,66.4
522,523,2024-07-22 02:27:46,1721640466,5199,p,3.18,14.2,224,-106.6,66.4
523,524,2024-07-22 02:27:56,1721640476,5209,p,3.18,14.2,224,-106.6,66.4
524,525,2024-07-22 02:28:06,1721640486,5219,p,3.18,14.1,224,-106.6,66.4
525,526,2024-07-22 02:28:16,1721640496,5229,p,3.18,14.1,224,-106.6,66.4
526,527,2024-07-22 02:28:26,1721640506,5239,p,3.18,14.1,224,-106.6,66.4
527,528,2024-07-22 02:28:36,1721640516,5249,p,3.18,14.1,224,-106.6,66.4
528,529,2024-07-22 02:28:46,1721640526,5259,p,3.18,14.1,224,-106.6,66.4
529,530,2024-07-22 02:28:56,1721640536,5269,p,3.18,14.1,224,-106.6,66.4
530,531,2024-07-22 02:29:06,1721640546,5279,p,3.18,14.1,224,-106.6,66.4
531,532,2024-07-22 02:29:16,1721640556,5289,p,3.18,14.1,224,-106.6,66.4
532,533,2024-07-22 02:29:26,1721640566,5299,p,3.18,14.1,224,-106.6,66.4
533,534,2024-07-22 02:29:35,1721640575,5308,p,3.18,14.1,224,-106.6,66.4
534,535,2024-07-22 02:29:45,1721640585,5318,p,3.18,14.1,224,-106.6,66.4
535,536,2024-07-22 02:29:55,1721640595,5328,p,3.18,14.1,224,-106.6,66.4
536,537,2024-07-22 02:30:05,1721640605,5338,p,3.18,14.1,224,-106.6,66.4
537,538,2024-07-22 02:30:15,1721640615,5348,p,3.18,14.1,224,-106.6,66.4
538,539,2024-07-22 02:30:25,1721640625,5358,p,3.18,14.1,224,-106.6,66.4
539,540,2024-07-22 02:30:35,1721640635,5368,p,3.18,14.2,224,-106.6,66.4
540,541,2024-07-22 02:30:45,1721640645,5378,p,3.18,14.2,224,-106.6,66.4
541,542,2024-07-22 02:30:55,1721640655,5388,p,3.17,14.2,224,-106.6,66.4
542,543,2024-07-22 02:31:05,1721640665,5398,p,3.17,14.2,224,-106.6,66.4
543,544,2024-07-22 02:31:15,1721640675,5408,p,3.18,14.2,224,-106.6,66.4
544,545,2024-07-22 02:31:25,1721640685,5418,p,3.17,14.2,224,-106.6,66.3
545,546,2024-07-22 02:31:35,1721640695,5428,p,3.17,14.2,224,-106.6,66.3
546,547,2024-07-22 02:31:45,1721640705,5438,p,3.17,14.2,224,-106.6,66.3
547,548,2024-07-22 02:31:55,1721640715,5448,p,3.18,14.2,224,-106.6,66.3
548,549,2024-07-22 02:32:05,1721640725,5458,p,3.17,14.2,224,-106.6,66.3
549,550,2024-07-22 02:32:15,1721640735,5468,p,3.17,14.2,224,-106.6,66.3
550,551,2024-07-22 02:32:25,1721640745,5478,p,3.17,14.2,224,-106.6,66.3
551,552,2024-07-22 02:32:35,1721640755,5488,p,3.17,14.2,224,-106.6,66.3
552,553,2024-07-22 02:32:45,1721640765,5498,p,3.17,14.2,224,-106.6,66.3
553,554,2024-07-22 02:32:55,1721640775,5508,p,3.17,14.2,224,-106.6,66.3
554,555,2024-07-22 02:33:05,1721640785,5518,p,3.17,14.2,224,-106.6,66.3
555,556,2024-07-22 02:33:14,1721640794,5527,p,3.17,14.2,224,-106.6,66.3
556,557,2024-07-22 02:33:24,1721640804,5537,p,3.16,14.2,224,-106.6,66.3
557,558,2024-07-22 02:33:34,1721640814,5547,p,3.16,14.2,224,-106.6,66.3
558,559,2024-07-22 02:33:44,1721640824,5557,p,3.16,14.1,224,-106.6,66.3
559,560,2024-07-22 02:33:54,1721640834,5567,p,3.15,14.1,224,-106.6,66.3
560,561,2024-07-22 02:34:04,1721640844,5577,p,3.15,14.1,224,-106.6,66.3
561,562,2024-07-22 02:34:14,1721640854,5587,p,3.15,14.1,224,-106.6,66.3
562,563,2024-07-22 02:34:24,1721640864,5597,p,3.15,14.1,224,-106.6,66.3
563,564,2024-07-22 02:34:34,1721640874,5607,p,3.16,14.1,224,-106.6,66.3
564,565,2024-07-22 02:34:44,1721640884,5617,p,3.16,14.1,224,-106.6,66.3
565,566,2024-07-22 02:34:54,1721640894,5627,p,3.16,14.1,224,-106.6,66.3
566,567,2024-07-22 02:35:04,1721640904,5637,p,3.16,14.1,224,-106.6,66.3
567,568,2024-07-22 02:35:14,1721640914,5647,p,3.16,14.1,224,-106.6,66.3
568,569,2024-07-22 02:35:24,1721640924,5657,p,3.15,14.1,224,-106.6,66.3
569,570,2024-07-22 02:35:34,1721640934,5667,p,3.15,14.2,224,-106.6,66.3
570,571,2024-07-22 02:35:44,1721640944,5677,p,3.15,14.2,224,-106.6,66.3
571,572,2024-07-22 02:35:54,1721640954,5687,p,3.15,14.1,224,-106.6,66.3
572,573,2024-07-22 02:36:04,1721640964,5697,p,3.15,14.1,224,-106.6,66.3
573,574,2024-07-22 02:36:14,1721640974,5707,p,3.15,14.1,224,-106.6,66.3
574,575,2024-07-22 02:36:24,1721640984,5717,p,3.15,14.1,224,-106.6,66.3
575,576,2024-07-22 02:36:34,1721640994,5727,p,3.16,14.1,224,-106.6,66.3
576,577,2024-07-22 02:36:44,1721641004,5737,p,3.15,14.1,224,-106.6,66.3
577,578,2024-07-22 02:36:53,1721641013,5746,p,3.15,14.1,224,-106.6,66.3
578,579,2024-07-22 02:37:03,1721641023,5756,p,3.15,14.1,224,-106.6,66.3
579,580,2024-07-22 02:37:13,1721641033,5766,p,3.15,14.1,224,-106.6,66.3
580,581,2024-07-22 02:37:23,1721641043,5776,p,3.14,14.1,224,-106.6,66.3
581,582,2024-07-22 02:37:33,1721641053,5786,p,3.14,14.1,224,-106.6,66.3
582,583,2024-07-22 02:37:43,1721641063,5796,p,3.14,14.1,224,-106.6,66.3
583,584,2024-07-22 02:37:53,1721641073,5806,p,3.14,14.1,224,-106.6,66.3
584,585,2024-07-22 02:38:03,1721641083,5816,p,3.14,14.1,224,-106.6,66.3
585,586,2024-07-22 02:38:13,1721641093,5826,p,3.15,14.1,224,-106.6,66.3
586,587,2024-07-22 02:38:23,1721641103,5836,p,3.15,14.1,224,-106.6,66.3
587,588,2024-07-22 02:38:33,1721641113,5846,p,3.15,14.1,224,-106.6,66.3
588,589,2024-07-22 02:38:43,1721641123,5856,p,3.14,14.1,224,-106.6,66.3
589,590,2024-07-22 02:38:53,1721641133,5866,p,3.14,14.1,224,-106.6,66.3
590,591,2024-07-22 02:39:03,1721641143,5876,p,3.15,14.1,224,-106.6,66.3
591,592,2024-07-22 02:39:13,1721641153,5886,p,3.14,14.1,224,-106.6,66.3
592,593,2024-07-22 02:39:23,1721641163,5896,p,3.14,14.1,224,-106.6,66.3
593,594,2024-07-22 02:39:33,1721641173,5906,p,3.14,14.1,224,-106.6,66.3
594,595,2024-07-22 02:39:43,1721641183,5916,p,3.14,14.1,224,-106.6,66.3
595,596,2024-07-22 02:39:53,1721641193,5926,p,3.14,14.1,224,-106.6,66.3
596,597,2024-07-22 02:40:03,1721641203,5936,p,3.14,14.1,224,-106.6,66.3
597,598,2024-07-22 02:40:13,1721641213,5946,p,3.14,14.1,224,-106.6,66.3
598,599,2024-07-22 02:40:23,1721641223,5956,p,3.14,14.1,224,-106.6,66.3
599,600,2024-07-22 02:40:33,1721641233,5966,p,3.13,14.1,224,-106.6,66.3
600,601,2024-07-22 02:40:42,1721641242,5975,p,3.13,14.1,224,-106.6,66.3
601,602,2024-07-22 02:40:52,1721641252,5985,p,3.13,14.1,224,-106.6,66.3
602,603,2024-07-22 02:41:02,1721641262,5995,p,3.13,14.1,224,-106.6,66.3
603,604,2024-07-22 02:41:12,1721641272,6005,p,3.14,14.1,224,-106.6,66.3
604,605,2024-07-22 02:41:22,1721641282,6015,p,3.13,14.1,224,-106.6,66.3
605,606,2024-07-22 02:41:32,1721641292,6025,p,3.13,14.1,224,-106.6,66.3
606,607,2024-07-22 02:41:42,1721641302,6035,p,3.13,14.1,224,-106.6,66.3
607,608,2024-07-22 02:41:52,1721641312,6045,p,3.12,14.2,224,-106.6,66.3
608,609,2024-07-22 02:42:02,1721641322,6055,p,3.13,14.2,224,-106.6,66.3
609,610,2024-07-22 02:42:12,1721641332,6065,p,3.13,14.1,224,-106.6,66.3
610,611,2024-07-22 02:42:22,1721641342,6075,p,3.12,14.1,224,-106.6,66.3
611,612,2024-07-22 02:42:32,1721641352,6085,p,3.13,14.1,224,-106.6,66.3
612,613,2024-07-22 02:42:42,1721641362,6095,p,3.13,14.1,224,-106.6,66.3
613,614,2024-07-22 02:42:52,1721641372,6105,p,3.13,14.1,224,-106.6,66.3
614,615,2024-07-22 02:43:02,1721641382,6115,p,3.12,14.1,224,-106.6,66.3
615,616,2024-07-22 02:43:12,1721641392,6125,p,3.12,14.1,224,-106.6,66.3
616,617,2024-07-22 02:43:22,1721641402,6135,p,3.12,14.1,224,-106.6,66.3
617,618,2024-07-22 02:43:32,1721641412,6145,p,3.12,14.1,224,-106.6,66.3
618,619,2024-07-22 02:43:42,1721641422,6155,p,3.12,14.1,224,-106.6,66.3
619,620,2024-07-22 02:43:52,1721641432,6165,p,3.12,14.1,224,-106.6,66.3
620,621,2024-07-22 02:44:02,1721641442,6175,p,3.11,14.1,224,-106.6,66.3
621,622,2024-07-22 02:44:12,1721641452,6185,p,3.12,14.1,224,-106.6,66.3
622,623,2024-07-22 02:44:21,1721641461,6194,p,3.12,14.1,224,-106.6,66.3
623,624,2024-07-22 02:44:31,1721641471,6204,p,3.12,14.1,224,-106.6,66.3
624,625,2024-07-22 02:44:41,1721641481,6214,p,3.13,14.1,224,-106.6,66.3
625,626,2024-07-22 02:44:51,1721641491,6224,p,3.12,14.1,224,-106.6,66.3
626,627,2024-07-22 02:45:01,1721641501,6234,p,3.12,14.1,224,-106.6,66.3
627,628,2024-07-22 02:45:11,1721641511,6244,p,3.12,14.1,224,-106.6,66.3
628,629,2024-07-22 02:45:21,1721641521,6254,p,3.12,14.1,224,-106.6,66.3
629,630,2024-07-22 02:45:31,1721641531,6264,p,3.11,14.1,224,-106.6,66.3
630,631,2024-07-22 02:45:41,1721641541,6274,p,3.12,14.1,224,-106.6,66.3
631,632,2024-07-22 02:45:51,1721641551,6284,p,3.12,14.1,224,-106.6,66.3
632,633,2024-07-22 02:46:01,1721641561,6294,p,3.11,14.1,224,-106.6,66.3
633,634,2024-07-22 02:46:11,1721641571,6304,p,3.12,14.1,224,-106.6,66.3
634,635,2024-07-22 02:46:21,1721641581,6314,p,3.11,14.1,224,-106.6,66.3
635,636,2024-07-22 02:46:31,1721641591,6324,p,3.1,14.1,224,-106.6,66.3
636,637,2024-07-22 02:46:41,1721641601,6334,p,3.11,14.1,224,-106.6,66.3
637,638,2024-07-22 02:46:51,1721641611,6344,p,3.1,14.1,224,-106.6,66.3
638,639,2024-07-22 02:47:01,1721641621,6354,p,3.11,14.1,224,-106.6,66.3
639,640,2024-07-22 02:47:11,1721641631,6364,p,3.11,14.1,224,-106.6,66.3
640,641,2024-07-22 02:47:21,1721641641,6374,p,3.11,14.1,224,-106.6,66.3
641,642,2024-07-22 02:47:31,1721641651,6384,p,3.11,14.1,224,-106.6,66.3
642,643,2024-07-22 02:47:41,1721641661,6394,p,3.12,14.1,224,-106.6,66.3
643,644,2024-07-22 02:47:51,1721641671,6404,p,3.12,14.1,224,-106.6,66.3
644,645,2024-07-22 02:48:00,1721641680,6413,p,3.12,14.1,224,-106.6,66.3
645,646,2024-07-22 02:48:10,1721641690,6423,p,3.12,14.1,224,-106.6,66.3
646,647,2024-07-22 02:48:20,1721641700,6433,p,3.11,14.1,224,-106.6,66.3
647,648,2024-07-22 02:48:30,1721641710,6443,p,3.11,14.1,224,-106.6,66.3
648,649,2024-07-22 02:48:40,1721641720,6453,p,3.11,14.1,224,-106.6,66.3
649,650,2024-07-22 02:48:50,1721641730,6463,p,3.11,14.1,224,-106.6,66.3
650,651,2024-07-22 02:49:00,1721641740,6473,p,3.11,14.1,224,-106.6,66.3
651,652,2024-07-22 02:49:10,1721641750,6483,p,3.11,14.1,224,-106.6,66.3
652,653,2024-07-22 02:49:20,1721641760,6493,p,3.11,14.1,224,-106.6,66.3
653,654,2024-07-22 02:49:30,1721641770,6503,p,3.11,14.1,224,-106.6,66.3
654,655,2024-07-22 02:49:40,1721641780,6513,p,3.11,14.1,224,-106.6,66.3
655,656,2024-07-22 02:49:50,1721641790,6523,p,3.11,14.1,224,-106.6,66.3
656,657,2024-07-22 02:50:00,1721641800,6533,p,3.11,14.1,224,-106.6,66.3
657,658,2024-07-22 02:50:10,1721641810,6543,p,3.11,14.1,224,-106.6,66.3
658,659,2024-07-22 02:50:20,1721641820,6553,p,3.11,14.1,224,-106.6,66.3
659,660,2024-07-22 02:50:30,1721641830,6563,p,3.11,14.1,224,-106.6,66.3
660,661,2024-07-22 02:50:40,1721641840,6573,p,3.11,14.1,224,-106.6,66.3
661,662,2024-07-22 02:50:50,1721641850,6583,p,3.11,14.1,224,-106.6,66.3
662,663,2024-07-22 02:51:00,1721641860,6593,p,3.11,14.1,224,-106.6,66.3
663,664,2024-07-22 02:51:10,1721641870,6603,p,3.1,14.1,224,-106.6,66.3
664,665,2024-07-22 02:51:20,1721641880,6613,p,3.1,14.1,224,-106.6,66.3
665,666,2024-07-22 02:51:30,1721641890,6623,p,3.11,14.1,224,-106.6,66.3
666,667,2024-07-22 02:51:39,1721641899,6632,p,3.1,14.1,224,-106.6,66.3
667,668,2024-07-22 02:51:49,1721641909,6642,p,3.1,14.1,224,-106.6,66.3
668,669,2024-07-22 02:51:59,1721641919,6652,p,3.1,14.1,224,-106.6,66.3
669,670,2024-07-22 02:52:09,1721641929,6662,p,3.1,14.1,224,-106.6,66.3
670,671,2024-07-22 02:52:19,1721641939,6672,p,3.11,14.1,224,-106.6,66.3
671,672,2024-07-22 02:52:29,1721641949,6682,p,3.1,14.1,224,-106.6,66.3
672,673,2024-07-22 02:52:39,1721641959,6692,p,3.1,14.1,224,-106.6,66.3
673,674,2024-07-22 02:52:49,1721641969,6702,p,3.1,14.1,224,-106.6,66.3
674,675,2024-07-22 02:52:59,1721641979,6712,p,3.1,14.1,224,-106.6,66.3
675,676,2024-07-22 02:53:09,1721641989,6722,p,3.1,14.1,224,-106.6,66.3
676,677,2024-07-22 02:53:19,1721641999,6732,p,3.1,14.1,224.1,-106.7,66.3
677,678,2024-07-22 02:53:29,1721642009,6742,p,3.1,14.1,224.1,-106.7,66.3
678,679,2024-07-22 02:53:39,1721642019,6752,p,3.09,14,224.1,-106.7,66.3
679,680,2024-07-22 02:53:49,1721642029,6762,p,3.09,14.1,224.1,-106.7,66.3
680,681,2024-07-22 02:53:59,1721642039,6772,p,3.09,14,224.1,-106.7,66.3
681,682,2024-07-22 02:54:09,1721642049,6782,p,3.09,14,224.1,-106.7,66.3
682,683,2024-07-22 02:54:19,1721642059,6792,p,3.09,14,224.1,-106.7,66.3
683,684,2024-07-22 02:54:29,1721642069,6802,p,3.1,14,224.1,-106.7,66.3
684,685,2024-07-22 02:54:39,1721642079,6812,p,3.09,14,224.1,-106.7,66.3
685,686,2024-07-22 02:54:49,1721642089,6822,p,3.09,14,224.1,-106.7,66.3
686,687,2024-07-22 02:54:59,1721642099,6832,p,3.09,14,224.1,-106.7,66.3
687,688,2024-07-22 02:55:09,1721642109,6842,p,3.09,14,224.1,-106.7,66.3
688,689,2024-07-22 02:55:18,1721642118,6851,p,3.09,14,224.1,-106.7,66.3
689,690,2024-07-22 02:55:28,1721642128,6861,p,3.09,14,224.1,-106.7,66.3
690,691,2024-07-22 02:55:38,1721642138,6871,p,3.1,14.1,224.1,-106.7,66.3
691,692,2024-07-22 02:55:48,1721642148,6881,p,3.08,14,224.1,-106.7,66.3
692,693,2024-07-22 02:55:58,1721642158,6891,p,3.09,14,224.1,-106.7,66.3
693,694,2024-07-22 02:56:08,1721642168,6901,p,3.08,14,224.1,-106.7,66.3
694,695,2024-07-22 02:56:18,1721642178,6911,p,3.1,14,224.1,-106.7,66.3
695,696,2024-07-22 02:56:28,1721642188,6921,p,3.1,14,224.1,-106.7,66.3
696,697,2024-07-22 02:56:38,1721642198,6931,p,3.09,14.1,224.1,-106.7,66.3
697,698,2024-07-22 02:56:48,1721642208,6941,p,3.1,14.1,224.1,-106.7,66.3
698,699,2024-07-22 02:56:58,1721642218,6951,p,3.09,14.1,224.1,-106.7,66.3
699,700,2024-07-22 02:57:08,1721642228,6961,p,3.09,14.1,224.1,-106.7,66.3
700,701,2024-07-22 02:57:18,1721642238,6971,p,3.09,14.1,224.1,-106.7,66.3
701,702,2024-07-22 02:57:28,1721642248,6981,p,3.09,14.1,224.1,-106.7,66.3
702,703,2024-07-22 02:57:38,1721642258,6991,p,3.09,14.1,224.1,-106.7,66.3
703,704,2024-07-22 02:57:48,1721642268,7001,p,3.1,14.1,224.1,-106.7,66.3
704,705,2024-07-22 02:57:58,1721642278,7011,p,3.09,14.1,224.1,-106.7,66.3
705,706,2024-07-22 02:58:08,1721642288,7021,p,3.09,14,224.1,-106.7,66.3
706,707,2024-07-22 02:58:18,1721642298,7031,p,3.08,14,224.1,-106.7,66.3
707,708,2024-07-22 02:58:28,1721642308,7041,p,3.09,14,224.1,-106.7,66.3
708,709,2024-07-22 02:58:38,1721642318,7051,p,3.08,14,224.1,-106.7,66.3
709,710,2024-07-22 02:58:48,1721642328,7061,p,3.08,14,224.1,-106.7,66.3
710,711,2024-07-22 02:58:58,1721642338,7071,p,3.08,14,224.1,-106.7,66.3
711,712,2024-07-22 02:59:07,1721642347,7080,p,3.09,14,224.1,-106.7,66.3
712,713,2024-07-22 02:59:17,1721642357,7090,p,3.09,14,224.1,-106.7,66.3
713,714,2024-07-22 02:59:27,1721642367,7100,p,3.08,14,224.1,-106.7,66.3
714,715,2024-07-22 02:59:37,1721642377,7110,p,3.08,14,224.1,-106.7,66.3
715,716,2024-07-22 02:59:47,1721642387,7120,p,3.08,14,224.1,-106.7,66.3
716,717,2024-07-22 02:59:57,1721642397,7130,p,3.08,14,224.1,-106.7,66.3
717,718,2024-07-22 03:00:07,1721642407,7140,p,3.08,14,224.1,-106.7,66.3
718,719,2024-07-22 03:00:17,1721642417,7150,p,3.08,14,224.1,-106.7,66.3
719,720,2024-07-22 03:00:27,1721642427,7160,p,3.08,14,224.1,-106.7,66.3
720,721,2024-07-22 03:00:37,1721642437,7170,p,3.08,14.1,224.1,-106.7,66.3
721,722,2024-07-22 03:00:47,1721642447,7180,p,3.08,14.1,224.1,-106.7,66.3
722,723,2024-07-22 03:00:57,1721642457,7190,p,3.09,14.1,224.1,-106.7,66.3
723,724,2024-07-22 03:01:07,1721642467,7200,p,3.09,14.1,224.1,-106.7,66.3
724,725,2024-07-22 03:01:17,1721642477,7210,p,3.08,14.1,224.1,-106.7,66.3
725,726,2024-07-22 03:01:27,1721642487,7220,p,3.08,14.1,224.1,-106.7,66.3
726,727,2024-07-22 03:01:37,1721642497,7230,p,3.08,14.1,224.1,-106.7,66.3
727,728,2024-07-22 03:01:47,1721642507,7240,p,3.09,14.1,224.1,-106.7,66.3
728,729,2024-07-22 03:01:57,1721642517,7250,p,3.09,14.1,224.1,-106.7,66.3
729,730,2024-07-22 03:02:07,1721642527,7260,p,3.09,14.1,224.1,-106.7,66.3
730,731,2024-07-22 03:02:17,1721642537,7270,p,3.09,14.1,224.1,-106.7,66.3
731,732,2024-07-22 03:02:27,1721642547,7280,p,3.09,14.1,224.1,-106.7,66.3
732,733,2024-07-22 03:02:37,1721642557,7290,p,3.09,14.1,224.1,-106.7,66.3
733,734,2024-07-22 03:02:46,1721642566,7299,p,3.09,14.1,224.1,-106.7,66.3
734,735,2024-07-22 03:02:56,1721642576,7309,p,3.1,14.1,224.1,-106.7,66.3
735,736,2024-07-22 03:03:06,1721642586,7319,p,3.09,14.1,224.1,-106.7,66.3
736,737,2024-07-22 03:03:16,1721642596,7329,p,3.09,14.1,224.1,-106.7,66.3
737,738,2024-07-22 03:03:26,1721642606,7339,p,3.09,14.1,224.1,-106.7,66.3
738,739,2024-07-22 03:03:36,1721642616,7349,p,3.08,14.1,224.1,-106.7,66.3
739,740,2024-07-22 03:03:46,1721642626,7359,p,3.08,14.1,224.1,-106.7,66.3
740,741,2024-07-22 03:03:56,1721642636,7369,p,3.08,14.1,224.1,-106.7,66.3
741,742,2024-07-22 03:04:06,1721642646,7379,p,3.08,14.1,224.1,-106.7,66.3
742,743,2024-07-22 03:04:16,1721642656,7389,p,3.08,14.1,224.1,-106.7,66.2
743,744,2024-07-22 03:04:26,1721642666,7399,p,3.08,14,224.1,-106.7,66.2
744,745,2024-07-22 03:04:36,1721642676,7409,p,3.07,14,224.1,-106.7,66.2
745,746,2024-07-22 03:04:46,1721642686,7419,p,3.08,14,224.1,-106.7,66.2
746,747,2024-07-22 03:04:56,1721642696,7429,p,3.08,14,224.1,-106.7,66.2
747,748,2024-07-22 03:05:06,1721642706,7439,p,3.08,14,224.1,-106.7,66.2
748,749,2024-07-22 03:05:16,1721642716,7449,p,3.08,14,224.1,-106.7,66.2
749,750,2024-07-22 03:05:26,1721642726,7459,p,3.08,14,224.1,-106.7,66.2
750,751,2024-07-22 03:05:36,1721642736,7469,p,3.08,14.1,224.1,-106.7,66.2
751,752,2024-07-22 03:05:46,1721642746,7479,p,3.09,14.1,224.1,-106.7,66.2
752,753,2024-07-22 03:05:56,1721642756,7489,p,3.08,14.1,224.1,-106.7,66.2
753,754,2024-07-22 03:06:06,1721642766,7499,p,3.08,14.1,224.1,-106.7,66.2
754,755,2024-07-22 03:06:16,1721642776,7509,p,3.08,14.1,224.1,-106.7,66.2
755,756,2024-07-22 03:06:25,1721642785,7518,p,3.08,14.1,224.1,-106.7,66.2
756,757,2024-07-22 03:06:35,1721642795,7528,p,3.07,14.1,224.1,-106.7,66.2
757,758,2024-07-22 03:06:45,1721642805,7538,p,3.08,14.1,224.1,-106.7,66.2
758,759,2024-07-22 03:06:55,1721642815,7548,p,3.08,14.1,224.1,-106.7,66.2
759,760,2024-07-22 03:07:05,1721642825,7558,p,3.08,14.1,224.1,-106.7,66.2
760,761,2024-07-22 03:07:15,1721642835,7568,p,3.08,14.1,224.1,-106.7,66.2
761,762,2024-07-22 03:07:25,1721642845,7578,p,3.08,14.1,224.1,-106.7,66.2
762,763,2024-07-22 03:07:35,1721642855,7588,p,3.08,14.1,224.1,-106.7,66.2
763,764,2024-07-22 03:07:45,1721642865,7598,p,3.07,14.1,224.1,-106.7,66.2
764,765,2024-07-22 03:07:55,1721642875,7608,p,3.07,14.1,224.1,-106.7,66.2
765,766,2024-07-22 03:08:05,1721642885,7618,p,3.08,14.1,224.1,-106.7,66.2
766,767,2024-07-22 03:08:15,1721642895,7628,p,3.07,14.1,224.1,-106.7,66.2
767,768,2024-07-22 03:08:25,1721642905,7638,p,3.08,14.1,224.1,-106.7,66.2
768,769,2024-07-22 03:08:35,1721642915,7648,p,3.07,14.1,224.1,-106.7,66.2
769,770,2024-07-22 03:08:45,1721642925,7658,p,3.08,14.1,224.1,-106.7,66.2
770,771,2024-07-22 03:08:55,1721642935,7668,p,3.07,14.1,224.1,-106.7,66.2
771,772,2024-07-22 03:09:05,1721642945,7678,p,3.08,14.1,224.1,-106.7,66.2
772,773,2024-07-22 03:09:15,1721642955,7688,p,3.08,14.1,224.1,-106.7,66.2
773,774,2024-07-22 03:09:25,1721642965,7698,p,3.08,14.1,224.1,-106.7,66.2
774,775,2024-07-22 03:09:35,1721642975,7708,p,3.07,14.1,224.1,-106.7,66.2
775,776,2024-07-22 03:09:45,1721642985,7718,p,3.08,14.1,224.1,-106.7,66.2
776,777,2024-07-22 03:09:55,1721642995,7728,p,3.08,14.1,224.1,-106.7,66.2
777,778,2024-07-22 03:10:04,1721643004,7737,p,3.07,14.1,224.1,-106.7,66.2
778,779,2024-07-22 03:10:14,1721643014,7747,p,3.07,14.1,224.1,-106.7,66.2
779,780,2024-07-22 03:10:24,1721643024,7757,p,3.07,14.1,224.1,-106.7,66.2
780,781,2024-07-22 03:10:34,1721643034,7767,p,3.07,14.1,224.1,-106.7,66.2
781,782,2024-07-22 03:10:44,1721643044,7777,p,3.07,14.1,224.1,-106.7,66.2
782,783,2024-07-22 03:10:54,1721643054,7787,p,3.07,14.1,224.1,-106.7,66.2
783,784,2024-07-22 03:11:04,1721643064,7797,p,3.07,14.1,224.1,-106.7,66.2
784,785,2024-07-22 03:11:14,1721643074,7807,p,3.07,14.1,224.1,-106.7,66.2
785,786,2024-07-22 03:11:24,1721643084,7817,p,3.07,14.1,224.1,-106.7,66.2
786,787,2024-07-22 03:11:34,1721643094,7827,p,3.07,14.1,224.1,-106.7,66.2
787,788,2024-07-22 03:11:44,1721643104,7837,p,3.07,14.1,224.1,-106.7,66.2
788,789,2024-07-22 03:11:54,1721643114,7847,p,3.07,14.1,224.1,-106.7,66.2
789,790,2024-07-22 03:12:04,1721643124,7857,p,3.07,14.1,224.1,-106.7,66.2
790,791,2024-07-22 03:12:14,1721643134,7867,p,3.07,14.1,224.1,-106.7,66.2
791,792,2024-07-22 03:12:24,1721643144,7877,p,3.07,14.1,224.1,-106.7,66.2
792,793,2024-07-22 03:12:34,1721643154,7887,p,3.07,14.1,224.1,-106.7,66.2
793,794,2024-07-22 03:12:44,1721643164,7897,p,3.08,14.1,224.1,-106.7,66.2
794,795,2024-07-22 03:12:54,1721643174,7907,p,3.07,14.1,224.1,-106.7,66.2
795,796,2024-07-22 03:13:04,1721643184,7917,p,3.07,14.1,224.1,-106.7,66.2
796,797,2024-07-22 03:13:14,1721643194,7927,p,3.08,14.1,224.1,-106.7,66.2
797,798,2024-07-22 03:13:24,1721643204,7937,p,3.07,14.1,224.1,-106.7,66.2
798,799,2024-07-22 03:13:34,1721643214,7947,p,3.07,14.1,224.1,-106.7,66.2
799,800,2024-07-22 03:13:43,1721643223,7956,p,3.07,14.1,224.1,-106.7,66.2
800,801,2024-07-22 03:13:53,1721643233,7966,p,3.07,14.1,224.1,-106.7,66.2
801,802,2024-07-22 03:14:03,1721643243,7976,p,3.07,14.1,224.1,-106.7,66.2
802,803,2024-07-22 03:14:13,1721643253,7986,p,3.07,14.1,224.1,-106.7,66.2
803,804,2024-07-22 03:14:23,1721643263,7996,p,3.07,14.1,224.1,-106.7,66.2
804,805,2024-07-22 03:14:33,1721643273,8006,p,3.07,14.1,224.1,-106.7,66.2
805,806,2024-07-22 03:14:43,1721643283,8016,p,3.08,14.1,224.1,-106.7,66.2
806,807,2024-07-22 03:14:53,1721643293,8026,p,3.07,14.1,224.1,-106.7,66.2
807,808,2024-07-22 03:15:03,1721643303,8036,p,3.08,14.1,224.1,-106.7,66.2
808,809,2024-07-22 03:15:13,1721643313,8046,p,3.07,14.1,224.1,-106.7,66.1
809,810,2024-07-22 03:15:23,1721643323,8056,p,3.07,14.1,224.1,-106.7,66.1
810,811,2024-07-22 03:15:33,1721643333,8066,p,3.06,14.1,224.1,-106.7,66.1
