Number,Id,Datetime,Timestamp,Runtime,Type,Depth,Temperature,Heading,Roll,Pitch
1,2,2025-01-30 00:07:53,1738224473,13,p,0.2,13.5,179.8,-85.4,-2.6
2,3,2025-01-30 00:08:02,1738224482,22,p,0.2,13.5,180.1,-86.1,-2.2
3,4,2025-01-30 00:08:12,1738224492,32,p,0.2,13.5,180.1,-85.7,-2.2
4,5,2025-01-30 00:08:22,1738224502,42,p,0.2,13.5,180.1,-85.5,-2.3
5,6,2025-01-30 00:08:32,1738224512,52,p,0.2,13.5,179.5,-85.5,-2.9
6,7,2025-01-30 00:08:42,1738224522,62,p,0.21,13.4,179.7,-85.6,-2.6
7,8,2025-01-30 00:08:52,1738224532,72,p,0.2,13.4,180.9,-82.5,3.5
8,9,2025-01-30 00:09:02,1738224542,82,p,0.64,11.2,177.4,-78.9,-42.2
9,10,2025-01-30 00:09:12,1738224552,92,p,0.67,9.3,96.4,-88.6,-1
10,11,2025-01-30 00:09:22,1738224562,102,p,1.35,8.6,53.6,-88.1,-1.4
11,12,2025-01-30 00:09:32,1738224572,112,p,3.98,8.1,41.7,-88.1,-1.7
12,13,2025-01-30 00:09:42,1738224582,122,p,5.92,7.8,33.9,-106,-16.3
13,14,2025-01-30 00:09:52,1738224592,132,p,5.92,7.8,34,-105.9,-16.1
14,15,2025-01-30 00:10:02,1738224602,142,p,5.92,7.8,34,-105.9,-16.1
15,16,2025-01-30 00:10:12,1738224612,152,p,5.92,7.8,34,-105.9,-16.1
16,17,2025-01-30 00:10:22,1738224622,162,p,5.92,7.8,34,-105.9,-16.1
17,18,2025-01-30 00:10:32,1738224632,172,p,5.92,7.8,34,-105.9,-16.1
18,19,2025-01-30 00:10:42,1738224642,182,p,5.92,7.8,34,-105.9,-16.1
19,20,2025-01-30 00:10:52,1738224652,192,p,5.92,7.8,34,-105.9,-16.1
20,21,2025-01-30 00:11:02,1738224662,202,p,5.92,7.9,34,-105.9,-16.1
21,22,2025-01-30 00:11:12,1738224672,212,p,5.92,7.9,34,-105.9,-16.1
22,23,2025-01-30 00:11:22,1738224682,222,p,5.92,7.9,34,-105.9,-16.1
23,24,2025-01-30 00:11:31,1738224691,231,p,5.92,7.9,34,-105.9,-16.1
24,25,2025-01-30 00:11:41,1738224701,241,p,5.92,7.9,34,-105.9,-16.1
25,26,2025-01-30 00:11:51,1738224711,251,p,5.92,7.9,34,-105.9,-16.1
26,27,2025-01-30 00:12:01,1738224721,261,p,5.92,7.9,34,-105.9,-16.1
27,28,2025-01-30 00:12:11,1738224731,271,p,5.92,7.9,34,-105.9,-16.1
28,29,2025-01-30 00:12:21,1738224741,281,p,5.93,7.9,34,-105.9,-16.1
29,30,2025-01-30 00:12:31,1738224751,291,p,5.93,7.9,34,-105.9,-16.1
30,31,2025-01-30 00:12:41,1738224761,301,p,5.92,7.8,34,-105.9,-16.1
31,32,2025-01-30 00:12:51,1738224771,311,p,5.92,7.8,34,-105.9,-16.1
32,33,2025-01-30 00:13:01,1738224781,321,p,5.92,7.8,34,-105.9,-16.1
33,34,2025-01-30 00:13:11,1738224791,331,p,5.93,7.8,34,-105.9,-16.1
34,35,2025-01-30 00:13:21,1738224801,341,p,5.93,7.8,34,-105.9,-16.1
35,36,2025-01-30 00:13:31,1738224811,351,p,5.93,7.8,34,-105.9,-16.1
36,37,2025-01-30 00:13:41,1738224821,361,p,5.92,7.8,34,-105.9,-16.1
37,38,2025-01-30 00:13:51,1738224831,371,p,5.93,7.8,34,-105.9,-16.1
38,39,2025-01-30 00:14:01,1738224841,381,p,5.93,7.7,34,-105.9,-16.1
39,40,2025-01-30 00:14:11,1738224851,391,p,5.93,7.7,34,-105.9,-16.1
40,41,2025-01-30 00:14:21,1738224861,401,p,5.93,7.6,34,-105.9,-16.1
41,42,2025-01-30 00:14:31,1738224871,411,p,5.93,7.7,34,-105.9,-16.1
42,43,2025-01-30 00:14:41,1738224881,421,p,5.92,7.7,34,-105.9,-16.1
43,44,2025-01-30 00:14:51,1738224891,431,p,5.92,7.7,34,-105.9,-16.1
44,45,2025-01-30 00:15:01,1738224901,441,p,5.92,7.6,34,-105.9,-16.1
45,46,2025-01-30 00:15:10,1738224910,450,p,5.93,7.6,34,-105.9,-16.1
46,47,2025-01-30 00:15:20,1738224920,460,p,5.92,7.6,34,-105.9,-16.1
47,48,2025-01-30 00:15:30,1738224930,470,p,5.93,7.6,34,-105.9,-16.1
48,49,2025-01-30 00:15:40,1738224940,480,p,5.92,7.6,34,-105.9,-16.1
49,50,2025-01-30 00:15:50,1738224950,490,p,5.93,7.6,34,-105.9,-16.1
50,51,2025-01-30 00:16:00,1738224960,500,p,5.93,7.6,34,-105.9,-16.1
51,52,2025-01-30 00:16:10,1738224970,510,p,5.92,7.6,34,-105.9,-16.1
52,53,2025-01-30 00:16:20,1738224980,520,p,5.93,7.6,34,-105.9,-16.1
53,54,2025-01-30 00:16:30,1738224990,530,p,5.92,7.6,34,-105.9,-16.1
54,55,2025-01-30 00:16:40,1738225000,540,p,5.92,7.6,34,-105.9,-16.1
55,56,2025-01-30 00:16:50,1738225010,550,p,5.92,7.6,34,-105.9,-16.1
56,57,2025-01-30 00:17:00,1738225020,560,p,5.92,7.6,34,-105.9,-16.1
57,58,2025-01-30 00:17:10,1738225030,570,p,5.92,7.6,34,-105.9,-16.1
58,59,2025-01-30 00:17:20,1738225040,580,p,5.92,7.6,34,-105.9,-16.1
59,60,2025-01-30 00:17:30,1738225050,590,p,5.92,7.6,34,-105.9,-16.1
60,61,2025-01-30 00:17:40,1738225060,600,p,5.92,7.6,34,-105.9,-16.1
61,62,2025-01-30 00:17:50,1738225070,610,p,5.92,7.7,34,-105.9,-16.1
62,63,2025-01-30 00:18:00,1738225080,620,p,5.93,7.7,34,-105.9,-16.1
63,64,2025-01-30 00:18:10,1738225090,630,p,5.93,7.7,34,-105.9,-16.1
64,65,2025-01-30 00:18:20,1738225100,640,p,5.93,7.7,34,-105.9,-16.1
65,66,2025-01-30 00:18:30,1738225110,650,p,5.93,7.7,34,-105.9,-16.1
66,67,2025-01-30 00:18:39,1738225119,659,p,5.93,7.7,34,-105.9,-16.1
67,68,2025-01-30 00:18:49,1738225129,669,p,5.93,7.7,34,-105.9,-16.1
68,69,2025-01-30 00:18:59,1738225139,679,p,5.93,7.7,34,-105.9,-16.1
69,70,2025-01-30 00:19:09,1738225149,689,p,5.93,7.7,34,-105.9,-16.1
70,71,2025-01-30 00:19:19,1738225159,699,p,5.93,7.7,34,-105.9,-16.1
71,72,2025-01-30 00:19:29,1738225169,709,p,5.93,7.7,34,-105.9,-16.1
72,73,2025-01-30 00:19:39,1738225179,719,p,5.93,7.7,34,-105.9,-16.1
73,74,2025-01-30 00:19:49,1738225189,729,p,5.93,7.7,34,-105.9,-16.1
74,75,2025-01-30 00:19:59,1738225199,739,p,5.94,7.7,34,-105.9,-16.1
75,76,2025-01-30 00:20:09,1738225209,749,p,5.94,7.7,34,-105.9,-16.1
76,77,2025-01-30 00:20:19,1738225219,759,p,5.93,7.7,34,-105.9,-16.1
77,78,2025-01-30 00:20:29,1738225229,769,p,5.93,7.7,34,-105.9,-16.1
78,79,2025-01-30 00:20:39,1738225239,779,p,5.94,7.7,34,-105.9,-16
79,80,2025-01-30 00:20:49,1738225249,789,p,5.93,7.6,34,-105.9,-16
80,81,2025-01-30 00:20:59,1738225259,799,p,5.93,7.6,34,-105.9,-16
81,82,2025-01-30 00:21:09,1738225269,809,p,5.93,7.7,34,-105.9,-16
82,83,2025-01-30 00:21:19,1738225279,819,p,5.93,7.6,34,-105.9,-16
83,84,2025-01-30 00:21:29,1738225289,829,p,5.93,7.6,34,-105.9,-16
84,85,2025-01-30 00:21:39,1738225299,839,p,5.93,7.6,34,-105.9,-16
85,86,2025-01-30 00:21:49,1738225309,849,p,5.93,7.6,34,-105.9,-16
86,87,2025-01-30 00:21:59,1738225319,859,p,5.93,7.6,34,-105.9,-16
87,88,2025-01-30 00:22:08,1738225328,868,p,5.93,7.6,34,-105.9,-16
88,89,2025-01-30 00:22:18,1738225338,878,p,5.92,7.6,34,-105.9,-16
89,90,2025-01-30 00:22:28,1738225348,888,p,5.93,7.6,34,-105.9,-16
90,91,2025-01-30 00:22:38,1738225358,898,p,5.93,7.6,34,-105.9,-16
91,92,2025-01-30 00:22:48,1738225368,908,p,5.93,7.6,34,-105.9,-16
92,93,2025-01-30 00:22:58,1738225378,918,p,5.93,7.6,34,-105.9,-16
93,94,2025-01-30 00:23:08,1738225388,928,p,5.93,7.6,34,-105.9,-16
94,95,2025-01-30 00:23:18,1738225398,938,p,5.93,7.5,34,-105.9,-16
95,96,2025-01-30 00:23:28,1738225408,948,p,5.92,7.5,34,-105.9,-16
96,97,2025-01-30 00:23:38,1738225418,958,p,5.93,7.5,34,-105.9,-16
97,98,2025-01-30 00:23:48,1738225428,968,p,5.93,7.5,34,-105.9,-16
98,99,2025-01-30 00:23:58,1738225438,978,p,5.93,7.5,34,-105.9,-16
99,100,2025-01-30 00:24:08,1738225448,988,p,5.93,7.5,34,-105.9,-16
100,101,2025-01-30 00:24:18,1738225458,998,p,5.93,7.6,34,-105.9,-16
101,102,2025-01-30 00:24:28,1738225468,1008,p,5.94,7.5,34,-105.9,-16
102,103,2025-01-30 00:24:38,1738225478,1018,p,5.93,7.5,34,-105.9,-16
103,104,2025-01-30 00:24:48,1738225488,1028,p,5.93,7.5,34,-105.9,-16
104,105,2025-01-30 00:24:58,1738225498,1038,p,5.93,7.5,34,-105.9,-16
105,106,2025-01-30 00:25:08,1738225508,1048,p,5.93,7.5,34,-105.9,-16
106,107,2025-01-30 00:25:18,1738225518,1058,p,5.93,7.5,34,-105.9,-16
107,108,2025-01-30 00:25:28,1738225528,1068,p,5.93,7.5,34,-105.9,-16
108,109,2025-01-30 00:25:38,1738225538,1078,p,5.93,7.5,34,-105.9,-16
109,110,2025-01-30 00:25:47,1738225547,1087,p,5.93,7.5,34,-105.9,-16
110,111,2025-01-30 00:25:57,1738225557,1097,p,5.93,7.5,34,-105.9,-16
111,112,2025-01-30 00:26:07,1738225567,1107,p,5.93,7.5,34,-105.9,-16
112,113,2025-01-30 00:26:17,1738225577,1117,p,5.93,7.5,34,-105.9,-16
113,114,2025-01-30 00:26:27,1738225587,1127,p,5.93,7.5,34,-105.9,-16
114,115,2025-01-30 00:26:37,1738225597,1137,p,5.93,7.5,34,-105.9,-16
115,116,2025-01-30 00:26:47,1738225607,1147,p,5.93,7.5,34,-105.9,-16
116,117,2025-01-30 00:26:57,1738225617,1157,p,5.93,7.5,34,-105.9,-16
117,118,2025-01-30 00:27:07,1738225627,1167,p,5.93,7.5,34,-105.9,-16
118,119,2025-01-30 00:27:17,1738225637,1177,p,5.93,7.5,34,-105.9,-16
119,120,2025-01-30 00:27:27,1738225647,1187,p,5.93,7.5,34,-105.9,-16
120,121,2025-01-30 00:27:37,1738225657,1197,p,5.93,7.5,34,-105.9,-16
121,122,2025-01-30 00:27:47,1738225667,1207,p,5.94,7.5,34,-105.9,-16
122,123,2025-01-30 00:27:57,1738225677,1217,p,5.93,7.5,34,-105.9,-16
123,124,2025-01-30 00:28:07,1738225687,1227,p,5.94,7.5,34,-105.9,-16
124,125,2025-01-30 00:28:17,1738225697,1237,p,5.93,7.5,34,-105.9,-16
125,126,2025-01-30 00:28:27,1738225707,1247,p,5.94,7.5,34,-105.9,-16
126,127,2025-01-30 00:28:37,1738225717,1257,p,5.94,7.5,34,-105.9,-16
127,128,2025-01-30 00:28:47,1738225727,1267,p,5.94,7.5,34,-105.9,-16
128,129,2025-01-30 00:28:57,1738225737,1277,p,5.94,7.5,34,-105.9,-16
129,130,2025-01-30 00:29:07,1738225747,1287,p,5.94,7.5,34,-105.9,-16
130,131,2025-01-30 00:29:17,1738225757,1297,p,5.94,7.5,34,-105.9,-16
131,132,2025-01-30 00:29:26,1738225766,1306,p,5.95,7.5,34,-105.9,-16
132,133,2025-01-30 00:29:36,1738225776,1316,p,5.95,7.5,34,-105.9,-16
133,134,2025-01-30 00:29:46,1738225786,1326,p,5.94,7.5,34,-105.9,-16
134,135,2025-01-30 00:29:56,1738225796,1336,p,5.95,7.5,34,-105.9,-16
135,136,2025-01-30 00:30:06,1738225806,1346,p,5.95,7.5,34,-105.9,-16
136,137,2025-01-30 00:30:16,1738225816,1356,p,5.95,7.5,34,-105.9,-16
137,138,2025-01-30 00:30:26,1738225826,1366,p,5.94,7.5,34,-105.9,-16
138,139,2025-01-30 00:30:36,1738225836,1376,p,5.95,7.5,34,-105.9,-16
139,140,2025-01-30 00:30:46,1738225846,1386,p,5.94,7.5,34,-105.9,-16
140,141,2025-01-30 00:30:56,1738225856,1396,p,5.94,7.5,34,-105.9,-16
141,142,2025-01-30 00:31:06,1738225866,1406,p,5.94,7.5,34,-105.9,-16
142,143,2025-01-30 00:31:16,1738225876,1416,p,5.94,7.5,34,-105.9,-16
143,144,2025-01-30 00:31:26,1738225886,1426,p,5.95,7.5,34,-105.9,-16
144,145,2025-01-30 00:31:36,1738225896,1436,p,5.94,7.5,34,-105.9,-16
145,146,2025-01-30 00:31:46,1738225906,1446,p,5.94,7.5,34,-105.9,-16
146,147,2025-01-30 00:31:56,1738225916,1456,p,5.95,7.5,34,-105.9,-16
147,148,2025-01-30 00:32:06,1738225926,1466,p,5.95,7.5,34,-105.9,-16
148,149,2025-01-30 00:32:16,1738225936,1476,p,5.95,7.5,34,-105.9,-16
149,150,2025-01-30 00:32:26,1738225946,1486,p,5.94,7.5,34,-105.9,-16
150,151,2025-01-30 00:32:36,1738225956,1496,p,5.94,7.5,34,-105.9,-16
151,152,2025-01-30 00:32:46,1738225966,1506,p,5.94,7.5,34,-105.9,-16
152,153,2025-01-30 00:32:56,1738225976,1516,p,5.94,7.5,34,-105.9,-16
153,154,2025-01-30 00:33:06,1738225986,1526,p,5.94,7.5,34,-105.9,-16
154,155,2025-01-30 00:33:15,1738225995,1535,p,5.94,7.5,34,-105.9,-16
155,156,2025-01-30 00:33:25,1738226005,1545,p,5.93,7.5,34,-105.9,-16
156,157,2025-01-30 00:33:35,1738226015,1555,p,5.94,7.5,34,-105.9,-16
157,158,2025-01-30 00:33:45,1738226025,1565,p,5.93,7.5,34,-105.9,-16
158,159,2025-01-30 00:33:55,1738226035,1575,p,5.93,7.5,34,-105.9,-16
159,160,2025-01-30 00:34:05,1738226045,1585,p,5.93,7.5,34,-105.9,-16
160,161,2025-01-30 00:34:15,1738226055,1595,p,5.93,7.5,34,-105.9,-16
161,162,2025-01-30 00:34:25,1738226065,1605,p,5.93,7.5,34,-105.9,-16
162,163,2025-01-30 00:34:35,1738226075,1615,p,5.92,7.5,34,-105.9,-16
163,164,2025-01-30 00:34:45,1738226085,1625,p,5.92,7.5,34,-105.9,-16
164,165,2025-01-30 00:34:55,1738226095,1635,p,5.91,7.5,34,-105.9,-16
165,166,2025-01-30 00:35:05,1738226105,1645,p,5.91,7.5,34,-105.9,-16
166,167,2025-01-30 00:35:15,1738226115,1655,p,5.91,7.5,34,-105.9,-16
167,168,2025-01-30 00:35:25,1738226125,1665,p,5.91,7.5,34,-105.9,-16
168,169,2025-01-30 00:35:35,1738226135,1675,p,5.9,7.5,34,-105.9,-16
169,170,2025-01-30 00:35:45,1738226145,1685,p,5.9,7.5,34,-105.9,-16
170,171,2025-01-30 00:35:55,1738226155,1695,p,5.89,7.5,34,-105.9,-16
171,172,2025-01-30 00:36:05,1738226165,1705,p,5.89,7.4,34,-105.9,-16
172,173,2025-01-30 00:36:15,1738226175,1715,p,5.9,7.4,34,-105.9,-16
173,174,2025-01-30 00:36:25,1738226185,1725,p,5.89,7.4,34,-105.9,-16
174,175,2025-01-30 00:36:35,1738226195,1735,p,5.89,7.4,34,-105.9,-16
175,176,2025-01-30 00:36:45,1738226205,1745,p,5.89,7.4,34,-105.9,-16
176,177,2025-01-30 00:36:54,1738226214,1754,p,5.89,7.4,34,-105.9,-16
177,178,2025-01-30 00:37:04,1738226224,1764,p,5.89,7.4,34,-105.9,-16
178,179,2025-01-30 00:37:14,1738226234,1774,p,5.88,7.4,34,-105.9,-16
179,180,2025-01-30 00:37:24,1738226244,1784,p,5.88,7.4,34,-105.9,-16
180,181,2025-01-30 00:37:34,1738226254,1794,p,5.89,7.4,34,-105.9,-16
181,182,2025-01-30 00:37:44,1738226264,1804,p,5.89,7.4,34,-105.9,-16
182,183,2025-01-30 00:37:54,1738226274,1814,p,5.89,7.4,34,-105.9,-16
183,184,2025-01-30 00:38:04,1738226284,1824,p,5.89,7.4,34,-105.9,-16
184,185,2025-01-30 00:38:14,1738226294,1834,p,5.89,7.4,34,-105.9,-16
185,186,2025-01-30 00:38:24,1738226304,1844,p,5.89,7.4,34,-105.9,-16
186,187,2025-01-30 00:38:34,1738226314,1854,p,5.89,7.4,34,-105.9,-16
187,188,2025-01-30 00:38:44,1738226324,1864,p,5.9,7.4,34,-105.9,-16
188,189,2025-01-30 00:38:54,1738226334,1874,p,5.9,7.4,34,-105.9,-16
189,190,2025-01-30 00:39:04,1738226344,1884,p,5.9,7.4,34,-105.9,-16
190,191,2025-01-30 00:39:14,1738226354,1894,p,5.9,7.4,34,-105.9,-16
191,192,2025-01-30 00:39:24,1738226364,1904,p,5.9,7.4,34,-105.9,-16
192,193,2025-01-30 00:39:34,1738226374,1914,p,5.9,7.4,34,-105.9,-16
193,194,2025-01-30 00:39:44,1738226384,1924,p,5.91,7.4,34,-105.9,-16
194,195,2025-01-30 00:39:54,1738226394,1934,p,5.91,7.4,34,-105.9,-16
195,196,2025-01-30 00:40:04,1738226404,1944,p,5.92,7.4,34,-105.9,-16
196,197,2025-01-30 00:40:14,1738226414,1954,p,5.92,7.4,34,-105.9,-16
197,198,2025-01-30 00:40:24,1738226424,1964,p,5.92,7.4,34,-105.9,-16
198,199,2025-01-30 00:40:33,1738226433,1973,p,5.93,7.4,34,-105.9,-16
199,200,2025-01-30 00:40:43,1738226443,1983,p,5.93,7.4,34,-105.9,-16
200,201,2025-01-30 00:40:53,1738226453,1993,p,5.93,7.4,34,-105.9,-16
201,202,2025-01-30 00:41:03,1738226463,2003,p,5.92,7.4,34,-105.9,-16
202,203,2025-01-30 00:41:13,1738226473,2013,p,5.93,7.4,34,-105.9,-16
203,204,2025-01-30 00:41:23,1738226483,2023,p,5.93,7.4,34,-105.9,-16
204,205,2025-01-30 00:41:33,1738226493,2033,p,5.93,7.4,34,-105.9,-16
205,206,2025-01-30 00:41:43,1738226503,2043,p,5.93,7.4,34,-105.9,-16
206,207,2025-01-30 00:41:53,1738226513,2053,p,5.92,7.4,34,-105.9,-16
207,208,2025-01-30 00:42:03,1738226523,2063,p,5.92,7.4,34,-105.9,-16
208,209,2025-01-30 00:42:13,1738226533,2073,p,5.92,7.4,34,-105.9,-16
209,210,2025-01-30 00:42:23,1738226543,2083,p,5.92,7.4,34,-105.9,-16
210,211,2025-01-30 00:42:33,1738226553,2093,p,5.92,7.4,34,-105.9,-16
211,212,2025-01-30 00:42:43,1738226563,2103,p,5.91,7.4,34,-105.9,-16
212,213,2025-01-30 00:42:53,1738226573,2113,p,5.92,7.4,34,-105.9,-16
213,214,2025-01-30 00:43:03,1738226583,2123,p,5.91,7.4,34,-105.9,-16
214,215,2025-01-30 00:43:13,1738226593,2133,p,5.91,7.4,34,-105.9,-16
215,216,2025-01-30 00:43:23,1738226603,2143,p,5.91,7.4,34,-105.9,-16
216,217,2025-01-30 00:43:33,1738226613,2153,p,5.9,7.4,34,-105.9,-16
217,218,2025-01-30 00:43:43,1738226623,2163,p,5.9,7.4,34,-105.9,-16
218,219,2025-01-30 00:43:53,1738226633,2173,p,5.9,7.4,34,-105.9,-16
219,220,2025-01-30 00:44:03,1738226643,2183,p,5.9,7.4,34,-105.9,-16
220,221,2025-01-30 00:44:12,1738226652,2192,p,5.9,7.4,34,-105.9,-16
221,222,2025-01-30 00:44:22,1738226662,2202,p,5.9,7.4,34,-105.9,-16
222,223,2025-01-30 00:44:32,1738226672,2212,p,5.9,7.4,34,-105.9,-16
223,224,2025-01-30 00:44:42,1738226682,2222,p,5.9,7.4,34,-105.9,-16
224,225,2025-01-30 00:44:52,1738226692,2232,p,5.9,7.4,34,-105.9,-16
225,226,2025-01-30 00:45:02,1738226702,2242,p,5.9,7.4,34,-105.9,-16
226,227,2025-01-30 00:45:12,1738226712,2252,p,5.9,7.4,34,-105.9,-16
227,228,2025-01-30 00:45:22,1738226722,2262,p,5.9,7.4,34,-105.9,-16
228,229,2025-01-30 00:45:32,1738226732,2272,p,5.89,7.4,34,-105.9,-16
229,230,2025-01-30 00:45:42,1738226742,2282,p,5.9,7.4,34,-105.9,-16
230,231,2025-01-30 00:45:52,1738226752,2292,p,5.9,7.4,34,-105.9,-16
231,232,2025-01-30 00:46:02,1738226762,2302,p,5.89,7.4,34,-105.9,-16
232,233,2025-01-30 00:46:12,1738226772,2312,p,5.9,7.4,34,-105.9,-16
233,234,2025-01-30 00:46:22,1738226782,2322,p,5.89,7.4,34,-105.9,-16
234,235,2025-01-30 00:46:32,1738226792,2332,p,5.9,7.4,34,-105.9,-16
235,236,2025-01-30 00:46:42,1738226802,2342,p,5.89,7.4,34,-105.9,-16
236,237,2025-01-30 00:46:52,1738226812,2352,p,5.9,7.4,34,-105.9,-16
237,238,2025-01-30 00:47:02,1738226822,2362,p,5.89,7.4,34,-105.9,-16
238,239,2025-01-30 00:47:12,1738226832,2372,p,5.89,7.4,34,-105.9,-16
239,240,2025-01-30 00:47:22,1738226842,2382,p,5.89,7.4,34,-105.9,-16
240,241,2025-01-30 00:47:32,1738226852,2392,p,5.89,7.4,34,-105.9,-16
241,242,2025-01-30 00:47:41,1738226861,2401,p,5.89,7.4,34,-105.9,-16
242,243,2025-01-30 00:47:51,1738226871,2411,p,5.89,7.4,34,-105.9,-16
243,244,2025-01-30 00:48:01,1738226881,2421,p,5.88,7.4,34,-105.9,-16
244,245,2025-01-30 00:48:11,1738226891,2431,p,5.88,7.4,34,-105.9,-16
245,246,2025-01-30 00:48:21,1738226901,2441,p,5.87,7.4,34,-105.9,-16
246,247,2025-01-30 00:48:31,1738226911,2451,p,5.88,7.4,34,-105.9,-16
247,248,2025-01-30 00:48:41,1738226921,2461,p,5.87,7.4,34,-105.9,-16
248,249,2025-01-30 00:48:51,1738226931,2471,p,5.86,7.4,34,-105.9,-16
249,250,2025-01-30 00:49:01,1738226941,2481,p,5.87,7.4,34,-105.9,-16
250,251,2025-01-30 00:49:11,1738226951,2491,p,5.87,7.4,34,-105.9,-16
251,252,2025-01-30 00:49:21,1738226961,2501,p,5.87,7.4,34,-105.9,-16
252,253,2025-01-30 00:49:31,1738226971,2511,p,5.87,7.4,34,-105.9,-16
253,254,2025-01-30 00:49:41,1738226981,2521,p,5.86,7.4,34,-105.9,-16
254,255,2025-01-30 00:49:51,1738226991,2531,p,5.86,7.4,34,-105.9,-16
255,256,2025-01-30 00:50:01,1738227001,2541,p,5.86,7.4,34,-105.9,-16
256,257,2025-01-30 00:50:11,1738227011,2551,p,5.86,7.4,34,-105.9,-16
257,258,2025-01-30 00:50:21,1738227021,2561,p,5.86,7.4,34,-105.9,-16
258,259,2025-01-30 00:50:31,1738227031,2571,p,5.86,7.4,34,-105.9,-16
259,260,2025-01-30 00:50:41,1738227041,2581,p,5.86,7.4,34,-105.9,-16
260,261,2025-01-30 00:50:51,1738227051,2591,p,5.86,7.4,34,-105.9,-16
261,262,2025-01-30 00:51:01,1738227061,2601,p,5.86,7.4,34,-105.9,-16
262,263,2025-01-30 00:51:10,1738227070,2610,p,5.86,7.4,34,-105.9,-16
263,264,2025-01-30 00:51:20,1738227080,2620,p,5.85,7.4,34,-105.9,-16
264,265,2025-01-30 00:51:30,1738227090,2630,p,5.87,7.4,34,-105.9,-16
265,266,2025-01-30 00:51:40,1738227100,2640,p,5.86,7.4,34,-105.9,-16
266,267,2025-01-30 00:51:50,1738227110,2650,p,5.86,7.4,34,-105.9,-16
267,268,2025-01-30 00:52:00,1738227120,2660,p,5.86,7.4,34,-105.9,-16
268,269,2025-01-30 00:52:10,1738227130,2670,p,5.87,7.4,34,-105.9,-16
269,270,2025-01-30 00:52:20,1738227140,2680,p,5.86,7.4,34,-105.9,-16
270,271,2025-01-30 00:52:30,1738227150,2690,p,5.86,7.4,34,-105.9,-16
271,272,2025-01-30 00:52:40,1738227160,2700,p,5.87,7.4,34,-105.9,-16
272,273,2025-01-30 00:52:50,1738227170,2710,p,5.86,7.4,34,-105.9,-16
273,274,2025-01-30 00:53:00,1738227180,2720,p,5.87,7.4,34,-105.9,-16
274,275,2025-01-30 00:53:10,1738227190,2730,p,5.87,7.4,34,-105.9,-16
275,276,2025-01-30 00:53:20,1738227200,2740,p,5.87,7.4,34,-105.9,-16
276,277,2025-01-30 00:53:30,1738227210,2750,p,5.87,7.4,34,-105.9,-15.9
277,278,2025-01-30 00:53:40,1738227220,2760,p,5.87,7.4,34,-105.9,-15.9
278,279,2025-01-30 00:53:50,1738227230,2770,p,5.87,7.4,34,-105.9,-15.9
279,280,2025-01-30 00:54:00,1738227240,2780,p,5.87,7.4,34,-105.9,-15.9
280,281,2025-01-30 00:54:10,1738227250,2790,p,5.87,7.4,34,-105.9,-15.9
281,282,2025-01-30 00:54:20,1738227260,2800,p,5.87,7.4,34,-105.9,-15.9
282,283,2025-01-30 00:54:30,1738227270,2810,p,5.88,7.4,34,-105.9,-15.9
283,284,2025-01-30 00:54:40,1738227280,2820,p,5.88,7.4,34,-105.9,-15.9
284,285,2025-01-30 00:54:49,1738227289,2829,p,5.88,7.4,34,-105.9,-15.9
285,286,2025-01-30 00:54:59,1738227299,2839,p,5.88,7.4,34,-105.9,-15.9
286,287,2025-01-30 00:55:09,1738227309,2849,p,5.88,7.4,34,-105.9,-15.9
287,288,2025-01-30 00:55:19,1738227319,2859,p,5.88,7.4,34,-105.9,-15.9
288,289,2025-01-30 00:55:29,1738227329,2869,p,5.88,7.4,34,-105.9,-15.9
289,290,2025-01-30 00:55:39,1738227339,2879,p,5.88,7.4,34,-105.9,-15.9
290,291,2025-01-30 00:55:49,1738227349,2889,p,5.87,7.4,34,-105.9,-15.9
291,292,2025-01-30 00:55:59,1738227359,2899,p,5.87,7.4,34,-105.9,-15.9
292,293,2025-01-30 00:56:09,1738227369,2909,p,5.88,7.4,34,-105.9,-15.9
293,294,2025-01-30 00:56:19,1738227379,2919,p,5.87,7.4,34,-105.9,-15.9
294,295,2025-01-30 00:56:29,1738227389,2929,p,5.87,7.4,34,-105.9,-15.9
295,296,2025-01-30 00:56:39,1738227399,2939,p,5.87,7.4,34,-105.9,-15.9
296,297,2025-01-30 00:56:49,1738227409,2949,p,5.87,7.4,34,-105.9,-15.9
297,298,2025-01-30 00:56:59,1738227419,2959,p,5.87,7.4,34,-105.9,-15.9
298,299,2025-01-30 00:57:09,1738227429,2969,p,5.87,7.4,34,-105.9,-15.9
299,300,2025-01-30 00:57:19,1738227439,2979,p,5.86,7.4,34,-105.9,-15.9
300,301,2025-01-30 00:57:29,1738227449,2989,p,5.86,7.4,34,-105.9,-15.9
301,302,2025-01-30 00:57:39,1738227459,2999,p,5.86,7.4,34,-105.9,-15.9
302,303,2025-01-30 00:57:49,1738227469,3009,p,5.86,7.4,34,-105.9,-15.9
303,304,2025-01-30 00:57:59,1738227479,3019,p,5.86,7.4,34,-105.9,-15.9
304,305,2025-01-30 00:58:09,1738227489,3029,p,5.86,7.4,34,-105.9,-15.9
305,306,2025-01-30 00:58:18,1738227498,3038,p,5.86,7.4,34,-105.9,-15.9
306,307,2025-01-30 00:58:28,1738227508,3048,p,5.86,7.4,34,-105.9,-15.9
307,308,2025-01-30 00:58:38,1738227518,3058,p,5.86,7.4,34,-105.9,-15.9
308,309,2025-01-30 00:58:48,1738227528,3068,p,5.86,7.4,34,-105.9,-15.9
309,310,2025-01-30 00:58:58,1738227538,3078,p,5.86,7.4,34,-105.9,-15.9
310,311,2025-01-30 00:59:08,1738227548,3088,p,5.86,7.4,34,-105.9,-15.9
311,312,2025-01-30 00:59:18,1738227558,3098,p,5.86,7.4,34,-105.9,-15.9
312,313,2025-01-30 00:59:28,1738227568,3108,p,5.86,7.4,34,-105.9,-15.9
313,314,2025-01-30 00:59:38,1738227578,3118,p,5.85,7.4,34,-105.9,-15.9
314,315,2025-01-30 00:59:48,1738227588,3128,p,5.86,7.4,34,-105.9,-15.9
315,316,2025-01-30 00:59:58,1738227598,3138,p,5.85,7.4,34,-105.9,-15.9
316,317,2025-01-30 01:00:08,1738227608,3148,p,5.85,7.4,34,-105.9,-15.9
317,318,2025-01-30 01:00:18,1738227618,3158,p,5.86,7.4,34,-105.9,-15.9
318,319,2025-01-30 01:00:28,1738227628,3168,p,5.85,7.4,34,-105.9,-15.9
319,320,2025-01-30 01:00:38,1738227638,3178,p,5.85,7.4,34,-105.9,-15.9
320,321,2025-01-30 01:00:48,1738227648,3188,p,5.84,7.4,34,-105.9,-15.9
321,322,2025-01-30 01:00:58,1738227658,3198,p,5.84,7.4,34,-105.9,-15.9
322,323,2025-01-30 01:01:08,1738227668,3208,p,5.84,7.4,34,-105.9,-15.9
323,324,2025-01-30 01:01:18,1738227678,3218,p,5.83,7.4,34,-105.9,-15.9
324,325,2025-01-30 01:01:28,1738227688,3228,p,5.83,7.4,34,-105.9,-15.9
325,326,2025-01-30 01:01:38,1738227698,3238,p,5.82,7.4,34,-105.9,-15.9
326,327,2025-01-30 01:01:48,1738227708,3248,p,5.82,7.4,34,-105.9,-15.9
327,328,2025-01-30 01:01:57,1738227717,3257,p,5.82,7.4,34,-105.9,-15.9
328,329,2025-01-30 01:02:07,1738227727,3267,p,5.81,7.3,34,-105.9,-15.9
329,330,2025-01-30 01:02:17,1738227737,3277,p,5.81,7.3,34,-105.9,-15.9
330,331,2025-01-30 01:02:27,1738227747,3287,p,5.81,7.3,34,-105.9,-15.9
331,332,2025-01-30 01:02:37,1738227757,3297,p,5.81,7.3,34,-105.9,-15.9
332,333,2025-01-30 01:02:47,1738227767,3307,p,5.8,7.3,34,-105.9,-15.9
333,334,2025-01-30 01:02:57,1738227777,3317,p,5.8,7.4,34,-105.9,-15.9
334,335,2025-01-30 01:03:07,1738227787,3327,p,5.81,7.4,34,-105.9,-15.9
335,336,2025-01-30 01:03:17,1738227797,3337,p,5.8,7.4,34,-105.9,-15.9
336,337,2025-01-30 01:03:27,1738227807,3347,p,5.81,7.4,34,-105.9,-15.9
337,338,2025-01-30 01:03:37,1738227817,3357,p,5.81,7.4,34,-105.9,-15.9
338,339,2025-01-30 01:03:47,1738227827,3367,p,5.81,7.4,34,-105.9,-15.9
339,340,2025-01-30 01:03:57,1738227837,3377,p,5.82,7.4,34,-105.9,-15.9
340,341,2025-01-30 01:04:07,1738227847,3387,p,5.81,7.4,34,-105.9,-15.9
341,342,2025-01-30 01:04:17,1738227857,3397,p,5.81,7.4,34,-105.9,-15.9
342,343,2025-01-30 01:04:27,1738227867,3407,p,5.82,7.4,34,-105.9,-16
343,344,2025-01-30 01:04:37,1738227877,3417,p,5.82,7.4,34,-105.9,-16
344,345,2025-01-30 01:04:47,1738227887,3427,p,5.82,7.4,34,-105.9,-16
345,346,2025-01-30 01:04:57,1738227897,3437,p,5.82,7.4,34,-105.9,-16
346,347,2025-01-30 01:05:07,1738227907,3447,p,5.83,7.4,34,-105.9,-16
347,348,2025-01-30 01:05:17,1738227917,3457,p,5.83,7.4,34,-105.9,-16
348,349,2025-01-30 01:05:27,1738227927,3467,p,5.84,7.4,34,-105.9,-16
349,350,2025-01-30 01:05:36,1738227936,3476,p,5.84,7.4,34,-105.9,-16
350,351,2025-01-30 01:05:46,1738227946,3486,p,5.84,7.4,34,-105.9,-16
351,352,2025-01-30 01:05:56,1738227956,3496,p,5.85,7.4,34,-105.9,-16
352,353,2025-01-30 01:06:06,1738227966,3506,p,5.85,7.4,34,-105.9,-16
353,354,2025-01-30 01:06:16,1738227976,3516,p,5.85,7.4,34,-105.9,-16
354,355,2025-01-30 01:06:26,1738227986,3526,p,5.84,7.4,34,-105.9,-16
355,356,2025-01-30 01:06:36,1738227996,3536,p,5.84,7.4,34,-105.9,-16
356,357,2025-01-30 01:06:46,1738228006,3546,p,5.84,7.4,34,-105.9,-16
357,358,2025-01-30 01:06:56,1738228016,3556,p,5.85,7.4,34,-105.9,-16
358,359,2025-01-30 01:07:06,1738228026,3566,p,5.85,7.4,34,-105.9,-16
359,360,2025-01-30 01:07:16,1738228036,3576,p,5.84,7.4,34,-105.9,-16
360,361,2025-01-30 01:07:26,1738228046,3586,p,5.85,7.4,34,-105.9,-16
361,362,2025-01-30 01:07:36,1738228056,3596,p,5.84,7.4,34,-105.9,-16
362,363,2025-01-30 01:07:46,1738228066,3606,p,5.83,7.4,34,-105.9,-16
363,364,2025-01-30 01:07:56,1738228076,3616,p,5.83,7.4,34,-105.9,-16
364,365,2025-01-30 01:08:06,1738228086,3626,p,5.83,7.4,34,-105.9,-16
365,366,2025-01-30 01:08:16,1738228096,3636,p,5.83,7.4,34,-105.9,-16
366,367,2025-01-30 01:08:26,1738228106,3646,p,5.82,7.4,34,-105.9,-16
367,368,2025-01-30 01:08:36,1738228116,3656,p,5.82,7.4,34,-105.9,-16
368,369,2025-01-30 01:08:46,1738228126,3666,p,5.82,7.4,34,-105.9,-16
369,370,2025-01-30 01:08:56,1738228136,3676,p,5.81,7.4,34,-105.9,-16
370,371,2025-01-30 01:09:06,1738228146,3686,p,5.81,7.4,34,-105.9,-16
371,372,2025-01-30 01:09:15,1738228155,3695,p,5.81,7.4,34,-105.9,-16
372,373,2025-01-30 01:09:25,1738228165,3705,p,5.81,7.4,34,-105.9,-16
373,374,2025-01-30 01:09:35,1738228175,3715,p,5.8,7.4,34,-105.9,-16
374,375,2025-01-30 01:09:45,1738228185,3725,p,5.8,7.4,34,-105.9,-16
375,376,2025-01-30 01:09:55,1738228195,3735,p,5.8,7.4,34,-105.9,-16
376,377,2025-01-30 01:10:05,1738228205,3745,p,5.8,7.4,34,-105.9,-16
377,378,2025-01-30 01:10:15,1738228215,3755,p,5.8,7.4,34,-105.9,-16
378,379,2025-01-30 01:10:25,1738228225,3765,p,5.79,7.4,34,-105.9,-16
379,380,2025-01-30 01:10:35,1738228235,3775,p,5.79,7.4,34,-105.9,-16
380,381,2025-01-30 01:10:45,1738228245,3785,p,5.8,7.4,34,-105.9,-16
381,382,2025-01-30 01:10:55,1738228255,3795,p,5.8,7.4,34,-105.9,-16
382,383,2025-01-30 01:11:05,1738228265,3805,p,5.8,7.4,34,-105.9,-16
383,384,2025-01-30 01:11:15,1738228275,3815,p,5.79,7.4,34,-105.9,-16
384,385,2025-01-30 01:11:25,1738228285,3825,p,5.8,7.4,34,-105.9,-16
385,386,2025-01-30 01:11:35,1738228295,3835,p,5.81,7.4,34,-105.9,-16
386,387,2025-01-30 01:11:45,1738228305,3845,p,5.81,7.4,34,-105.9,-16
387,388,2025-01-30 01:11:55,1738228315,3855,p,5.8,7.4,34,-105.9,-16
388,389,2025-01-30 01:12:05,1738228325,3865,p,5.81,7.4,34,-105.9,-16
389,390,2025-01-30 01:12:15,1738228335,3875,p,5.81,7.4,34,-105.9,-16
390,391,2025-01-30 01:12:25,1738228345,3885,p,5.81,7.4,34,-105.9,-16
391,392,2025-01-30 01:12:35,1738228355,3895,p,5.82,7.4,34,-105.9,-16
392,393,2025-01-30 01:12:45,1738228365,3905,p,5.81,7.4,34,-105.9,-16
393,394,2025-01-30 01:12:54,1738228374,3914,p,5.82,7.4,34,-105.9,-16
394,395,2025-01-30 01:13:04,1738228384,3924,p,5.83,7.4,34,-105.9,-16
395,396,2025-01-30 01:13:14,1738228394,3934,p,5.83,7.4,34,-105.9,-16
396,397,2025-01-30 01:13:24,1738228404,3944,p,5.83,7.4,34,-105.9,-16
397,398,2025-01-30 01:13:34,1738228414,3954,p,5.82,7.4,34,-105.9,-16
398,399,2025-01-30 01:13:44,1738228424,3964,p,5.82,7.4,34,-105.9,-16
399,400,2025-01-30 01:13:54,1738228434,3974,p,5.82,7.4,34,-105.9,-16
400,401,2025-01-30 01:14:04,1738228444,3984,p,5.83,7.4,34,-105.9,-16
401,402,2025-01-30 01:14:14,1738228454,3994,p,5.82,7.4,34,-105.9,-16
402,403,2025-01-30 01:14:24,1738228464,4004,p,5.82,7.4,34,-105.9,-16
403,404,2025-01-30 01:14:34,1738228474,4014,p,5.82,7.4,34,-105.9,-16
404,405,2025-01-30 01:14:44,1738228484,4024,p,5.82,7.4,34,-105.9,-16
405,406,2025-01-30 01:14:54,1738228494,4034,p,5.82,7.4,34,-105.9,-16
406,407,2025-01-30 01:15:04,1738228504,4044,p,5.81,7.4,34,-105.9,-16
407,408,2025-01-30 01:15:14,1738228514,4054,p,5.81,7.4,34,-105.9,-16
408,409,2025-01-30 01:15:24,1738228524,4064,p,5.81,7.4,34,-105.9,-16
409,410,2025-01-30 01:15:34,1738228534,4074,p,5.8,7.4,34,-105.9,-16
410,411,2025-01-30 01:15:44,1738228544,4084,p,5.81,7.4,34,-105.9,-16
411,412,2025-01-30 01:15:54,1738228554,4094,p,5.8,7.4,34,-105.9,-16
412,413,2025-01-30 01:16:04,1738228564,4104,p,5.8,7.4,34,-105.9,-16
413,414,2025-01-30 01:16:14,1738228574,4114,p,5.79,7.4,34,-105.9,-16
414,415,2025-01-30 01:16:24,1738228584,4124,p,5.8,7.4,34,-105.9,-16
415,416,2025-01-30 01:16:33,1738228593,4133,p,5.8,7.4,34,-105.9,-16
416,417,2025-01-30 01:16:43,1738228603,4143,p,5.79,7.4,34,-105.9,-16
417,418,2025-01-30 01:16:53,1738228613,4153,p,5.79,7.4,34,-105.9,-16
418,419,2025-01-30 01:17:03,1738228623,4163,p,5.8,7.4,34,-105.9,-16
419,420,2025-01-30 01:17:13,1738228633,4173,p,5.79,7.4,34,-105.9,-16
420,421,2025-01-30 01:17:23,1738228643,4183,p,5.79,7.4,34,-105.9,-16
421,422,2025-01-30 01:17:33,1738228653,4193,p,5.79,7.4,34,-105.9,-16
422,423,2025-01-30 01:17:43,1738228663,4203,p,5.79,7.4,34,-105.9,-16
423,424,2025-01-30 01:17:53,1738228673,4213,p,5.78,7.4,34,-105.9,-16
424,425,2025-01-30 01:18:03,1738228683,4223,p,5.78,7.4,34,-105.9,-16
425,426,2025-01-30 01:18:13,1738228693,4233,p,5.78,7.4,34,-105.9,-16
426,427,2025-01-30 01:18:23,1738228703,4243,p,5.78,7.4,34,-105.9,-16
427,428,2025-01-30 01:18:33,1738228713,4253,p,5.77,7.4,34,-105.9,-16
428,429,2025-01-30 01:18:43,1738228723,4263,p,5.77,7.4,34,-105.9,-16
429,430,2025-01-30 01:18:53,1738228733,4273,p,5.77,7.4,34,-105.9,-16
430,431,2025-01-30 01:19:03,1738228743,4283,p,5.77,7.4,34,-105.9,-16
431,432,2025-01-30 01:19:13,1738228753,4293,p,5.77,7.4,34,-105.9,-16
432,433,2025-01-30 01:19:23,1738228763,4303,p,5.76,7.4,34,-105.9,-16
433,434,2025-01-30 01:19:33,1738228773,4313,p,5.76,7.4,34,-105.9,-16
434,435,2025-01-30 01:19:43,1738228783,4323,p,5.76,7.4,34,-105.9,-16
435,436,2025-01-30 01:19:53,1738228793,4333,p,5.76,7.4,34,-105.9,-16
436,437,2025-01-30 01:20:03,1738228803,4343,p,5.76,7.4,34,-105.9,-16
437,438,2025-01-30 01:20:12,1738228812,4352,p,5.76,7.4,34,-105.9,-16
438,439,2025-01-30 01:20:22,1738228822,4362,p,5.76,7.4,34,-105.9,-16
439,440,2025-01-30 01:20:32,1738228832,4372,p,5.76,7.4,34,-105.9,-16
440,441,2025-01-30 01:20:42,1738228842,4382,p,5.76,7.4,34,-105.9,-16
441,442,2025-01-30 01:20:52,1738228852,4392,p,5.75,7.4,34,-105.9,-16
442,443,2025-01-30 01:21:02,1738228862,4402,p,5.76,7.4,34,-105.9,-16
443,444,2025-01-30 01:21:12,1738228872,4412,p,5.76,7.4,34,-105.9,-16
444,445,2025-01-30 01:21:22,1738228882,4422,p,5.77,7.4,34,-105.9,-16
445,446,2025-01-30 01:21:32,1738228892,4432,p,5.77,7.4,34,-105.9,-16
446,447,2025-01-30 01:21:42,1738228902,4442,p,5.77,7.4,34,-105.9,-16
447,448,2025-01-30 01:21:52,1738228912,4452,p,5.78,7.4,34,-105.9,-16
448,449,2025-01-30 01:22:02,1738228922,4462,p,5.77,7.4,34,-105.9,-16
449,450,2025-01-30 01:22:12,1738228932,4472,p,5.78,7.4,34,-105.9,-16
450,451,2025-01-30 01:22:22,1738228942,4482,p,5.78,7.4,34,-105.9,-16
451,452,2025-01-30 01:22:32,1738228952,4492,p,5.79,7.4,34,-105.9,-16
452,453,2025-01-30 01:22:42,1738228962,4502,p,5.8,7.4,34,-105.9,-16
453,454,2025-01-30 01:22:52,1738228972,4512,p,5.8,7.4,34,-105.9,-16
454,455,2025-01-30 01:23:02,1738228982,4522,p,5.8,7.4,34,-105.9,-16
455,456,2025-01-30 01:23:12,1738228992,4532,p,5.8,7.4,34,-105.9,-16
456,457,2025-01-30 01:23:22,1738229002,4542,p,5.81,7.4,34,-105.9,-16
457,458,2025-01-30 01:23:32,1738229012,4552,p,5.82,7.4,34,-105.9,-16
458,459,2025-01-30 01:23:41,1738229021,4561,p,5.82,7.4,34,-105.9,-16
459,460,2025-01-30 01:23:51,1738229031,4571,p,5.82,7.4,34,-105.9,-16
460,461,2025-01-30 01:24:01,1738229041,4581,p,5.83,7.4,34,-105.9,-16
461,462,2025-01-30 01:24:11,1738229051,4591,p,5.82,7.4,34,-105.9,-16
462,463,2025-01-30 01:24:21,1738229061,4601,p,5.83,7.4,34,-105.9,-16
463,464,2025-01-30 01:24:31,1738229071,4611,p,5.83,7.4,34,-105.9,-16
464,465,2025-01-30 01:24:41,1738229081,4621,p,5.82,7.4,34,-105.9,-16
465,466,2025-01-30 01:24:51,1738229091,4631,p,5.82,7.4,34,-105.9,-16
466,467,2025-01-30 01:25:01,1738229101,4641,p,5.82,7.3,34,-105.9,-16
467,468,2025-01-30 01:25:11,1738229111,4651,p,5.82,7.3,34,-105.9,-16
468,469,2025-01-30 01:25:21,1738229121,4661,p,5.83,7.3,34,-105.9,-16
469,470,2025-01-30 01:25:31,1738229131,4671,p,5.82,7.3,34,-105.9,-16
470,471,2025-01-30 01:25:41,1738229141,4681,p,5.82,7.4,34,-105.9,-16
471,472,2025-01-30 01:25:51,1738229151,4691,p,5.82,7.3,34,-105.9,-16
472,473,2025-01-30 01:26:01,1738229161,4701,p,5.8,7.3,34,-105.9,-16
473,474,2025-01-30 01:26:11,1738229171,4711,p,5.79,7.4,34,-105.9,-16
474,475,2025-01-30 01:26:21,1738229181,4721,p,5.79,7.4,34,-105.9,-16
475,476,2025-01-30 01:26:31,1738229191,4731,p,5.78,7.4,34,-105.9,-16
476,477,2025-01-30 01:26:41,1738229201,4741,p,5.78,7.4,34,-105.9,-16
477,478,2025-01-30 01:26:51,1738229211,4751,p,5.78,7.4,34,-105.9,-16
478,479,2025-01-30 01:27:01,1738229221,4761,p,5.77,7.4,34,-105.9,-16
479,480,2025-01-30 01:27:11,1738229231,4771,p,5.76,7.4,34,-105.9,-16
480,481,2025-01-30 01:27:20,1738229240,4780,p,5.76,7.4,34,-105.9,-16
481,482,2025-01-30 01:27:30,1738229250,4790,p,5.75,7.4,34,-105.9,-16
482,483,2025-01-30 01:27:40,1738229260,4800,p,5.75,7.4,34,-105.9,-16
483,484,2025-01-30 01:27:50,1738229270,4810,p,5.74,7.4,34,-105.9,-16
484,485,2025-01-30 01:28:00,1738229280,4820,p,5.74,7.4,34,-105.9,-16
485,486,2025-01-30 01:28:10,1738229290,4830,p,5.74,7.4,34,-105.9,-16
486,487,2025-01-30 01:28:20,1738229300,4840,p,5.74,7.4,34,-105.9,-16
487,488,2025-01-30 01:28:30,1738229310,4850,p,5.73,7.4,34,-105.9,-16
488,489,2025-01-30 01:28:40,1738229320,4860,p,5.73,7.4,34,-105.9,-16
489,490,2025-01-30 01:28:50,1738229330,4870,p,5.73,7.4,34,-105.9,-16
490,491,2025-01-30 01:29:00,1738229340,4880,p,5.74,7.4,34,-105.9,-16
491,492,2025-01-30 01:29:10,1738229350,4890,p,5.73,7.4,34,-105.9,-16
492,493,2025-01-30 01:29:20,1738229360,4900,p,5.74,7.4,34,-105.9,-16
493,494,2025-01-30 01:29:30,1738229370,4910,p,5.74,7.4,34,-105.9,-16
494,495,2025-01-30 01:29:40,1738229380,4920,p,5.74,7.4,34,-105.9,-16
495,496,2025-01-30 01:29:50,1738229390,4930,p,5.75,7.4,34,-105.9,-16
496,497,2025-01-30 01:30:00,1738229400,4940,p,5.75,7.4,34,-105.9,-16
497,498,2025-01-30 01:30:10,1738229410,4950,p,5.76,7.4,34,-105.9,-16
498,499,2025-01-30 01:30:20,1738229420,4960,p,5.76,7.4,34,-105.9,-16
499,500,2025-01-30 01:30:30,1738229430,4970,p,5.76,7.4,34,-105.9,-16
500,501,2025-01-30 01:30:40,1738229440,4980,p,5.77,7.4,34,-105.9,-16
501,502,2025-01-30 01:30:49,1738229449,4989,p,5.77,7.4,34,-105.9,-16
502,503,2025-01-30 01:30:59,1738229459,4999,p,5.77,7.4,34,-105.9,-16
503,504,2025-01-30 01:31:09,1738229469,5009,p,5.77,7.4,34,-105.9,-16
504,505,2025-01-30 01:31:19,1738229479,5019,p,5.78,7.4,34,-105.9,-16
505,506,2025-01-30 01:31:29,1738229489,5029,p,5.78,7.4,34,-105.9,-16
506,507,2025-01-30 01:31:39,1738229499,5039,p,5.78,7.4,34,-105.9,-16
507,508,2025-01-30 01:31:49,1738229509,5049,p,5.78,7.4,34,-105.9,-16
508,509,2025-01-30 01:31:59,1738229519,5059,p,5.78,7.4,34,-105.9,-16
509,510,2025-01-30 01:32:09,1738229529,5069,p,5.78,7.4,34,-105.9,-16
510,511,2025-01-30 01:32:19,1738229539,5079,p,5.78,7.4,34,-105.9,-16
511,512,2025-01-30 01:32:29,1738229549,5089,p,5.78,7.4,34,-105.9,-16
512,513,2025-01-30 01:32:39,1738229559,5099,p,5.78,7.4,34,-105.9,-16
513,514,2025-01-30 01:32:49,1738229569,5109,p,5.77,7.4,34,-105.9,-16
514,515,2025-01-30 01:32:59,1738229579,5119,p,5.77,7.4,34,-105.9,-16
515,516,2025-01-30 01:33:09,1738229589,5129,p,5.77,7.4,34,-105.9,-16
516,517,2025-01-30 01:33:19,1738229599,5139,p,5.76,7.4,34,-105.9,-16
517,518,2025-01-30 01:33:29,1738229609,5149,p,5.76,7.4,34,-105.9,-16
518,519,2025-01-30 01:33:39,1738229619,5159,p,5.76,7.4,34,-105.9,-16
519,520,2025-01-30 01:33:49,1738229629,5169,p,5.76,7.4,34,-105.9,-16
520,521,2025-01-30 01:33:59,1738229639,5179,p,5.75,7.4,34,-105.9,-16
521,522,2025-01-30 01:34:09,1738229649,5189,p,5.75,7.4,34,-105.9,-16
522,523,2025-01-30 01:34:19,1738229659,5199,p,5.75,7.4,34,-105.9,-16
523,524,2025-01-30 01:34:28,1738229668,5208,p,5.75,7.4,34,-105.9,-16
524,525,2025-01-30 01:34:38,1738229678,5218,p,5.75,7.4,34,-105.9,-16
525,526,2025-01-30 01:34:48,1738229688,5228,p,5.75,7.3,34,-105.9,-16
526,527,2025-01-30 01:34:58,1738229698,5238,p,5.75,7.3,34,-105.9,-16
527,528,2025-01-30 01:35:08,1738229708,5248,p,5.75,7.3,34,-105.9,-16
528,529,2025-01-30 01:35:18,1738229718,5258,p,5.75,7.3,34,-105.9,-16
529,530,2025-01-30 01:35:28,1738229728,5268,p,5.75,7.4,34,-105.9,-16
530,531,2025-01-30 01:35:38,1738229738,5278,p,5.75,7.4,34,-105.9,-16
531,532,2025-01-30 01:35:48,1738229748,5288,p,5.75,7.4,34,-105.9,-16
532,533,2025-01-30 01:35:58,1738229758,5298,p,5.76,7.4,34,-105.9,-16
533,534,2025-01-30 01:36:08,1738229768,5308,p,5.77,7.4,34,-105.9,-16
534,535,2025-01-30 01:36:18,1738229778,5318,p,5.77,7.4,34,-105.9,-16
535,536,2025-01-30 01:36:28,1738229788,5328,p,5.77,7.4,34,-105.9,-16
536,537,2025-01-30 01:36:38,1738229798,5338,p,5.78,7.4,34,-105.9,-16
537,538,2025-01-30 01:36:48,1738229808,5348,p,5.78,7.4,34,-105.9,-16
538,539,2025-01-30 01:36:58,1738229818,5358,p,5.78,7.4,34,-105.9,-16
539,540,2025-01-30 01:37:08,1738229828,5368,p,5.79,7.4,34,-105.9,-16
540,541,2025-01-30 01:37:18,1738229838,5378,p,5.79,7.4,34,-106,-16.1
541,542,2025-01-30 01:37:28,1738229848,5388,p,5.79,7.4,34,-106,-16.1
542,543,2025-01-30 01:37:38,1738229858,5398,p,5.79,7.4,34,-106,-16.1
543,544,2025-01-30 01:37:48,1738229868,5408,p,5.79,7.4,34,-106,-16.1
544,545,2025-01-30 01:37:57,1738229877,5417,p,5.79,7.4,34,-106,-16.1
545,546,2025-01-30 01:38:07,1738229887,5427,p,5.78,7.4,34,-106,-16.1
546,547,2025-01-30 01:38:17,1738229897,5437,p,5.79,7.4,34,-106,-16.1
547,548,2025-01-30 01:38:27,1738229907,5447,p,5.78,7.4,34,-106,-16.1
548,549,2025-01-30 01:38:37,1738229917,5457,p,5.78,7.4,34,-106,-16.1
549,550,2025-01-30 01:38:47,1738229927,5467,p,5.78,7.4,34,-106,-16.1
550,551,2025-01-30 01:38:57,1738229937,5477,p,5.77,7.4,34,-106,-16.1
551,552,2025-01-30 01:39:07,1738229947,5487,p,5.77,7.4,34,-106,-16.1
552,553,2025-01-30 01:39:17,1738229957,5497,p,5.76,7.3,34,-106,-16.1
553,554,2025-01-30 01:39:27,1738229967,5507,p,5.75,7.4,34,-106,-16.1
554,555,2025-01-30 01:39:37,1738229977,5517,p,5.76,7.4,34,-106,-16.1
555,556,2025-01-30 01:39:47,1738229987,5527,p,5.74,7.4,34,-106,-16.1
556,557,2025-01-30 01:39:57,1738229997,5537,p,5.74,7.4,34,-106,-16.1
557,558,2025-01-30 01:40:07,1738230007,5547,p,5.73,7.4,34,-106,-16.1
558,559,2025-01-30 01:40:17,1738230017,5557,p,5.72,7.4,34,-106,-16.1
559,560,2025-01-30 01:40:27,1738230027,5567,p,5.72,7.4,34,-106,-16.1
560,561,2025-01-30 01:40:37,1738230037,5577,p,5.72,7.4,34,-106,-16.1
561,562,2025-01-30 01:40:47,1738230047,5587,p,5.72,7.3,34,-106,-16.1
562,563,2025-01-30 01:40:57,1738230057,5597,p,5.71,7.3,34,-106,-16.1
563,564,2025-01-30 01:41:07,1738230067,5607,p,5.71,7.4,34,-106,-16.1
564,565,2025-01-30 01:41:17,1738230077,5617,p,5.7,7.3,34,-106,-16.1
565,566,2025-01-30 01:41:27,1738230087,5627,p,5.71,7.3,34,-106,-16.1
566,567,2025-01-30 01:41:36,1738230096,5636,p,5.7,7.3,34,-106,-16.1
567,568,2025-01-30 01:41:46,1738230106,5646,p,5.69,7.3,34,-106,-16.1
568,569,2025-01-30 01:41:56,1738230116,5656,p,5.7,7.4,34,-106,-16.1
569,570,2025-01-30 01:42:06,1738230126,5666,p,5.7,7.4,34,-106,-16.1
570,571,2025-01-30 01:42:16,1738230136,5676,p,5.7,7.4,34,-106,-16.1
571,572,2025-01-30 01:42:26,1738230146,5686,p,5.7,7.4,34,-106,-16.1
572,573,2025-01-30 01:42:36,1738230156,5696,p,5.7,7.4,34,-106,-16.1
573,574,2025-01-30 01:42:46,1738230166,5706,p,5.7,7.4,34,-106,-16.1
574,575,2025-01-30 01:42:56,1738230176,5716,p,5.7,7.4,34,-106,-16.1
575,576,2025-01-30 01:43:06,1738230186,5726,p,5.7,7.4,34,-106,-16.1
576,577,2025-01-30 01:43:16,1738230196,5736,p,5.72,7.4,34,-106,-16.1
577,578,2025-01-30 01:43:26,1738230206,5746,p,5.72,7.4,34,-106,-16.1
578,579,2025-01-30 01:43:36,1738230216,5756,p,5.72,7.4,34,-106,-16.1
579,580,2025-01-30 01:43:46,1738230226,5766,p,5.72,7.4,34,-106,-16.1
580,581,2025-01-30 01:43:56,1738230236,5776,p,5.73,7.4,34,-106,-16.1
581,582,2025-01-30 01:44:06,1738230246,5786,p,5.73,7.4,34,-106,-16.1
582,583,2025-01-30 01:44:16,1738230256,5796,p,5.73,7.4,34,-106,-16.1
583,584,2025-01-30 01:44:26,1738230266,5806,p,5.74,7.4,34,-106,-16.1
584,585,2025-01-30 01:44:36,1738230276,5816,p,5.74,7.4,34,-106,-16.1
585,586,2025-01-30 01:44:46,1738230286,5826,p,5.74,7.4,34,-106,-16.1
586,587,2025-01-30 01:44:56,1738230296,5836,p,5.75,7.4,34,-106,-16.1
587,588,2025-01-30 01:45:06,1738230306,5846,p,5.75,7.4,34,-106,-16.1
588,589,2025-01-30 01:45:15,1738230315,5855,p,5.75,7.4,34,-106,-16.1
589,590,2025-01-30 01:45:25,1738230325,5865,p,5.75,7.4,34,-106,-16.1
590,591,2025-01-30 01:45:35,1738230335,5875,p,5.75,7.4,34,-106,-16.1
591,592,2025-01-30 01:45:45,1738230345,5885,p,5.77,7.4,34,-106,-16.1
592,593,2025-01-30 01:45:55,1738230355,5895,p,5.76,7.4,34,-106,-16.1
593,594,2025-01-30 01:46:05,1738230365,5905,p,5.76,7.4,34,-106,-16.1
594,595,2025-01-30 01:46:15,1738230375,5915,p,5.77,7.4,34,-106,-16.1
595,596,2025-01-30 01:46:25,1738230385,5925,p,5.77,7.4,34,-106,-16.1
596,597,2025-01-30 01:46:35,1738230395,5935,p,5.76,7.4,34,-106,-16.1
597,598,2025-01-30 01:46:45,1738230405,5945,p,5.77,7.4,34,-106,-16.1
598,599,2025-01-30 01:46:55,1738230415,5955,p,5.76,7.4,34,-106,-16.1
599,600,2025-01-30 01:47:05,1738230425,5965,p,5.76,7.4,34,-106,-16.1
600,601,2025-01-30 01:47:15,1738230435,5975,p,5.77,7.4,34,-106,-16.1
601,602,2025-01-30 01:47:25,1738230445,5985,p,5.76,7.4,34,-106,-16.1
602,603,2025-01-30 01:47:35,1738230455,5995,p,5.77,7.4,34,-106,-16.1
603,604,2025-01-30 01:47:45,1738230465,6005,p,5.76,7.4,34,-106,-16.1
604,605,2025-01-30 01:47:55,1738230475,6015,p,5.76,7.4,34,-106,-16.1
605,606,2025-01-30 01:48:05,1738230485,6025,p,5.76,7.4,34,-106,-16.1
606,607,2025-01-30 01:48:15,1738230495,6035,p,5.76,7.4,33.9,-106,-16.1
607,608,2025-01-30 01:48:25,1738230505,6045,p,5.76,7.4,33.9,-106,-16.1
608,609,2025-01-30 01:48:35,1738230515,6055,p,5.76,7.4,33.9,-106,-16.1
609,610,2025-01-30 01:48:44,1738230524,6064,p,5.76,7.4,33.9,-106,-16.1
610,611,2025-01-30 01:48:54,1738230534,6074,p,5.75,7.4,33.9,-106,-16.1
611,612,2025-01-30 01:49:04,1738230544,6084,p,5.74,7.4,33.9,-106,-16.1
612,613,2025-01-30 01:49:14,1738230554,6094,p,5.74,7.4,33.9,-106,-16.1
613,614,2025-01-30 01:49:24,1738230564,6104,p,5.74,7.4,33.9,-106,-16.1
614,615,2025-01-30 01:49:34,1738230574,6114,p,5.74,7.4,33.9,-106,-16.1
615,616,2025-01-30 01:49:44,1738230584,6124,p,5.73,7.4,33.9,-106,-16.1
616,617,2025-01-30 01:49:54,1738230594,6134,p,5.73,7.4,33.9,-106,-16.1
617,618,2025-01-30 01:50:04,1738230604,6144,p,5.74,7.4,33.9,-106,-16.1
618,619,2025-01-30 01:50:14,1738230614,6154,p,5.73,7.4,33.9,-106,-16.1
619,620,2025-01-30 01:50:24,1738230624,6164,p,5.73,7.4,33.9,-106,-16.1
620,621,2025-01-30 01:50:34,1738230634,6174,p,5.72,7.4,33.9,-106,-16.1
621,622,2025-01-30 01:50:44,1738230644,6184,p,5.71,7.4,33.9,-106,-16.1
622,623,2025-01-30 01:50:54,1738230654,6194,p,5.71,7.4,33.9,-106,-16.1
623,624,2025-01-30 01:51:04,1738230664,6204,p,5.71,7.3,33.9,-106,-16.1
624,625,2025-01-30 01:51:14,1738230674,6214,p,5.7,7.3,33.9,-106,-16.1
625,626,2025-01-30 01:51:24,1738230684,6224,p,5.7,7.3,33.9,-106,-16.1
626,627,2025-01-30 01:51:34,1738230694,6234,p,5.7,7.3,33.9,-106,-16.1
627,628,2025-01-30 01:51:44,1738230704,6244,p,5.69,7.4,33.9,-106,-16.1
628,629,2025-01-30 01:51:54,1738230714,6254,p,5.69,7.3,33.9,-106,-16.1
629,630,2025-01-30 01:52:04,1738230724,6264,p,5.69,7.3,33.9,-106,-16.1
630,631,2025-01-30 01:52:13,1738230733,6273,p,5.69,7.4,33.9,-106,-16.1
631,632,2025-01-30 01:52:23,1738230743,6283,p,5.69,7.4,33.9,-106,-16.1
632,633,2025-01-30 01:52:33,1738230753,6293,p,5.7,7.4,33.9,-106,-16.1
633,634,2025-01-30 01:52:43,1738230763,6303,p,5.69,7.3,33.9,-106,-16.1
634,635,2025-01-30 01:52:53,1738230773,6313,p,5.7,7.3,33.9,-106,-16.1
635,636,2025-01-30 01:53:03,1738230783,6323,p,5.71,7.3,33.9,-106,-16.1
636,637,2025-01-30 01:53:13,1738230793,6333,p,5.71,7.3,33.9,-106,-16.1
637,638,2025-01-30 01:53:23,1738230803,6343,p,5.71,7.3,33.9,-106,-16.1
638,639,2025-01-30 01:53:33,1738230813,6353,p,5.71,7.3,33.9,-106,-16.1
639,640,2025-01-30 01:53:43,1738230823,6363,p,5.72,7.3,33.9,-106,-16.1
640,641,2025-01-30 01:53:53,1738230833,6373,p,5.73,7.3,33.9,-106,-16.1
641,642,2025-01-30 01:54:03,1738230843,6383,p,5.73,7.3,33.9,-106,-16.1
642,643,2025-01-30 01:54:13,1738230853,6393,p,5.73,7.3,33.9,-106,-16.1
643,644,2025-01-30 01:54:23,1738230863,6403,p,5.74,7.3,33.9,-106,-16.1
644,645,2025-01-30 01:54:33,1738230873,6413,p,5.74,7.3,33.9,-106,-16.1
645,646,2025-01-30 01:54:43,1738230883,6423,p,5.75,7.3,33.9,-106,-16.1
646,647,2025-01-30 01:54:53,1738230893,6433,p,5.75,7.3,33.9,-106,-16.1
647,648,2025-01-30 01:55:03,1738230903,6443,p,5.76,7.3,33.9,-106,-16.1
648,649,2025-01-30 01:55:13,1738230913,6453,p,5.76,7.3,33.9,-106,-16.1
649,650,2025-01-30 01:55:23,1738230923,6463,p,5.77,7.3,33.9,-106,-16.1
650,651,2025-01-30 01:55:33,1738230933,6473,p,5.77,7.3,33.9,-106,-16.1
651,652,2025-01-30 01:55:43,1738230943,6483,p,5.78,7.3,33.9,-106,-16.1
652,653,2025-01-30 01:55:52,1738230952,6492,p,5.77,7.3,33.9,-106,-16.1
653,654,2025-01-30 01:56:02,1738230962,6502,p,5.77,7.3,33.9,-106,-16.1
654,655,2025-01-30 01:56:12,1738230972,6512,p,5.78,7.3,33.9,-106,-16.1
655,656,2025-01-30 01:56:22,1738230982,6522,p,5.77,7.3,33.9,-106,-16.1
656,657,2025-01-30 01:56:32,1738230992,6532,p,5.77,7.3,33.9,-106,-16.1
657,658,2025-01-30 01:56:42,1738231002,6542,p,5.76,7.3,33.9,-106,-16.1
658,659,2025-01-30 01:56:52,1738231012,6552,p,5.75,7.3,33.9,-106,-16.1
659,660,2025-01-30 01:57:02,1738231022,6562,p,5.76,7.4,33.9,-106,-16.1
660,661,2025-01-30 01:57:12,1738231032,6572,p,5.75,7.4,33.9,-106,-16.1
661,662,2025-01-30 01:57:22,1738231042,6582,p,5.74,7.3,33.9,-106,-16.1
662,663,2025-01-30 01:57:32,1738231052,6592,p,5.73,7.3,33.9,-106,-16.1
663,664,2025-01-30 01:57:42,1738231062,6602,p,5.73,7.3,33.9,-106,-16.1
664,665,2025-01-30 01:57:52,1738231072,6612,p,5.73,7.3,33.9,-106,-16.1
665,666,2025-01-30 01:58:02,1738231082,6622,p,5.72,7.3,33.9,-106,-16.1
666,667,2025-01-30 01:58:12,1738231092,6632,p,5.72,7.3,33.9,-106,-16.1
667,668,2025-01-30 01:58:22,1738231102,6642,p,5.71,7.3,33.9,-106,-16.1
668,669,2025-01-30 01:58:32,1738231112,6652,p,5.71,7.3,33.9,-106,-16.1
669,670,2025-01-30 01:58:42,1738231122,6662,p,5.7,7.3,33.9,-106,-16.1
670,671,2025-01-30 01:58:52,1738231132,6672,p,5.7,7.3,33.9,-106,-16.1
671,672,2025-01-30 01:59:02,1738231142,6682,p,5.7,7.3,33.9,-106,-16.1
672,673,2025-01-30 01:59:12,1738231152,6692,p,5.7,7.3,33.9,-106,-16.1
673,674,2025-01-30 01:59:21,1738231161,6701,p,5.69,7.4,33.9,-106,-16.1
674,675,2025-01-30 01:59:31,1738231171,6711,p,5.69,7.4,33.9,-106,-16.1
675,676,2025-01-30 01:59:41,1738231181,6721,p,5.7,7.3,33.9,-106,-16.1
676,677,2025-01-30 01:59:51,1738231191,6731,p,5.7,7.3,33.9,-106,-16.1
677,678,2025-01-30 02:00:01,1738231201,6741,p,5.7,7.3,33.9,-106,-16.1
678,679,2025-01-30 02:00:11,1738231211,6751,p,5.7,7.3,33.9,-106,-16.1
679,680,2025-01-30 02:00:21,1738231221,6761,p,5.7,7.3,33.9,-106,-16.1
680,681,2025-01-30 02:00:31,1738231231,6771,p,5.71,7.3,33.9,-106,-16.1
681,682,2025-01-30 02:00:41,1738231241,6781,p,5.72,7.3,33.9,-106,-16.1
682,683,2025-01-30 02:00:51,1738231251,6791,p,5.71,7.3,33.9,-106,-16.1
683,684,2025-01-30 02:01:01,1738231261,6801,p,5.73,7.4,33.9,-106,-16.1
684,685,2025-01-30 02:01:11,1738231271,6811,p,5.73,7.4,33.9,-106,-16.1
685,686,2025-01-30 02:01:21,1738231281,6821,p,5.74,7.3,33.9,-106,-16.1
686,687,2025-01-30 02:01:31,1738231291,6831,p,5.74,7.4,33.9,-106,-16.1
687,688,2025-01-30 02:01:41,1738231301,6841,p,5.74,7.4,33.9,-106,-16.1
688,689,2025-01-30 02:01:51,1738231311,6851,p,5.75,7.4,33.9,-106,-16.1
689,690,2025-01-30 02:02:01,1738231321,6861,p,5.76,7.4,33.9,-106,-16.1
690,691,2025-01-30 02:02:11,1738231331,6871,p,5.76,7.4,33.9,-106,-16.1
691,692,2025-01-30 02:02:21,1738231341,6881,p,5.77,7.4,33.9,-106,-16.1
692,693,2025-01-30 02:02:31,1738231351,6891,p,5.77,7.4,33.9,-106,-16.1
693,694,2025-01-30 02:02:41,1738231361,6901,p,5.77,7.4,33.9,-106,-16.1
694,695,2025-01-30 02:02:51,1738231371,6911,p,5.77,7.4,33.9,-106,-16.1
695,696,2025-01-30 02:03:00,1738231380,6920,p,5.77,7.4,33.9,-106,-16.1
696,697,2025-01-30 02:03:10,1738231390,6930,p,5.77,7.4,33.9,-106,-16.1
697,698,2025-01-30 02:03:20,1738231400,6940,p,5.77,7.4,33.9,-106,-16.1
698,699,2025-01-30 02:03:30,1738231410,6950,p,5.76,7.4,33.9,-106,-16.1
699,700,2025-01-30 02:03:40,1738231420,6960,p,5.76,7.4,33.9,-106,-16.1
700,701,2025-01-30 02:03:50,1738231430,6970,p,5.76,7.4,33.9,-106,-16.1
701,702,2025-01-30 02:04:00,1738231440,6980,p,5.74,7.4,33.9,-106,-16.1
702,703,2025-01-30 02:04:10,1738231450,6990,p,5.74,7.4,33.9,-106,-16.1
703,704,2025-01-30 02:04:20,1738231460,7000,p,5.73,7.4,33.9,-106,-16.1
704,705,2025-01-30 02:04:30,1738231470,7010,p,5.73,7.4,33.9,-106,-16.1
705,706,2025-01-30 02:04:40,1738231480,7020,p,5.72,7.4,33.9,-106,-16.1
706,707,2025-01-30 02:04:50,1738231490,7030,p,5.72,7.4,33.9,-106,-16.1
707,708,2025-01-30 02:05:00,1738231500,7040,p,5.72,7.4,33.9,-106,-16.1
708,709,2025-01-30 02:05:10,1738231510,7050,p,5.7,7.4,33.9,-106,-16.1
709,710,2025-01-30 02:05:20,1738231520,7060,p,5.71,7.4,33.9,-106,-16.1
710,711,2025-01-30 02:05:30,1738231530,7070,p,5.7,7.4,33.9,-106,-16.1
711,712,2025-01-30 02:05:40,1738231540,7080,p,5.7,7.4,33.9,-106,-16.1
712,713,2025-01-30 02:05:50,1738231550,7090,p,5.69,7.4,33.9,-106,-16.1
713,714,2025-01-30 02:06:00,1738231560,7100,p,5.69,7.4,33.9,-106,-16.1
714,715,2025-01-30 02:06:10,1738231570,7110,p,5.68,7.4,33.9,-106,-16.1
715,716,2025-01-30 02:06:20,1738231580,7120,p,5.69,7.4,33.9,-106,-16.1
716,717,2025-01-30 02:06:30,1738231590,7130,p,5.69,7.4,33.9,-106,-16.1
717,718,2025-01-30 02:06:39,1738231599,7139,p,5.69,7.4,33.9,-106,-16.1
718,719,2025-01-30 02:06:49,1738231609,7149,p,5.7,7.4,33.9,-106,-16.1
719,720,2025-01-30 02:06:59,1738231619,7159,p,5.69,7.4,33.9,-106,-16.1
720,721,2025-01-30 02:07:09,1738231629,7169,p,5.7,7.4,33.9,-106,-16.1
721,722,2025-01-30 02:07:19,1738231639,7179,p,5.7,7.4,33.9,-106,-16.1
722,723,2025-01-30 02:07:29,1738231649,7189,p,5.7,7.4,33.9,-106,-16.1
723,724,2025-01-30 02:07:39,1738231659,7199,p,5.71,7.4,33.9,-106,-16.1
724,725,2025-01-30 02:07:49,1738231669,7209,p,5.72,7.4,33.9,-106,-16.1
725,726,2025-01-30 02:07:59,1738231679,7219,p,5.73,7.4,33.9,-106,-16.1
726,727,2025-01-30 02:08:09,1738231689,7229,p,5.74,7.4,33.9,-106,-16.1
727,728,2025-01-30 02:08:19,1738231699,7239,p,5.74,7.4,33.9,-106,-16.1
728,729,2025-01-30 02:08:29,1738231709,7249,p,5.74,7.4,33.9,-106,-16.1
729,730,2025-01-30 02:08:39,1738231719,7259,p,5.75,7.4,33.9,-106,-16.1
730,731,2025-01-30 02:08:49,1738231729,7269,p,5.75,7.4,33.9,-106,-16.1
731,732,2025-01-30 02:08:59,1738231739,7279,p,5.75,7.4,33.9,-106,-16.1
732,733,2025-01-30 02:09:09,1738231749,7289,p,5.76,7.4,33.9,-106,-16.1
733,734,2025-01-30 02:09:19,1738231759,7299,p,5.76,7.4,33.9,-106,-16.1
734,735,2025-01-30 02:09:29,1738231769,7309,p,5.77,7.4,33.9,-106,-16.1
735,736,2025-01-30 02:09:39,1738231779,7319,p,5.77,7.4,33.9,-106,-16.1
736,737,2025-01-30 02:09:49,1738231789,7329,p,5.77,7.4,33.9,-106,-16.1
737,738,2025-01-30 02:09:59,1738231799,7339,p,5.77,7.4,33.9,-106,-16.1
738,739,2025-01-30 02:10:08,1738231808,7348,p,5.77,7.4,33.9,-106.1,-16.3
739,740,2025-01-30 02:10:18,1738231818,7358,p,5.78,7.4,33.9,-106.1,-16.3
740,741,2025-01-30 02:10:28,1738231828,7368,p,5.78,7.4,33.9,-106.1,-16.3
741,742,2025-01-30 02:10:38,1738231838,7378,p,5.77,7.4,33.9,-106.1,-16.3
742,743,2025-01-30 02:10:48,1738231848,7388,p,5.77,7.4,33.9,-106.1,-16.3
743,744,2025-01-30 02:10:58,1738231858,7398,p,5.77,7.4,33.9,-106.1,-16.3
744,745,2025-01-30 02:11:08,1738231868,7408,p,5.77,7.4,33.9,-106.1,-16.3
745,746,2025-01-30 02:11:18,1738231878,7418,p,5.77,7.4,33.9,-106.1,-16.3
746,747,2025-01-30 02:11:28,1738231888,7428,p,5.76,7.4,33.9,-106.1,-16.3
747,748,2025-01-30 02:11:38,1738231898,7438,p,5.77,7.4,33.9,-106.1,-16.3
748,749,2025-01-30 02:11:48,1738231908,7448,p,5.76,7.4,33.9,-106.1,-16.3
749,750,2025-01-30 02:11:58,1738231918,7458,p,5.75,7.4,33.9,-106.1,-16.3
750,751,2025-01-30 02:12:08,1738231928,7468,p,5.75,7.4,33.9,-106.1,-16.3
751,752,2025-01-30 02:12:18,1738231938,7478,p,5.75,7.4,33.9,-106.1,-16.3
752,753,2025-01-30 02:12:28,1738231948,7488,p,5.74,7.4,33.9,-106.1,-16.3
753,754,2025-01-30 02:12:38,1738231958,7498,p,5.74,7.4,33.9,-106.1,-16.3
754,755,2025-01-30 02:12:48,1738231968,7508,p,5.74,7.4,33.9,-106.1,-16.3
755,756,2025-01-30 02:12:58,1738231978,7518,p,5.73,7.4,33.9,-106.1,-16.3
756,757,2025-01-30 02:13:08,1738231988,7528,p,5.73,7.4,33.9,-106.1,-16.3
757,758,2025-01-30 02:13:18,1738231998,7538,p,5.72,7.4,33.9,-106.1,-16.3
758,759,2025-01-30 02:13:28,1738232008,7548,p,5.71,7.4,33.9,-106.1,-16.3
759,760,2025-01-30 02:13:37,1738232017,7557,p,5.72,7.4,33.9,-106.1,-16.3
760,761,2025-01-30 02:13:47,1738232027,7567,p,5.71,7.4,33.9,-106.1,-16.3
761,762,2025-01-30 02:13:57,1738232037,7577,p,5.71,7.4,33.9,-106.1,-16.3
762,763,2025-01-30 02:14:07,1738232047,7587,p,5.71,7.4,33.9,-106.1,-16.3
763,764,2025-01-30 02:14:17,1738232057,7597,p,5.7,7.4,33.9,-106.1,-16.3
764,765,2025-01-30 02:14:27,1738232067,7607,p,5.71,7.4,33.9,-106.1,-16.3
765,766,2025-01-30 02:14:37,1738232077,7617,p,5.7,7.4,33.9,-106.1,-16.3
766,767,2025-01-30 02:14:47,1738232087,7627,p,5.7,7.4,33.9,-106.1,-16.3
767,768,2025-01-30 02:14:57,1738232097,7637,p,5.7,7.4,33.9,-106.1,-16.3
768,769,2025-01-30 02:15:07,1738232107,7647,p,5.7,7.4,33.9,-106.1,-16.3
769,770,2025-01-30 02:15:17,1738232117,7657,p,5.7,7.4,33.9,-106.1,-16.3
770,771,2025-01-30 02:15:27,1738232127,7667,p,5.7,7.4,33.9,-106.1,-16.3
771,772,2025-01-30 02:15:37,1738232137,7677,p,5.7,7.4,33.9,-106.1,-16.3
772,773,2025-01-30 02:15:47,1738232147,7687,p,5.71,7.4,33.9,-106.1,-16.3
773,774,2025-01-30 02:15:57,1738232157,7697,p,5.7,7.4,33.9,-106.1,-16.3
774,775,2025-01-30 02:16:07,1738232167,7707,p,5.7,7.4,33.9,-106.1,-16.3
775,776,2025-01-30 02:16:17,1738232177,7717,p,5.72,7.4,33.9,-106.1,-16.3
776,777,2025-01-30 02:16:27,1738232187,7727,p,5.71,7.4,33.9,-106.1,-16.3
777,778,2025-01-30 02:16:37,1738232197,7737,p,5.72,7.4,33.9,-106.1,-16.3
778,779,2025-01-30 02:16:47,1738232207,7747,p,5.72,7.4,33.9,-106.1,-16.3
779,780,2025-01-30 02:16:57,1738232217,7757,p,5.73,7.4,33.9,-106.1,-16.3
780,781,2025-01-30 02:17:07,1738232227,7767,p,5.73,7.4,33.9,-106.1,-16.3
781,782,2025-01-30 02:17:16,1738232236,7776,p,5.73,7.4,33.9,-106.1,-16.3
782,783,2025-01-30 02:17:26,1738232246,7786,p,5.73,7.4,33.9,-106.1,-16.3
783,784,2025-01-30 02:17:36,1738232256,7796,p,5.74,7.4,33.9,-106.1,-16.3
784,785,2025-01-30 02:17:46,1738232266,7806,p,5.74,7.4,33.9,-106.1,-16.3
785,786,2025-01-30 02:17:56,1738232276,7816,p,5.74,7.4,33.9,-106.1,-16.3
786,787,2025-01-30 02:18:06,1738232286,7826,p,5.74,7.4,33.9,-106.1,-16.3
787,788,2025-01-30 02:18:16,1738232296,7836,p,5.75,7.4,33.9,-106.1,-16.3
788,789,2025-01-30 02:18:26,1738232306,7846,p,5.74,7.4,33.9,-106.1,-16.3
789,790,2025-01-30 02:18:36,1738232316,7856,p,5.74,7.4,33.9,-106.1,-16.3
790,791,2025-01-30 02:18:46,1738232326,7866,p,5.74,7.4,33.9,-106.1,-16.3
791,792,2025-01-30 02:18:56,1738232336,7876,p,5.75,7.4,33.9,-106.1,-16.3
792,793,2025-01-30 02:19:06,1738232346,7886,p,5.75,7.4,33.9,-106.1,-16.3
793,794,2025-01-30 02:19:16,1738232356,7896,p,5.75,7.4,33.9,-106.1,-16.3
794,795,2025-01-30 02:19:26,1738232366,7906,p,5.75,7.4,33.9,-106.1,-16.3
795,796,2025-01-30 02:19:36,1738232376,7916,p,5.75,7.4,33.9,-106.1,-16.3
796,797,2025-01-30 02:19:46,1738232386,7926,p,5.75,7.4,33.9,-106.1,-16.3
797,798,2025-01-30 02:19:56,1738232396,7936,p,5.75,7.4,33.9,-106.1,-16.3
798,799,2025-01-30 02:20:06,1738232406,7946,p,5.75,7.4,33.9,-106.1,-16.3
799,800,2025-01-30 02:20:16,1738232416,7956,p,5.75,7.4,33.9,-106.1,-16.3
800,801,2025-01-30 02:20:26,1738232426,7966,p,5.75,7.4,33.9,-106.1,-16.3
801,802,2025-01-30 02:20:36,1738232436,7976,p,5.75,7.4,33.9,-106.1,-16.3
802,803,2025-01-30 02:20:45,1738232445,7985,p,5.76,7.4,33.9,-106.1,-16.3
803,804,2025-01-30 02:20:55,1738232455,7995,p,5.75,7.4,33.9,-106.1,-16.3
804,805,2025-01-30 02:21:05,1738232465,8005,p,5.75,7.4,33.8,-106.1,-16.4
805,806,2025-01-30 02:21:15,1738232475,8015,p,5.75,7.4,33.8,-106.1,-16.4
806,807,2025-01-30 02:21:25,1738232485,8025,p,5.75,7.4,33.8,-106.1,-16.4
807,808,2025-01-30 02:21:35,1738232495,8035,p,5.75,7.4,33.8,-106.1,-16.4
808,809,2025-01-30 02:21:45,1738232505,8045,p,5.74,7.4,33.8,-106.1,-16.4
809,810,2025-01-30 02:21:55,1738232515,8055,p,5.75,7.4,33.8,-106.1,-16.4
810,811,2025-01-30 02:22:05,1738232525,8065,p,5.75,7.4,33.8,-106.1,-16.4
811,812,2025-01-30 02:22:15,1738232535,8075,p,5.73,7.4,33.8,-106.1,-16.4
812,813,2025-01-30 02:22:25,1738232545,8085,p,5.73,7.4,33.8,-106.1,-16.4
813,814,2025-01-30 02:22:35,1738232555,8095,p,5.73,7.4,33.8,-106.1,-16.4
814,815,2025-01-30 02:22:45,1738232565,8105,p,5.72,7.4,33.8,-106.1,-16.4
815,816,2025-01-30 02:22:55,1738232575,8115,p,5.72,7.4,33.8,-106.1,-16.4
816,817,2025-01-30 02:23:05,1738232585,8125,p,5.72,7.4,33.8,-106.1,-16.4
817,818,2025-01-30 02:23:15,1738232595,8135,p,5.71,7.4,33.8,-106.1,-16.4
818,819,2025-01-30 02:23:25,1738232605,8145,p,5.71,7.4,33.8,-106.1,-16.4
819,820,2025-01-30 02:23:35,1738232615,8155,p,5.7,7.4,33.8,-106.1,-16.4
820,821,2025-01-30 02:23:45,1738232625,8165,p,5.71,7.4,33.8,-106.1,-16.4
821,822,2025-01-30 02:23:55,1738232635,8175,p,5.7,7.4,33.8,-106.1,-16.4
822,823,2025-01-30 02:24:05,1738232645,8185,p,5.7,7.4,33.8,-106.1,-16.4
823,824,2025-01-30 02:24:15,1738232655,8195,p,5.7,7.4,33.8,-106.1,-16.4
824,825,2025-01-30 02:24:24,1738232664,8204,p,5.7,7.4,33.8,-106.1,-16.4
825,826,2025-01-30 02:24:34,1738232674,8214,p,5.7,7.4,33.8,-106.1,-16.4
826,827,2025-01-30 02:24:44,1738232684,8224,p,5.7,7.4,33.8,-106.1,-16.4
827,828,2025-01-30 02:24:54,1738232694,8234,p,5.7,7.4,33.8,-106.1,-16.4
828,829,2025-01-30 02:25:04,1738232704,8244,p,5.7,7.4,33.8,-106.1,-16.4
829,830,2025-01-30 02:25:14,1738232714,8254,p,5.7,7.4,33.8,-106.1,-16.4
830,831,2025-01-30 02:25:24,1738232724,8264,p,5.71,7.4,33.8,-106.1,-16.4
831,832,2025-01-30 02:25:34,1738232734,8274,p,5.71,7.4,33.8,-106.1,-16.4
832,833,2025-01-30 02:25:44,1738232744,8284,p,5.72,7.4,33.8,-106.1,-16.4
833,834,2025-01-30 02:25:54,1738232754,8294,p,5.72,7.4,33.8,-106.1,-16.4
834,835,2025-01-30 02:26:04,1738232764,8304,p,5.74,7.4,33.8,-106.1,-16.4
835,836,2025-01-30 02:26:14,1738232774,8314,p,5.74,7.4,33.8,-106.1,-16.4
836,837,2025-01-30 02:26:24,1738232784,8324,p,5.75,7.4,33.8,-106.1,-16.4
837,838,2025-01-30 02:26:34,1738232794,8334,p,5.76,7.4,33.8,-106.1,-16.4
838,839,2025-01-30 02:26:44,1738232804,8344,p,5.76,7.4,33.8,-106.1,-16.4
839,840,2025-01-30 02:26:54,1738232814,8354,p,5.77,7.4,33.8,-106.1,-16.4
840,841,2025-01-30 02:27:04,1738232824,8364,p,5.77,7.4,33.8,-106.1,-16.4
841,842,2025-01-30 02:27:14,1738232834,8374,p,5.79,7.4,33.8,-106.1,-16.4
842,843,2025-01-30 02:27:24,1738232844,8384,p,5.79,7.4,33.8,-106.1,-16.4
843,844,2025-01-30 02:27:34,1738232854,8394,p,5.79,7.4,33.8,-106.1,-16.4
844,845,2025-01-30 02:27:44,1738232864,8404,p,5.8,7.4,33.8,-106.1,-16.4
845,846,2025-01-30 02:27:53,1738232873,8413,p,5.8,7.4,33.8,-106.1,-16.4
846,847,2025-01-30 02:28:03,1738232883,8423,p,5.81,7.4,33.8,-106.1,-16.4
847,848,2025-01-30 02:28:13,1738232893,8433,p,5.8,7.4,33.8,-106.1,-16.4
