Number,Id,Datetime,Timestamp,Runtime,Type,Depth,Temperature,Heading,Roll,Pitch
1,3,2024-11-15 18:33:13,1731724393,13,p,0.21,15.9,179.8,-88.4,-1.5
2,4,2024-11-15 18:33:23,1731724403,23,p,0.21,15.8,179.9,-88.3,-1.4
3,5,2024-11-15 18:33:33,1731724413,33,p,0.21,15.7,180.9,-87.7,-1.4
4,6,2024-11-15 18:33:42,1731724422,42,p,0.21,15.6,252.6,-88.9,-1
5,7,2024-11-15 18:33:52,1731724432,52,p,0.22,15.6,252.8,-90.8,-0.8
6,8,2024-11-15 18:34:02,1731724442,62,p,0.21,15.7,252.6,-85.8,-4.1
7,9,2024-11-15 18:34:12,1731724452,72,p,0.22,15.5,269.1,-79.9,-53.9
8,10,2024-11-15 18:34:22,1731724462,82,p,0.78,12.6,156.8,-86.2,1.8
9,11,2024-11-15 18:34:32,1731724472,92,p,0.71,11,67.2,-87.1,2.1
10,12,2024-11-15 18:34:42,1731724482,102,p,1.49,10.4,43.7,-88.2,0.4
11,13,2024-11-15 18:34:52,1731724492,112,p,3.1,10,41.4,-87.9,2.1
12,14,2024-11-15 18:35:02,1731724502,122,p,6.06,9.7,31.3,-107.1,-2.1
13,15,2024-11-15 18:35:12,1731724512,132,p,6.07,9.6,31.3,-107.1,-2.1
14,16,2024-11-15 18:35:22,1731724522,142,p,6.07,9.6,31.3,-107.1,-2.1
15,17,2024-11-15 18:35:32,1731724532,152,p,6.07,9.7,31.3,-107.1,-2.1
16,18,2024-11-15 18:35:42,1731724542,162,p,6.07,9.6,31.3,-107.1,-2.1
17,19,2024-11-15 18:35:52,1731724552,172,p,6.08,9.6,31.3,-107.1,-2.1
18,20,2024-11-15 18:36:02,1731724562,182,p,6.07,9.6,31.3,-107.1,-2.1
19,21,2024-11-15 18:36:12,1731724572,192,p,6.07,9.6,31.3,-107.1,-2.1
20,22,2024-11-15 18:36:22,1731724582,202,p,6.06,9.6,31.3,-107.1,-2.1
21,23,2024-11-15 18:36:32,1731724592,212,p,6.08,9.6,31.3,-107.1,-2.1
22,24,2024-11-15 18:36:42,1731724602,222,p,6.09,9.6,31.3,-107.1,-2.1
23,25,2024-11-15 18:36:52,1731724612,232,p,6.07,9.6,31.3,-107.1,-2.1
24,26,2024-11-15 18:37:02,1731724622,242,p,6.08,9.6,31.3,-107.1,-2.1
25,27,2024-11-15 18:37:12,1731724632,252,p,6.1,9.6,31.3,-107.1,-2.1
26,28,2024-11-15 18:37:21,1731724641,261,p,6.08,9.6,31.3,-107.1,-2.1
27,29,2024-11-15 18:37:31,1731724651,271,p,6.08,9.6,31.3,-107.1,-2.1
28,30,2024-11-15 18:37:41,1731724661,281,p,6.1,9.6,31.3,-107.1,-2.1
29,31,2024-11-15 18:37:51,1731724671,291,p,6.09,9.6,31.3,-107.1,-2.1
30,32,2024-11-15 18:38:01,1731724681,301,p,6.09,9.6,31.3,-107.1,-2.1
31,33,2024-11-15 18:38:11,1731724691,311,p,6.1,9.6,31.3,-107.1,-2.1
32,34,2024-11-15 18:38:21,1731724701,321,p,6.1,9.6,31.3,-107.1,-2.1
33,35,2024-11-15 18:38:31,1731724711,331,p,6.09,9.6,31.3,-107.1,-2.1
34,36,2024-11-15 18:38:41,1731724721,341,p,6.09,9.5,31.3,-107.1,-2.1
35,37,2024-11-15 18:38:51,1731724731,351,p,6.1,9.5,31.3,-107.1,-2.1
36,38,2024-11-15 18:39:01,1731724741,361,p,6.11,9.5,31.3,-107.1,-2.1
37,39,2024-11-15 18:39:11,1731724751,371,p,6.11,9.5,31.3,-107.1,-2.1
38,40,2024-11-15 18:39:21,1731724761,381,p,6.11,9.5,31.3,-107.1,-2.1
39,41,2024-11-15 18:39:31,1731724771,391,p,6.1,9.4,31.3,-107.1,-2.1
40,42,2024-11-15 18:39:41,1731724781,401,p,6.1,9.4,31.3,-107.1,-2.1
41,43,2024-11-15 18:39:51,1731724791,411,p,6.11,9.4,31.3,-107.1,-2.1
42,44,2024-11-15 18:40:01,1731724801,421,p,6.1,9.4,31.3,-107.1,-2.1
43,45,2024-11-15 18:40:11,1731724811,431,p,6.11,9.4,31.3,-107.1,-2.1
44,46,2024-11-15 18:40:21,1731724821,441,p,6.11,9.4,31.3,-107.1,-2.1
45,47,2024-11-15 18:40:31,1731724831,451,p,6.11,9.4,31.3,-107.1,-2.1
46,48,2024-11-15 18:40:41,1731724841,461,p,6.1,9.4,31.3,-107.1,-2.1
47,49,2024-11-15 18:40:51,1731724851,471,p,6.12,9.4,31.3,-107.1,-2.1
48,50,2024-11-15 18:41:00,1731724860,480,p,6.11,9.4,31.3,-107.1,-2.1
49,51,2024-11-15 18:41:10,1731724870,490,p,6.11,9.4,31.3,-107.1,-2.1
50,52,2024-11-15 18:41:20,1731724880,500,p,6.12,9.4,31.3,-107.1,-2.1
51,53,2024-11-15 18:41:30,1731724890,510,p,6.12,9.4,31.3,-107.1,-2.1
52,54,2024-11-15 18:41:40,1731724900,520,p,6.12,9.4,31.3,-107.1,-2.1
53,55,2024-11-15 18:41:50,1731724910,530,p,6.13,9.4,31.3,-107.1,-2.1
54,56,2024-11-15 18:42:00,1731724920,540,p,6.12,9.4,31.3,-107.1,-2.1
55,57,2024-11-15 18:42:10,1731724930,550,p,6.12,9.4,31.3,-107.1,-2.1
56,58,2024-11-15 18:42:20,1731724940,560,p,6.13,9.4,31.3,-107.1,-2.1
57,59,2024-11-15 18:42:30,1731724950,570,p,6.13,9.4,31.3,-107.1,-2.1
58,60,2024-11-15 18:42:40,1731724960,580,p,6.13,9.4,31.3,-107.1,-2.1
59,61,2024-11-15 18:42:50,1731724970,590,p,6.13,9.4,31.3,-107.1,-2.1
60,62,2024-11-15 18:43:00,1731724980,600,p,6.13,9.4,31.3,-107.1,-2.1
61,63,2024-11-15 18:43:10,1731724990,610,p,6.13,9.4,31.3,-107.1,-2.1
62,64,2024-11-15 18:43:20,1731725000,620,p,6.14,9.4,31.3,-107.1,-2.1
63,65,2024-11-15 18:43:30,1731725010,630,p,6.14,9.4,31.3,-107.1,-2.1
64,66,2024-11-15 18:43:40,1731725020,640,p,6.14,9.4,31.3,-107.1,-2.1
65,67,2024-11-15 18:43:50,1731725030,650,p,6.14,9.4,31.3,-107.1,-2.1
66,68,2024-11-15 18:44:00,1731725040,660,p,6.14,9.5,31.3,-107.1,-2.1
67,69,2024-11-15 18:44:10,1731725050,670,p,6.14,9.4,31.3,-107.1,-2.1
68,70,2024-11-15 18:44:20,1731725060,680,p,6.14,9.4,31.3,-107.1,-2.1
69,71,2024-11-15 18:44:30,1731725070,690,p,6.15,9.4,31.3,-107.1,-2.1
70,72,2024-11-15 18:44:39,1731725079,699,p,6.15,9.5,31.3,-107.1,-2.1
71,73,2024-11-15 18:44:49,1731725089,709,p,6.14,9.5,31.3,-107.1,-2.1
72,74,2024-11-15 18:44:59,1731725099,719,p,6.14,9.5,31.3,-107.1,-2.1
73,75,2024-11-15 18:45:09,1731725109,729,p,6.16,9.5,31.3,-107.1,-2.1
74,76,2024-11-15 18:45:19,1731725119,739,p,6.15,9.5,31.3,-107.1,-2.1
75,77,2024-11-15 18:45:29,1731725129,749,p,6.15,9.5,31.3,-107.1,-2.1
76,78,2024-11-15 18:45:39,1731725139,759,p,6.16,9.5,31.3,-107.1,-2.1
77,79,2024-11-15 18:45:49,1731725149,769,p,6.15,9.5,31.3,-107.1,-2.1
78,80,2024-11-15 18:45:59,1731725159,779,p,6.15,9.5,31.3,-107.1,-2.2
79,81,2024-11-15 18:46:09,1731725169,789,p,6.16,9.5,31.3,-107.1,-2.2
80,82,2024-11-15 18:46:19,1731725179,799,p,6.16,9.5,31.3,-107.1,-2.2
81,83,2024-11-15 18:46:29,1731725189,809,p,6.17,9.5,31.3,-107.1,-2.2
82,84,2024-11-15 18:46:39,1731725199,819,p,6.17,9.5,31.3,-107.1,-2.2
83,85,2024-11-15 18:46:49,1731725209,829,p,6.17,9.4,31.3,-107.1,-2.2
84,86,2024-11-15 18:46:59,1731725219,839,p,6.17,9.4,31.3,-107.1,-2.2
85,87,2024-11-15 18:47:09,1731725229,849,p,6.17,9.4,31.3,-107.1,-2.2
86,88,2024-11-15 18:47:19,1731725239,859,p,6.17,9.4,31.3,-107.1,-2.2
87,89,2024-11-15 18:47:29,1731725249,869,p,6.17,9.4,31.3,-107.1,-2.2
88,90,2024-11-15 18:47:39,1731725259,879,p,6.17,9.4,31.3,-107.1,-2.2
89,91,2024-11-15 18:47:49,1731725269,889,p,6.18,9.4,31.3,-107.1,-2.2
90,92,2024-11-15 18:47:59,1731725279,899,p,6.17,9.4,31.3,-107.1,-2.2
91,93,2024-11-15 18:48:09,1731725289,909,p,6.16,9.4,31.3,-107.1,-2.2
92,94,2024-11-15 18:48:18,1731725298,918,p,6.18,9.4,31.3,-107.1,-2.2
93,95,2024-11-15 18:48:28,1731725308,928,p,6.18,9.4,31.3,-107.1,-2.2
94,96,2024-11-15 18:48:38,1731725318,938,p,6.16,9.4,31.3,-107.1,-2.2
95,97,2024-11-15 18:48:48,1731725328,948,p,6.18,9.4,31.3,-107.1,-2.2
96,98,2024-11-15 18:48:58,1731725338,958,p,6.18,9.4,31.3,-107.1,-2.2
97,99,2024-11-15 18:49:08,1731725348,968,p,6.18,9.4,31.3,-107.1,-2.2
98,100,2024-11-15 18:49:18,1731725358,978,p,6.17,9.5,31.3,-107.1,-2.2
99,101,2024-11-15 18:49:28,1731725368,988,p,6.19,9.5,31.3,-107.1,-2.2
100,102,2024-11-15 18:49:38,1731725378,998,p,6.19,9.5,31.3,-107.1,-2.2
101,103,2024-11-15 18:49:48,1731725388,1008,p,6.19,9.5,31.3,-107.1,-2.2
102,104,2024-11-15 18:49:58,1731725398,1018,p,6.18,9.5,31.3,-107.1,-2.2
103,105,2024-11-15 18:50:08,1731725408,1028,p,6.19,9.5,31.3,-107.1,-2.2
104,106,2024-11-15 18:50:18,1731725418,1038,p,6.19,9.5,31.3,-107.1,-2.2
105,107,2024-11-15 18:50:28,1731725428,1048,p,6.2,9.5,31.3,-107.1,-2.2
106,108,2024-11-15 18:50:38,1731725438,1058,p,6.2,9.5,31.3,-107.1,-2.2
107,109,2024-11-15 18:50:48,1731725448,1068,p,6.19,9.5,31.3,-107.1,-2.2
108,110,2024-11-15 18:50:58,1731725458,1078,p,6.2,9.5,31.3,-107.1,-2.2
109,111,2024-11-15 18:51:08,1731725468,1088,p,6.2,9.4,31.3,-107.1,-2.2
110,112,2024-11-15 18:51:18,1731725478,1098,p,6.2,9.4,31.3,-107.1,-2.2
111,113,2024-11-15 18:51:28,1731725488,1108,p,6.19,9.4,31.3,-107.1,-2.2
112,114,2024-11-15 18:51:38,1731725498,1118,p,6.2,9.4,31.3,-107.1,-2.2
113,115,2024-11-15 18:51:47,1731725507,1127,p,6.19,9.4,31.3,-107.1,-2.2
114,116,2024-11-15 18:51:57,1731725517,1137,p,6.21,9.4,31.3,-107.1,-2.2
115,117,2024-11-15 18:52:07,1731725527,1147,p,6.21,9.4,31.3,-107.1,-2.2
116,118,2024-11-15 18:52:17,1731725537,1157,p,6.2,9.4,31.3,-107.1,-2.2
117,119,2024-11-15 18:52:27,1731725547,1167,p,6.2,9.4,31.3,-107.1,-2.2
118,120,2024-11-15 18:52:37,1731725557,1177,p,6.21,9.4,31.3,-107.1,-2.2
119,121,2024-11-15 18:52:47,1731725567,1187,p,6.21,9.4,31.3,-107.1,-2.2
120,122,2024-11-15 18:52:57,1731725577,1197,p,6.22,9.4,31.3,-107.1,-2.2
121,123,2024-11-15 18:53:07,1731725587,1207,p,6.21,9.4,31.3,-107.1,-2.2
122,124,2024-11-15 18:53:17,1731725597,1217,p,6.2,9.3,31.3,-107.1,-2.2
123,125,2024-11-15 18:53:27,1731725607,1227,p,6.21,9.3,31.3,-107.1,-2.2
124,126,2024-11-15 18:53:37,1731725617,1237,p,6.23,9.3,31.3,-107.1,-2.2
125,127,2024-11-15 18:53:47,1731725627,1247,p,6.21,9.3,31.3,-107.1,-2.2
126,128,2024-11-15 18:53:57,1731725637,1257,p,6.21,9.3,31.3,-107.1,-2.2
127,129,2024-11-15 18:54:07,1731725647,1267,p,6.22,9.3,31.3,-107.1,-2.2
128,130,2024-11-15 18:54:17,1731725657,1277,p,6.22,9.3,31.3,-107.1,-2.2
129,131,2024-11-15 18:54:27,1731725667,1287,p,6.23,9.3,31.3,-107.1,-2.2
130,132,2024-11-15 18:54:37,1731725677,1297,p,6.22,9.3,31.3,-107.1,-2.2
131,133,2024-11-15 18:54:47,1731725687,1307,p,6.22,9.3,31.3,-107.1,-2.2
132,134,2024-11-15 18:54:57,1731725697,1317,p,6.21,9.3,31.3,-107.1,-2.2
133,135,2024-11-15 18:55:07,1731725707,1327,p,6.21,9.3,31.3,-107.1,-2.2
134,136,2024-11-15 18:55:17,1731725717,1337,p,6.23,9.3,31.3,-107.1,-2.2
135,137,2024-11-15 18:55:26,1731725726,1346,p,6.22,9.3,31.3,-107.1,-2.2
136,138,2024-11-15 18:55:36,1731725736,1356,p,6.22,9.3,31.3,-107.1,-2.2
137,139,2024-11-15 18:55:46,1731725746,1366,p,6.22,9.3,31.3,-107.1,-2.2
138,140,2024-11-15 18:55:56,1731725756,1376,p,6.22,9.3,31.3,-107.1,-2.2
139,141,2024-11-15 18:56:06,1731725766,1386,p,6.23,9.3,31.3,-107.1,-2.2
140,142,2024-11-15 18:56:16,1731725776,1396,p,6.24,9.3,31.3,-107.1,-2.2
141,143,2024-11-15 18:56:26,1731725786,1406,p,6.22,9.3,31.3,-107.1,-2.2
142,144,2024-11-15 18:56:36,1731725796,1416,p,6.23,9.3,31.3,-107.1,-2.2
143,145,2024-11-15 18:56:46,1731725806,1426,p,6.24,9.3,31.3,-107.1,-2.2
144,146,2024-11-15 18:56:56,1731725816,1436,p,6.24,9.3,31.3,-107,-2.2
145,147,2024-11-15 18:57:06,1731725826,1446,p,6.23,9.3,31.3,-107,-2.2
146,148,2024-11-15 18:57:16,1731725836,1456,p,6.23,9.3,31.3,-107,-2.2
147,149,2024-11-15 18:57:26,1731725846,1466,p,6.23,9.3,31.3,-107,-2.2
148,150,2024-11-15 18:57:36,1731725856,1476,p,6.23,9.3,31.3,-107,-2.2
149,151,2024-11-15 18:57:46,1731725866,1486,p,6.23,9.3,31.3,-107,-2.2
150,152,2024-11-15 18:57:56,1731725876,1496,p,6.23,9.3,31.3,-107,-2.2
151,153,2024-11-15 18:58:06,1731725886,1506,p,6.24,9.4,31.3,-107,-2.2
152,154,2024-11-15 18:58:16,1731725896,1516,p,6.24,9.3,31.3,-107,-2.2
153,155,2024-11-15 18:58:26,1731725906,1526,p,6.23,9.3,31.3,-107,-2.2
154,156,2024-11-15 18:58:36,1731725916,1536,p,6.25,9.3,31.3,-107,-2.2
155,157,2024-11-15 18:58:46,1731725926,1546,p,6.23,9.4,31.3,-107,-2.2
156,158,2024-11-15 18:58:56,1731725936,1556,p,6.24,9.4,31.3,-107,-2.2
157,159,2024-11-15 18:59:05,1731725945,1565,p,6.23,9.4,31.3,-107,-2.2
158,160,2024-11-15 18:59:15,1731725955,1575,p,6.23,9.4,31.3,-107,-2.2
159,161,2024-11-15 18:59:25,1731725965,1585,p,6.25,9.4,31.3,-107,-2.2
160,162,2024-11-15 18:59:35,1731725975,1595,p,6.24,9.4,31.3,-107,-2.2
161,163,2024-11-15 18:59:45,1731725985,1605,p,6.24,9.4,31.3,-107,-2.2
162,164,2024-11-15 18:59:55,1731725995,1615,p,6.25,9.4,31.3,-107,-2.2
163,165,2024-11-15 19:00:05,1731726005,1625,p,6.25,9.4,31.3,-107,-2.2
164,166,2024-11-15 19:00:15,1731726015,1635,p,6.24,9.3,31.3,-107,-2.2
165,167,2024-11-15 19:00:25,1731726025,1645,p,6.25,9.3,31.3,-107,-2.2
166,168,2024-11-15 19:00:35,1731726035,1655,p,6.24,9.3,31.3,-107,-2.2
167,169,2024-11-15 19:00:45,1731726045,1665,p,6.25,9.3,31.3,-107,-2.2
168,170,2024-11-15 19:00:55,1731726055,1675,p,6.25,9.3,31.3,-107,-2.2
169,171,2024-11-15 19:01:05,1731726065,1685,p,6.25,9.3,31.3,-107,-2.2
170,172,2024-11-15 19:01:15,1731726075,1695,p,6.25,9.4,31.3,-107,-2.2
171,173,2024-11-15 19:01:25,1731726085,1705,p,6.25,9.4,31.3,-107,-2.2
172,174,2024-11-15 19:01:35,1731726095,1715,p,6.25,9.4,31.3,-107,-2.2
173,175,2024-11-15 19:01:45,1731726105,1725,p,6.25,9.4,31.3,-107,-2.2
174,176,2024-11-15 19:01:55,1731726115,1735,p,6.26,9.4,31.3,-107,-2.2
175,177,2024-11-15 19:02:05,1731726125,1745,p,6.26,9.4,31.3,-107,-2.2
176,178,2024-11-15 19:02:15,1731726135,1755,p,6.26,9.4,31.3,-107,-2.2
177,179,2024-11-15 19:02:25,1731726145,1765,p,6.26,9.4,31.3,-107,-2.2
178,180,2024-11-15 19:02:34,1731726154,1774,p,6.25,9.4,31.3,-107,-2.2
179,181,2024-11-15 19:02:44,1731726164,1784,p,6.25,9.4,31.3,-107,-2.2
180,182,2024-11-15 19:02:54,1731726174,1794,p,6.26,9.4,31.3,-107,-2.2
181,183,2024-11-15 19:03:04,1731726184,1804,p,6.26,9.4,31.3,-107,-2.2
182,184,2024-11-15 19:03:14,1731726194,1814,p,6.26,9.4,31.3,-107,-2.2
183,185,2024-11-15 19:03:24,1731726204,1824,p,6.27,9.4,31.3,-107,-2.2
184,186,2024-11-15 19:03:34,1731726214,1834,p,6.26,9.4,31.3,-107,-2.2
185,187,2024-11-15 19:03:44,1731726224,1844,p,6.26,9.4,31.3,-107,-2.2
186,188,2024-11-15 19:03:54,1731726234,1854,p,6.27,9.4,31.3,-107,-2.2
187,189,2024-11-15 19:04:04,1731726244,1864,p,6.26,9.3,31.3,-107,-2.2
188,190,2024-11-15 19:04:14,1731726254,1874,p,6.25,9.3,31.3,-107,-2.2
189,191,2024-11-15 19:04:24,1731726264,1884,p,6.27,9.4,31.3,-107,-2.2
190,192,2024-11-15 19:04:34,1731726274,1894,p,6.26,9.4,31.3,-107,-2.2
191,193,2024-11-15 19:04:44,1731726284,1904,p,6.27,9.4,31.3,-107,-2.2
192,194,2024-11-15 19:04:54,1731726294,1914,p,6.27,9.4,31.3,-107,-2.2
193,195,2024-11-15 19:05:04,1731726304,1924,p,6.26,9.4,31.3,-107,-2.2
194,196,2024-11-15 19:05:14,1731726314,1934,p,6.27,9.4,31.3,-107,-2.2
195,197,2024-11-15 19:05:24,1731726324,1944,p,6.27,9.4,31.3,-107,-2.2
196,198,2024-11-15 19:05:34,1731726334,1954,p,6.27,9.4,31.3,-107,-2.2
197,199,2024-11-15 19:05:44,1731726344,1964,p,6.27,9.4,31.3,-107,-2.2
198,200,2024-11-15 19:05:54,1731726354,1974,p,6.27,9.4,31.3,-107,-2.2
199,201,2024-11-15 19:06:04,1731726364,1984,p,6.27,9.4,31.3,-107,-2.2
200,202,2024-11-15 19:06:14,1731726374,1994,p,6.26,9.4,31.3,-107,-2.2
201,203,2024-11-15 19:06:23,1731726383,2003,p,6.27,9.4,31.3,-107,-2.2
202,204,2024-11-15 19:06:33,1731726393,2013,p,6.28,9.3,31.3,-107,-2.2
203,205,2024-11-15 19:06:43,1731726403,2023,p,6.27,9.3,31.3,-107,-2.2
204,206,2024-11-15 19:06:53,1731726413,2033,p,6.26,9.3,31.3,-107,-2.2
205,207,2024-11-15 19:07:03,1731726423,2043,p,6.28,9.3,31.3,-107,-2.2
206,208,2024-11-15 19:07:13,1731726433,2053,p,6.28,9.3,31.3,-107,-2.2
207,209,2024-11-15 19:07:23,1731726443,2063,p,6.27,9.3,31.3,-107,-2.2
208,210,2024-11-15 19:07:33,1731726453,2073,p,6.28,9.3,31.3,-107,-2.2
209,211,2024-11-15 19:07:43,1731726463,2083,p,6.27,9.3,31.3,-107,-2.2
210,212,2024-11-15 19:07:53,1731726473,2093,p,6.28,9.3,31.3,-106.9,-2.3
211,213,2024-11-15 19:08:03,1731726483,2103,p,6.28,9.3,31.3,-106.9,-2.3
212,214,2024-11-15 19:08:13,1731726493,2113,p,6.28,9.3,31.3,-106.9,-2.3
213,215,2024-11-15 19:08:23,1731726503,2123,p,6.28,9.3,31.3,-106.9,-2.3
214,216,2024-11-15 19:08:33,1731726513,2133,p,6.28,9.4,31.3,-106.9,-2.3
215,217,2024-11-15 19:08:43,1731726523,2143,p,6.28,9.4,31.3,-106.9,-2.3
216,218,2024-11-15 19:08:53,1731726533,2153,p,6.28,9.4,31.3,-106.9,-2.3
217,219,2024-11-15 19:09:03,1731726543,2163,p,6.28,9.4,31.3,-106.9,-2.3
218,220,2024-11-15 19:09:13,1731726553,2173,p,6.29,9.4,31.3,-106.9,-2.3
219,221,2024-11-15 19:09:23,1731726563,2183,p,6.27,9.3,31.3,-106.9,-2.3
220,222,2024-11-15 19:09:33,1731726573,2193,p,6.29,9.4,31.3,-106.9,-2.3
221,223,2024-11-15 19:09:43,1731726583,2203,p,6.28,9.4,31.3,-106.9,-2.3
222,224,2024-11-15 19:09:53,1731726593,2213,p,6.28,9.4,31.3,-106.9,-2.3
223,225,2024-11-15 19:10:02,1731726602,2222,p,6.29,9.4,31.3,-106.9,-2.3
224,226,2024-11-15 19:10:12,1731726612,2232,p,6.29,9.4,31.3,-106.9,-2.3
225,227,2024-11-15 19:10:22,1731726622,2242,p,6.29,9.4,31.3,-106.9,-2.3
226,228,2024-11-15 19:10:32,1731726632,2252,p,6.28,9.4,31.3,-106.9,-2.3
227,229,2024-11-15 19:10:42,1731726642,2262,p,6.29,9.4,31.3,-106.9,-2.3
228,230,2024-11-15 19:10:52,1731726652,2272,p,6.29,9.4,31.3,-106.9,-2.3
229,231,2024-11-15 19:11:02,1731726662,2282,p,6.29,9.4,31.3,-106.9,-2.3
230,232,2024-11-15 19:11:12,1731726672,2292,p,6.3,9.4,31.3,-106.9,-2.3
231,233,2024-11-15 19:11:22,1731726682,2302,p,6.29,9.4,31.3,-106.9,-2.3
232,234,2024-11-15 19:11:32,1731726692,2312,p,6.29,9.4,31.3,-106.9,-2.3
233,235,2024-11-15 19:11:42,1731726702,2322,p,6.29,9.4,31.3,-106.9,-2.3
234,236,2024-11-15 19:11:52,1731726712,2332,p,6.3,9.4,31.3,-106.9,-2.3
235,237,2024-11-15 19:12:02,1731726722,2342,p,6.29,9.3,31.3,-106.9,-2.3
236,238,2024-11-15 19:12:12,1731726732,2352,p,6.29,9.3,31.3,-106.9,-2.3
237,239,2024-11-15 19:12:22,1731726742,2362,p,6.29,9.3,31.3,-106.9,-2.3
238,240,2024-11-15 19:12:32,1731726752,2372,p,6.29,9.3,31.3,-106.9,-2.3
239,241,2024-11-15 19:12:42,1731726762,2382,p,6.29,9.3,31.3,-106.9,-2.3
240,242,2024-11-15 19:12:52,1731726772,2392,p,6.3,9.4,31.3,-106.9,-2.3
241,243,2024-11-15 19:13:02,1731726782,2402,p,6.3,9.4,31.3,-106.9,-2.3
242,244,2024-11-15 19:13:12,1731726792,2412,p,6.29,9.4,31.3,-106.9,-2.3
243,245,2024-11-15 19:13:22,1731726802,2422,p,6.29,9.4,31.3,-106.9,-2.3
244,246,2024-11-15 19:13:32,1731726812,2432,p,6.3,9.4,31.3,-106.9,-2.3
245,247,2024-11-15 19:13:41,1731726821,2441,p,6.29,9.3,31.3,-106.9,-2.3
246,248,2024-11-15 19:13:51,1731726831,2451,p,6.29,9.3,31.3,-106.9,-2.3
247,249,2024-11-15 19:14:01,1731726841,2461,p,6.3,9.3,31.3,-106.9,-2.3
248,250,2024-11-15 19:14:11,1731726851,2471,p,6.3,9.3,31.3,-106.9,-2.3
249,251,2024-11-15 19:14:21,1731726861,2481,p,6.29,9.3,31.3,-106.9,-2.3
250,252,2024-11-15 19:14:31,1731726871,2491,p,6.3,9.3,31.3,-106.9,-2.3
251,253,2024-11-15 19:14:41,1731726881,2501,p,6.3,9.3,31.3,-106.9,-2.3
252,254,2024-11-15 19:14:51,1731726891,2511,p,6.3,9.3,31.3,-106.9,-2.3
253,255,2024-11-15 19:15:01,1731726901,2521,p,6.31,9.3,31.3,-106.9,-2.3
254,256,2024-11-15 19:15:11,1731726911,2531,p,6.29,9.3,31.3,-106.9,-2.3
255,257,2024-11-15 19:15:21,1731726921,2541,p,6.3,9.4,31.3,-106.9,-2.3
256,258,2024-11-15 19:15:31,1731726931,2551,p,6.31,9.4,31.3,-106.9,-2.3
257,259,2024-11-15 19:15:41,1731726941,2561,p,6.3,9.3,31.3,-106.9,-2.3
258,260,2024-11-15 19:15:51,1731726951,2571,p,6.3,9.4,31.3,-106.9,-2.3
259,261,2024-11-15 19:16:01,1731726961,2581,p,6.31,9.4,31.3,-106.9,-2.3
260,262,2024-11-15 19:16:11,1731726971,2591,p,6.3,9.3,31.3,-106.9,-2.3
261,263,2024-11-15 19:16:21,1731726981,2601,p,6.3,9.4,31.3,-106.9,-2.3
262,264,2024-11-15 19:16:31,1731726991,2611,p,6.31,9.4,31.3,-106.9,-2.3
263,265,2024-11-15 19:16:41,1731727001,2621,p,6.3,9.4,31.3,-106.9,-2.3
264,266,2024-11-15 19:16:51,1731727011,2631,p,6.3,9.4,31.3,-106.9,-2.3
265,267,2024-11-15 19:17:01,1731727021,2641,p,6.31,9.4,31.3,-106.9,-2.3
266,268,2024-11-15 19:17:11,1731727031,2651,p,6.3,9.3,31.3,-106.9,-2.3
267,269,2024-11-15 19:17:21,1731727041,2661,p,6.29,9.3,31.3,-106.9,-2.3
268,270,2024-11-15 19:17:30,1731727050,2670,p,6.32,9.3,31.3,-106.9,-2.3
269,271,2024-11-15 19:17:40,1731727060,2680,p,6.31,9.3,31.3,-106.9,-2.3
270,272,2024-11-15 19:17:50,1731727070,2690,p,6.31,9.3,31.3,-106.9,-2.3
271,273,2024-11-15 19:18:00,1731727080,2700,p,6.32,9.3,31.3,-106.9,-2.3
272,274,2024-11-15 19:18:10,1731727090,2710,p,6.32,9.3,31.3,-106.9,-2.3
273,275,2024-11-15 19:18:20,1731727100,2720,p,6.3,9.3,31.3,-106.9,-2.3
274,276,2024-11-15 19:18:30,1731727110,2730,p,6.31,9.3,31.3,-106.9,-2.3
275,277,2024-11-15 19:18:40,1731727120,2740,p,6.32,9.4,31.3,-106.9,-2.3
276,278,2024-11-15 19:18:50,1731727130,2750,p,6.3,9.3,31.3,-106.9,-2.3
277,279,2024-11-15 19:19:00,1731727140,2760,p,6.31,9.3,31.3,-106.9,-2.3
278,280,2024-11-15 19:19:10,1731727150,2770,p,6.3,9.3,31.3,-106.9,-2.3
279,281,2024-11-15 19:19:20,1731727160,2780,p,6.31,9.3,31.3,-106.9,-2.3
280,282,2024-11-15 19:19:30,1731727170,2790,p,6.31,9.3,31.3,-106.9,-2.3
281,283,2024-11-15 19:19:40,1731727180,2800,p,6.31,9.3,31.3,-106.9,-2.3
282,284,2024-11-15 19:19:50,1731727190,2810,p,6.31,9.3,31.3,-106.9,-2.3
283,285,2024-11-15 19:20:00,1731727200,2820,p,6.31,9.3,31.3,-106.9,-2.3
284,286,2024-11-15 19:20:10,1731727210,2830,p,6.31,9.3,31.3,-106.9,-2.3
285,287,2024-11-15 19:20:20,1731727220,2840,p,6.3,9.3,31.3,-106.9,-2.3
286,288,2024-11-15 19:20:30,1731727230,2850,p,6.31,9.3,31.3,-106.9,-2.3
287,289,2024-11-15 19:20:40,1731727240,2860,p,6.32,9.3,31.3,-106.9,-2.3
288,290,2024-11-15 19:20:50,1731727250,2870,p,6.31,9.3,31.3,-106.9,-2.3
289,291,2024-11-15 19:21:00,1731727260,2880,p,6.32,9.3,31.3,-106.9,-2.3
290,292,2024-11-15 19:21:09,1731727269,2889,p,6.32,9.3,31.3,-106.9,-2.3
291,293,2024-11-15 19:21:19,1731727279,2899,p,6.32,9.3,31.3,-106.9,-2.3
292,294,2024-11-15 19:21:29,1731727289,2909,p,6.33,9.4,31.3,-106.9,-2.3
293,295,2024-11-15 19:21:39,1731727299,2919,p,6.32,9.4,31.3,-106.9,-2.3
294,296,2024-11-15 19:21:49,1731727309,2929,p,6.32,9.4,31.3,-106.9,-2.3
295,297,2024-11-15 19:21:59,1731727319,2939,p,6.32,9.4,31.3,-106.9,-2.3
296,298,2024-11-15 19:22:09,1731727329,2949,p,6.32,9.4,31.3,-106.9,-2.3
297,299,2024-11-15 19:22:19,1731727339,2959,p,6.33,9.4,31.3,-106.9,-2.3
298,300,2024-11-15 19:22:29,1731727349,2969,p,6.32,9.4,31.3,-106.9,-2.3
299,301,2024-11-15 19:22:39,1731727359,2979,p,6.32,9.4,31.3,-106.9,-2.3
300,302,2024-11-15 19:22:49,1731727369,2989,p,6.32,9.3,31.3,-106.9,-2.3
301,303,2024-11-15 19:22:59,1731727379,2999,p,6.32,9.3,31.3,-106.9,-2.3
302,304,2024-11-15 19:23:09,1731727389,3009,p,6.33,9.4,31.3,-106.9,-2.3
303,305,2024-11-15 19:23:19,1731727399,3019,p,6.33,9.4,31.3,-106.9,-2.3
304,306,2024-11-15 19:23:29,1731727409,3029,p,6.33,9.4,31.3,-106.9,-2.3
305,307,2024-11-15 19:23:39,1731727419,3039,p,6.33,9.4,31.3,-106.9,-2.3
306,308,2024-11-15 19:23:49,1731727429,3049,p,6.34,9.4,31.3,-106.9,-2.3
307,309,2024-11-15 19:23:59,1731727439,3059,p,6.33,9.4,31.3,-106.9,-2.3
308,310,2024-11-15 19:24:09,1731727449,3069,p,6.32,9.4,31.3,-106.9,-2.3
309,311,2024-11-15 19:24:19,1731727459,3079,p,6.33,9.4,31.3,-106.9,-2.3
310,312,2024-11-15 19:24:29,1731727469,3089,p,6.33,9.4,31.3,-106.9,-2.3
311,313,2024-11-15 19:24:39,1731727479,3099,p,6.33,9.4,31.3,-106.9,-2.3
312,314,2024-11-15 19:24:48,1731727488,3108,p,6.33,9.4,31.3,-106.9,-2.3
313,315,2024-11-15 19:24:58,1731727498,3118,p,6.33,9.4,31.3,-106.9,-2.3
314,316,2024-11-15 19:25:08,1731727508,3128,p,6.33,9.4,31.3,-106.9,-2.3
315,317,2024-11-15 19:25:18,1731727518,3138,p,6.33,9.4,31.3,-106.9,-2.3
316,318,2024-11-15 19:25:28,1731727528,3148,p,6.34,9.4,31.3,-106.9,-2.3
317,319,2024-11-15 19:25:38,1731727538,3158,p,6.34,9.4,31.3,-106.9,-2.3
318,320,2024-11-15 19:25:48,1731727548,3168,p,6.33,9.4,31.3,-106.9,-2.3
319,321,2024-11-15 19:25:58,1731727558,3178,p,6.33,9.4,31.3,-106.9,-2.3
320,322,2024-11-15 19:26:08,1731727568,3188,p,6.34,9.4,31.3,-106.9,-2.3
321,323,2024-11-15 19:26:18,1731727578,3198,p,6.33,9.4,31.3,-106.9,-2.3
322,324,2024-11-15 19:26:28,1731727588,3208,p,6.34,9.4,31.3,-106.9,-2.3
323,325,2024-11-15 19:26:38,1731727598,3218,p,6.33,9.4,31.3,-106.9,-2.3
324,326,2024-11-15 19:26:48,1731727608,3228,p,6.34,9.4,31.3,-106.9,-2.3
325,327,2024-11-15 19:26:58,1731727618,3238,p,6.34,9.4,31.3,-106.9,-2.3
326,328,2024-11-15 19:27:08,1731727628,3248,p,6.34,9.4,31.3,-106.9,-2.3
327,329,2024-11-15 19:27:18,1731727638,3258,p,6.34,9.4,31.3,-106.9,-2.3
328,330,2024-11-15 19:27:28,1731727648,3268,p,6.34,9.3,31.3,-106.9,-2.3
329,331,2024-11-15 19:27:38,1731727658,3278,p,6.34,9.3,31.3,-106.9,-2.3
330,332,2024-11-15 19:27:48,1731727668,3288,p,6.33,9.3,31.3,-106.9,-2.3
331,333,2024-11-15 19:27:58,1731727678,3298,p,6.34,9.3,31.3,-106.9,-2.3
332,334,2024-11-15 19:28:08,1731727688,3308,p,6.34,9.3,31.3,-106.9,-2.3
333,335,2024-11-15 19:28:18,1731727698,3318,p,6.33,9.3,31.3,-106.9,-2.3
334,336,2024-11-15 19:28:27,1731727707,3327,p,6.34,9.3,31.3,-106.9,-2.3
335,337,2024-11-15 19:28:37,1731727717,3337,p,6.35,9.3,31.3,-106.9,-2.3
336,338,2024-11-15 19:28:47,1731727727,3347,p,6.34,9.3,31.3,-106.9,-2.3
337,339,2024-11-15 19:28:57,1731727737,3357,p,6.33,9.3,31.3,-106.9,-2.3
338,340,2024-11-15 19:29:07,1731727747,3367,p,6.34,9.3,31.3,-106.9,-2.3
339,341,2024-11-15 19:29:17,1731727757,3377,p,6.34,9.3,31.3,-106.9,-2.3
340,342,2024-11-15 19:29:27,1731727767,3387,p,6.34,9.3,31.3,-106.9,-2.3
341,343,2024-11-15 19:29:37,1731727777,3397,p,6.33,9.3,31.3,-106.9,-2.3
342,344,2024-11-15 19:29:47,1731727787,3407,p,6.35,9.3,31.3,-106.9,-2.3
343,345,2024-11-15 19:29:57,1731727797,3417,p,6.34,9.3,31.3,-106.9,-2.3
344,346,2024-11-15 19:30:07,1731727807,3427,p,6.35,9.3,31.3,-106.9,-2.3
345,347,2024-11-15 19:30:17,1731727817,3437,p,6.35,9.3,31.3,-106.9,-2.3
346,348,2024-11-15 19:30:27,1731727827,3447,p,6.35,9.3,31.3,-106.9,-2.3
347,349,2024-11-15 19:30:37,1731727837,3457,p,6.35,9.3,31.3,-106.9,-2.3
348,350,2024-11-15 19:30:47,1731727847,3467,p,6.34,9.3,31.3,-106.9,-2.3
349,351,2024-11-15 19:30:57,1731727857,3477,p,6.34,9.3,31.3,-106.9,-2.3
350,352,2024-11-15 19:31:07,1731727867,3487,p,6.34,9.3,31.3,-106.9,-2.3
351,353,2024-11-15 19:31:17,1731727877,3497,p,6.34,9.3,31.3,-106.9,-2.3
352,354,2024-11-15 19:31:27,1731727887,3507,p,6.35,9.3,31.3,-106.9,-2.3
353,355,2024-11-15 19:31:37,1731727897,3517,p,6.35,9.3,31.3,-106.9,-2.3
354,356,2024-11-15 19:31:47,1731727907,3527,p,6.35,9.3,31.3,-106.9,-2.3
355,357,2024-11-15 19:31:57,1731727917,3537,p,6.35,9.3,31.3,-106.9,-2.3
356,358,2024-11-15 19:32:06,1731727926,3546,p,6.35,9.3,31.3,-106.9,-2.3
357,359,2024-11-15 19:32:16,1731727936,3556,p,6.35,9.3,31.3,-106.9,-2.3
358,360,2024-11-15 19:32:26,1731727946,3566,p,6.35,9.3,31.3,-106.9,-2.3
359,361,2024-11-15 19:32:36,1731727956,3576,p,6.35,9.3,31.3,-106.9,-2.3
360,362,2024-11-15 19:32:46,1731727966,3586,p,6.35,9.3,31.3,-106.9,-2.3
361,363,2024-11-15 19:32:56,1731727976,3596,p,6.35,9.3,31.3,-106.9,-2.3
362,364,2024-11-15 19:33:06,1731727986,3606,p,6.36,9.3,31.3,-106.9,-2.3
363,365,2024-11-15 19:33:16,1731727996,3616,p,6.36,9.3,31.3,-106.9,-2.3
364,366,2024-11-15 19:33:26,1731728006,3626,p,6.35,9.3,31.3,-106.9,-2.3
365,367,2024-11-15 19:33:36,1731728016,3636,p,6.36,9.4,31.3,-106.9,-2.3
366,368,2024-11-15 19:33:46,1731728026,3646,p,6.36,9.4,31.3,-106.9,-2.3
367,369,2024-11-15 19:33:56,1731728036,3656,p,6.37,9.4,31.3,-106.9,-2.3
368,370,2024-11-15 19:34:06,1731728046,3666,p,6.36,9.4,31.3,-106.9,-2.3
369,371,2024-11-15 19:34:16,1731728056,3676,p,6.36,9.4,31.3,-106.9,-2.3
370,372,2024-11-15 19:34:26,1731728066,3686,p,6.36,9.4,31.3,-106.9,-2.3
371,373,2024-11-15 19:34:36,1731728076,3696,p,6.37,9.4,31.3,-106.9,-2.3
372,374,2024-11-15 19:34:46,1731728086,3706,p,6.36,9.4,31.3,-106.9,-2.3
373,375,2024-11-15 19:34:56,1731728096,3716,p,6.37,9.4,31.3,-106.9,-2.3
374,376,2024-11-15 19:35:06,1731728106,3726,p,6.37,9.4,31.3,-106.9,-2.3
375,377,2024-11-15 19:35:16,1731728116,3736,p,6.37,9.4,31.3,-106.9,-2.3
376,378,2024-11-15 19:35:26,1731728126,3746,p,6.36,9.4,31.3,-106.9,-2.3
377,379,2024-11-15 19:35:36,1731728136,3756,p,6.36,9.4,31.3,-106.9,-2.3
378,380,2024-11-15 19:35:45,1731728145,3765,p,6.37,9.4,31.3,-106.9,-2.3
379,381,2024-11-15 19:35:55,1731728155,3775,p,6.37,9.4,31.3,-106.9,-2.3
380,382,2024-11-15 19:36:05,1731728165,3785,p,6.36,9.4,31.3,-106.9,-2.3
381,383,2024-11-15 19:36:15,1731728175,3795,p,6.37,9.4,31.3,-106.9,-2.3
382,384,2024-11-15 19:36:25,1731728185,3805,p,6.37,9.4,31.3,-106.9,-2.3
383,385,2024-11-15 19:36:35,1731728195,3815,p,6.37,9.4,31.3,-106.9,-2.3
384,386,2024-11-15 19:36:45,1731728205,3825,p,6.37,9.4,31.3,-106.9,-2.3
385,387,2024-11-15 19:36:55,1731728215,3835,p,6.38,9.4,31.3,-106.9,-2.3
386,388,2024-11-15 19:37:05,1731728225,3845,p,6.36,9.4,31.3,-106.9,-2.3
387,389,2024-11-15 19:37:15,1731728235,3855,p,6.37,9.4,31.3,-106.9,-2.3
388,390,2024-11-15 19:37:25,1731728245,3865,p,6.37,9.4,31.3,-106.9,-2.3
389,391,2024-11-15 19:37:35,1731728255,3875,p,6.37,9.4,31.3,-106.9,-2.3
390,392,2024-11-15 19:37:45,1731728265,3885,p,6.37,9.4,31.3,-106.9,-2.3
391,393,2024-11-15 19:37:55,1731728275,3895,p,6.37,9.4,31.3,-106.9,-2.3
392,394,2024-11-15 19:38:05,1731728285,3905,p,6.37,9.4,31.3,-106.9,-2.3
393,395,2024-11-15 19:38:15,1731728295,3915,p,6.36,9.4,31.3,-106.9,-2.3
394,396,2024-11-15 19:38:25,1731728305,3925,p,6.38,9.4,31.3,-106.9,-2.3
395,397,2024-11-15 19:38:35,1731728315,3935,p,6.38,9.4,31.3,-106.9,-2.3
396,398,2024-11-15 19:38:45,1731728325,3945,p,6.37,9.3,31.3,-106.9,-2.3
397,399,2024-11-15 19:38:55,1731728335,3955,p,6.37,9.3,31.3,-106.9,-2.3
398,400,2024-11-15 19:39:05,1731728345,3965,p,6.37,9.3,31.3,-106.9,-2.3
399,401,2024-11-15 19:39:14,1731728354,3974,p,6.37,9.3,31.3,-106.9,-2.3
400,402,2024-11-15 19:39:24,1731728364,3984,p,6.37,9.3,31.3,-106.9,-2.3
401,403,2024-11-15 19:39:34,1731728374,3994,p,6.38,9.3,31.3,-106.9,-2.3
402,404,2024-11-15 19:39:44,1731728384,4004,p,6.38,9.3,31.3,-106.9,-2.3
403,405,2024-11-15 19:39:54,1731728394,4014,p,6.37,9.3,31.3,-106.9,-2.3
404,406,2024-11-15 19:40:04,1731728404,4024,p,6.38,9.3,31.3,-106.9,-2.3
405,407,2024-11-15 19:40:14,1731728414,4034,p,6.39,9.3,31.3,-106.9,-2.3
406,408,2024-11-15 19:40:24,1731728424,4044,p,6.37,9.3,31.3,-106.9,-2.3
407,409,2024-11-15 19:40:34,1731728434,4054,p,6.38,9.3,31.3,-106.9,-2.3
408,410,2024-11-15 19:40:44,1731728444,4064,p,6.38,9.3,31.3,-106.9,-2.3
409,411,2024-11-15 19:40:54,1731728454,4074,p,6.38,9.3,31.3,-106.9,-2.3
410,412,2024-11-15 19:41:04,1731728464,4084,p,6.39,9.3,31.3,-106.9,-2.3
411,413,2024-11-15 19:41:14,1731728474,4094,p,6.37,9.3,31.3,-106.9,-2.3
412,414,2024-11-15 19:41:24,1731728484,4104,p,6.37,9.3,31.3,-106.9,-2.3
413,415,2024-11-15 19:41:34,1731728494,4114,p,6.38,9.3,31.3,-106.9,-2.3
414,416,2024-11-15 19:41:44,1731728504,4124,p,6.38,9.3,31.3,-106.9,-2.3
415,417,2024-11-15 19:41:54,1731728514,4134,p,6.38,9.3,31.3,-106.9,-2.3
416,418,2024-11-15 19:42:04,1731728524,4144,p,6.39,9.3,31.3,-106.9,-2.3
417,419,2024-11-15 19:42:14,1731728534,4154,p,6.38,9.3,31.3,-106.9,-2.3
418,420,2024-11-15 19:42:24,1731728544,4164,p,6.39,9.3,31.3,-106.9,-2.3
419,421,2024-11-15 19:42:34,1731728554,4174,p,6.39,9.3,31.3,-106.9,-2.3
420,422,2024-11-15 19:42:44,1731728564,4184,p,6.38,9.3,31.3,-106.9,-2.3
421,423,2024-11-15 19:42:53,1731728573,4193,p,6.39,9.3,31.3,-106.9,-2.3
422,424,2024-11-15 19:43:03,1731728583,4203,p,6.39,9.3,31.3,-106.9,-2.3
423,425,2024-11-15 19:43:13,1731728593,4213,p,6.39,9.3,31.3,-106.9,-2.3
424,426,2024-11-15 19:43:23,1731728603,4223,p,6.39,9.3,31.3,-106.9,-2.3
425,427,2024-11-15 19:43:33,1731728613,4233,p,6.39,9.3,31.3,-106.9,-2.3
426,428,2024-11-15 19:43:43,1731728623,4243,p,6.4,9.3,31.3,-106.9,-2.3
427,429,2024-11-15 19:43:53,1731728633,4253,p,6.38,9.3,31.3,-106.9,-2.3
428,430,2024-11-15 19:44:03,1731728643,4263,p,6.39,9.3,31.3,-106.9,-2.3
429,431,2024-11-15 19:44:13,1731728653,4273,p,6.39,9.3,31.3,-106.9,-2.3
430,432,2024-11-15 19:44:23,1731728663,4283,p,6.39,9.3,31.3,-106.9,-2.3
431,433,2024-11-15 19:44:33,1731728673,4293,p,6.38,9.3,31.3,-106.9,-2.3
432,434,2024-11-15 19:44:43,1731728683,4303,p,6.4,9.3,31.3,-106.9,-2.3
433,435,2024-11-15 19:44:53,1731728693,4313,p,6.4,9.3,31.3,-106.9,-2.3
434,436,2024-11-15 19:45:03,1731728703,4323,p,6.38,9.3,31.3,-106.9,-2.3
435,437,2024-11-15 19:45:13,1731728713,4333,p,6.4,9.3,31.3,-106.9,-2.3
436,438,2024-11-15 19:45:23,1731728723,4343,p,6.39,9.3,31.3,-106.9,-2.3
437,439,2024-11-15 19:45:33,1731728733,4353,p,6.39,9.3,31.3,-106.9,-2.3
438,440,2024-11-15 19:45:43,1731728743,4363,p,6.4,9.3,31.3,-106.9,-2.3
439,441,2024-11-15 19:45:53,1731728753,4373,p,6.4,9.3,31.3,-106.9,-2.3
440,442,2024-11-15 19:46:03,1731728763,4383,p,6.39,9.3,31.3,-106.9,-2.3
441,443,2024-11-15 19:46:13,1731728773,4393,p,6.4,9.3,31.3,-106.9,-2.3
442,444,2024-11-15 19:46:23,1731728783,4403,p,6.4,9.3,31.3,-106.9,-2.3
443,445,2024-11-15 19:46:32,1731728792,4412,p,6.4,9.3,31.3,-106.9,-2.3
444,446,2024-11-15 19:46:42,1731728802,4422,p,6.39,9.3,31.3,-106.9,-2.3
445,447,2024-11-15 19:46:52,1731728812,4432,p,6.4,9.3,31.3,-106.9,-2.3
446,448,2024-11-15 19:47:02,1731728822,4442,p,6.39,9.3,31.3,-106.9,-2.3
447,449,2024-11-15 19:47:12,1731728832,4452,p,6.39,9.3,31.3,-106.9,-2.3
448,450,2024-11-15 19:47:22,1731728842,4462,p,6.39,9.3,31.3,-106.9,-2.3
449,451,2024-11-15 19:47:32,1731728852,4472,p,6.4,9.3,31.3,-106.9,-2.3
450,452,2024-11-15 19:47:42,1731728862,4482,p,6.4,9.3,31.3,-106.9,-2.3
451,453,2024-11-15 19:47:52,1731728872,4492,p,6.39,9.3,31.3,-106.9,-2.3
452,454,2024-11-15 19:48:02,1731728882,4502,p,6.4,9.3,31.3,-106.9,-2.3
453,455,2024-11-15 19:48:12,1731728892,4512,p,6.4,9.3,31.3,-106.9,-2.3
454,456,2024-11-15 19:48:22,1731728902,4522,p,6.4,9.3,31.3,-106.9,-2.3
455,457,2024-11-15 19:48:32,1731728912,4532,p,6.41,9.3,31.3,-106.9,-2.3
456,458,2024-11-15 19:48:42,1731728922,4542,p,6.4,9.3,31.3,-106.9,-2.3
457,459,2024-11-15 19:48:52,1731728932,4552,p,6.4,9.3,31.3,-106.9,-2.3
458,460,2024-11-15 19:49:02,1731728942,4562,p,6.41,9.3,31.3,-106.9,-2.3
459,461,2024-11-15 19:49:12,1731728952,4572,p,6.41,9.3,31.3,-106.9,-2.3
460,462,2024-11-15 19:49:22,1731728962,4582,p,6.41,9.3,31.3,-106.9,-2.3
461,463,2024-11-15 19:49:32,1731728972,4592,p,6.41,9.3,31.3,-106.9,-2.3
462,464,2024-11-15 19:49:42,1731728982,4602,p,6.4,9.3,31.3,-106.9,-2.3
463,465,2024-11-15 19:49:52,1731728992,4612,p,6.4,9.3,31.3,-106.9,-2.3
464,466,2024-11-15 19:50:01,1731729001,4621,p,6.41,9.3,31.3,-106.9,-2.3
465,467,2024-11-15 19:50:11,1731729011,4631,p,6.4,9.3,31.3,-106.9,-2.3
466,468,2024-11-15 19:50:21,1731729021,4641,p,6.41,9.3,31.3,-106.9,-2.3
467,469,2024-11-15 19:50:31,1731729031,4651,p,6.41,9.3,31.3,-106.9,-2.3
468,470,2024-11-15 19:50:41,1731729041,4661,p,6.41,9.3,31.3,-106.9,-2.3
469,471,2024-11-15 19:50:51,1731729051,4671,p,6.41,9.3,31.3,-106.9,-2.3
470,472,2024-11-15 19:51:01,1731729061,4681,p,6.4,9.3,31.3,-106.9,-2.3
471,473,2024-11-15 19:51:11,1731729071,4691,p,6.41,9.3,31.3,-106.9,-2.3
472,474,2024-11-15 19:51:21,1731729081,4701,p,6.42,9.3,31.3,-106.9,-2.3
473,475,2024-11-15 19:51:31,1731729091,4711,p,6.4,9.3,31.3,-106.9,-2.3
474,476,2024-11-15 19:51:41,1731729101,4721,p,6.41,9.3,31.3,-106.9,-2.3
475,477,2024-11-15 19:51:51,1731729111,4731,p,6.41,9.3,31.3,-106.9,-2.3
476,478,2024-11-15 19:52:01,1731729121,4741,p,6.41,9.3,31.3,-106.9,-2.3
477,479,2024-11-15 19:52:11,1731729131,4751,p,6.41,9.3,31.3,-106.9,-2.3
478,480,2024-11-15 19:52:21,1731729141,4761,p,6.42,9.3,31.3,-106.9,-2.3
479,481,2024-11-15 19:52:31,1731729151,4771,p,6.41,9.3,31.3,-106.9,-2.3
480,482,2024-11-15 19:52:41,1731729161,4781,p,6.41,9.3,31.3,-106.9,-2.3
481,483,2024-11-15 19:52:51,1731729171,4791,p,6.42,9.3,31.3,-106.9,-2.3
482,484,2024-11-15 19:53:01,1731729181,4801,p,6.41,9.3,31.3,-106.9,-2.3
483,485,2024-11-15 19:53:11,1731729191,4811,p,6.4,9.3,31.3,-106.9,-2.3
484,486,2024-11-15 19:53:21,1731729201,4821,p,6.42,9.3,31.3,-106.9,-2.3
485,487,2024-11-15 19:53:31,1731729211,4831,p,6.42,9.3,31.3,-106.9,-2.3
486,488,2024-11-15 19:53:41,1731729221,4841,p,6.42,9.3,31.3,-106.9,-2.3
487,489,2024-11-15 19:53:50,1731729230,4850,p,6.42,9.3,31.3,-106.9,-2.3
488,490,2024-11-15 19:54:00,1731729240,4860,p,6.43,9.3,31.3,-106.9,-2.3
489,491,2024-11-15 19:54:10,1731729250,4870,p,6.42,9.3,31.3,-106.9,-2.3
490,492,2024-11-15 19:54:20,1731729260,4880,p,6.42,9.3,31.3,-106.9,-2.3
491,493,2024-11-15 19:54:30,1731729270,4890,p,6.42,9.3,31.3,-106.9,-2.3
492,494,2024-11-15 19:54:40,1731729280,4900,p,6.42,9.3,31.3,-106.9,-2.3
493,495,2024-11-15 19:54:50,1731729290,4910,p,6.42,9.3,31.3,-106.9,-2.3
494,496,2024-11-15 19:55:00,1731729300,4920,p,6.42,9.3,31.3,-106.9,-2.3
495,497,2024-11-15 19:55:10,1731729310,4930,p,6.42,9.3,31.3,-106.9,-2.3
496,498,2024-11-15 19:55:20,1731729320,4940,p,6.43,9.3,31.3,-106.9,-2.3
497,499,2024-11-15 19:55:30,1731729330,4950,p,6.42,9.3,31.3,-106.9,-2.3
498,500,2024-11-15 19:55:40,1731729340,4960,p,6.42,9.3,31.3,-106.9,-2.3
499,501,2024-11-15 19:55:50,1731729350,4970,p,6.43,9.3,31.3,-106.9,-2.3
500,502,2024-11-15 19:56:00,1731729360,4980,p,6.42,9.3,31.3,-106.9,-2.3
501,503,2024-11-15 19:56:10,1731729370,4990,p,6.42,9.3,31.3,-106.9,-2.3
502,504,2024-11-15 19:56:20,1731729380,5000,p,6.42,9.3,31.3,-106.9,-2.3
503,505,2024-11-15 19:56:30,1731729390,5010,p,6.42,9.3,31.3,-106.9,-2.3
504,506,2024-11-15 19:56:40,1731729400,5020,p,6.43,9.3,31.3,-106.9,-2.3
505,507,2024-11-15 19:56:50,1731729410,5030,p,6.43,9.3,31.3,-106.9,-2.3
506,508,2024-11-15 19:57:00,1731729420,5040,p,6.42,9.3,31.3,-106.9,-2.3
507,509,2024-11-15 19:57:10,1731729430,5050,p,6.43,9.3,31.3,-106.9,-2.3
508,510,2024-11-15 19:57:20,1731729440,5060,p,6.42,9.3,31.3,-106.9,-2.3
509,511,2024-11-15 19:57:29,1731729449,5069,p,6.43,9.3,31.3,-106.9,-2.3
510,512,2024-11-15 19:57:39,1731729459,5079,p,6.43,9.3,31.3,-106.9,-2.3
511,513,2024-11-15 19:57:49,1731729469,5089,p,6.42,9.3,31.3,-106.9,-2.3
512,514,2024-11-15 19:57:59,1731729479,5099,p,6.44,9.3,31.3,-106.9,-2.3
513,515,2024-11-15 19:58:09,1731729489,5109,p,6.42,9.3,31.3,-106.9,-2.3
514,516,2024-11-15 19:58:19,1731729499,5119,p,6.43,9.3,31.3,-106.9,-2.3
515,517,2024-11-15 19:58:29,1731729509,5129,p,6.43,9.3,31.3,-106.9,-2.3
516,518,2024-11-15 19:58:39,1731729519,5139,p,6.43,9.3,31.3,-106.9,-2.3
517,519,2024-11-15 19:58:49,1731729529,5149,p,6.43,9.3,31.3,-106.9,-2.3
518,520,2024-11-15 19:58:59,1731729539,5159,p,6.44,9.3,31.3,-106.9,-2.3
519,521,2024-11-15 19:59:09,1731729549,5169,p,6.44,9.3,31.3,-106.9,-2.3
520,522,2024-11-15 19:59:19,1731729559,5179,p,6.44,9.3,31.3,-106.9,-2.3
521,523,2024-11-15 19:59:29,1731729569,5189,p,6.43,9.3,31.3,-106.9,-2.3
522,524,2024-11-15 19:59:39,1731729579,5199,p,6.43,9.3,31.3,-106.9,-2.3
523,525,2024-11-15 19:59:49,1731729589,5209,p,6.43,9.3,31.3,-106.9,-2.3
524,526,2024-11-15 19:59:59,1731729599,5219,p,6.44,9.3,31.3,-106.9,-2.3
525,527,2024-11-15 20:00:09,1731729609,5229,p,6.44,9.3,31.3,-106.9,-2.3
526,528,2024-11-15 20:00:19,1731729619,5239,p,6.43,9.3,31.3,-106.9,-2.3
527,529,2024-11-15 20:00:29,1731729629,5249,p,6.44,9.3,31.3,-106.9,-2.3
528,530,2024-11-15 20:00:39,1731729639,5259,p,6.43,9.3,31.3,-106.9,-2.3
529,531,2024-11-15 20:00:49,1731729649,5269,p,6.44,9.3,31.3,-106.9,-2.3
530,532,2024-11-15 20:00:58,1731729658,5278,p,6.44,9.3,31.3,-106.9,-2.3
531,533,2024-11-15 20:01:08,1731729668,5288,p,6.44,9.3,31.3,-106.9,-2.3
532,534,2024-11-15 20:01:18,1731729678,5298,p,6.44,9.3,31.3,-106.9,-2.3
533,535,2024-11-15 20:01:28,1731729688,5308,p,6.45,9.3,31.3,-106.9,-2.3
534,536,2024-11-15 20:01:38,1731729698,5318,p,6.44,9.3,31.3,-106.9,-2.3
535,537,2024-11-15 20:01:48,1731729708,5328,p,6.44,9.3,31.3,-106.9,-2.3
536,538,2024-11-15 20:01:58,1731729718,5338,p,6.44,9.3,31.3,-106.9,-2.3
537,539,2024-11-15 20:02:08,1731729728,5348,p,6.45,9.3,31.3,-106.9,-2.3
538,540,2024-11-15 20:02:18,1731729738,5358,p,6.44,9.3,31.3,-106.9,-2.3
539,541,2024-11-15 20:02:28,1731729748,5368,p,6.44,9.3,31.3,-106.9,-2.3
540,542,2024-11-15 20:02:38,1731729758,5378,p,6.45,9.3,31.3,-106.9,-2.3
541,543,2024-11-15 20:02:48,1731729768,5388,p,6.44,9.3,31.3,-106.9,-2.3
542,544,2024-11-15 20:02:58,1731729778,5398,p,6.45,9.4,31.3,-106.9,-2.3
543,545,2024-11-15 20:03:08,1731729788,5408,p,6.45,9.4,31.3,-106.9,-2.3
544,546,2024-11-15 20:03:18,1731729798,5418,p,6.46,9.4,31.3,-106.9,-2.3
545,547,2024-11-15 20:03:28,1731729808,5428,p,6.44,9.4,31.3,-106.9,-2.3
546,548,2024-11-15 20:03:38,1731729818,5438,p,6.45,9.3,31.3,-106.9,-2.3
547,549,2024-11-15 20:03:48,1731729828,5448,p,6.46,9.3,31.3,-106.9,-2.3
548,550,2024-11-15 20:03:58,1731729838,5458,p,6.46,9.3,31.3,-106.9,-2.3
549,551,2024-11-15 20:04:08,1731729848,5468,p,6.47,9.3,31.3,-106.9,-2.3
550,552,2024-11-15 20:04:18,1731729858,5478,p,6.46,9.3,31.3,-106.9,-2.3
551,553,2024-11-15 20:04:28,1731729868,5488,p,6.45,9.3,31.3,-106.9,-2.3
552,554,2024-11-15 20:04:38,1731729878,5498,p,6.45,9.3,31.3,-106.9,-2.3
553,555,2024-11-15 20:04:47,1731729887,5507,p,6.46,9.3,31.3,-106.9,-2.3
554,556,2024-11-15 20:04:57,1731729897,5517,p,6.46,9.3,31.3,-106.9,-2.3
555,557,2024-11-15 20:05:07,1731729907,5527,p,6.45,9.3,31.3,-106.9,-2.3
556,558,2024-11-15 20:05:17,1731729917,5537,p,6.46,9.3,31.3,-106.9,-2.3
557,559,2024-11-15 20:05:27,1731729927,5547,p,6.47,9.3,31.3,-106.9,-2.3
558,560,2024-11-15 20:05:37,1731729937,5557,p,6.45,9.3,31.3,-106.9,-2.3
559,561,2024-11-15 20:05:47,1731729947,5567,p,6.45,9.3,31.3,-106.9,-2.3
560,562,2024-11-15 20:05:57,1731729957,5577,p,6.46,9.3,31.3,-106.9,-2.3
561,563,2024-11-15 20:06:07,1731729967,5587,p,6.46,9.3,31.3,-106.9,-2.3
562,564,2024-11-15 20:06:17,1731729977,5597,p,6.45,9.3,31.3,-106.9,-2.3
563,565,2024-11-15 20:06:27,1731729987,5607,p,6.45,9.3,31.3,-106.9,-2.3
564,566,2024-11-15 20:06:37,1731729997,5617,p,6.45,9.3,31.3,-106.9,-2.3
565,567,2024-11-15 20:06:47,1731730007,5627,p,6.44,9.3,31.3,-106.9,-2.3
566,568,2024-11-15 20:06:57,1731730017,5637,p,6.46,9.3,31.3,-106.9,-2.3
567,569,2024-11-15 20:07:07,1731730027,5647,p,6.45,9.3,31.3,-106.9,-2.3
568,570,2024-11-15 20:07:17,1731730037,5657,p,6.45,9.3,31.3,-106.9,-2.3
569,571,2024-11-15 20:07:27,1731730047,5667,p,6.45,9.3,31.3,-106.9,-2.3
570,572,2024-11-15 20:07:37,1731730057,5677,p,6.46,9.3,31.3,-106.9,-2.3
571,573,2024-11-15 20:07:47,1731730067,5687,p,6.45,9.3,31.3,-106.9,-2.3
572,574,2024-11-15 20:07:57,1731730077,5697,p,6.45,9.3,31.3,-106.9,-2.3
573,575,2024-11-15 20:08:07,1731730087,5707,p,6.45,9.3,31.3,-106.9,-2.3
574,576,2024-11-15 20:08:17,1731730097,5717,p,6.46,9.3,31.3,-106.9,-2.3
575,577,2024-11-15 20:08:26,1731730106,5726,p,6.46,9.3,31.3,-106.9,-2.3
576,578,2024-11-15 20:08:36,1731730116,5736,p,6.47,9.3,31.3,-106.9,-2.3
577,579,2024-11-15 20:08:46,1731730126,5746,p,6.46,9.3,31.3,-106.9,-2.3
578,580,2024-11-15 20:08:56,1731730136,5756,p,6.46,9.3,31.3,-106.9,-2.3
579,581,2024-11-15 20:09:06,1731730146,5766,p,6.47,9.3,31.3,-106.9,-2.3
580,582,2024-11-15 20:09:16,1731730156,5776,p,6.47,9.3,31.3,-106.9,-2.3
581,583,2024-11-15 20:09:26,1731730166,5786,p,6.45,9.3,31.3,-106.9,-2.3
582,584,2024-11-15 20:09:36,1731730176,5796,p,6.46,9.3,31.3,-106.9,-2.3
583,585,2024-11-15 20:09:46,1731730186,5806,p,6.47,9.3,31.3,-106.9,-2.3
584,586,2024-11-15 20:09:56,1731730196,5816,p,6.46,9.3,31.3,-106.9,-2.3
585,587,2024-11-15 20:10:06,1731730206,5826,p,6.46,9.3,31.3,-106.9,-2.3
586,588,2024-11-15 20:10:16,1731730216,5836,p,6.47,9.3,31.3,-106.9,-2.3
587,589,2024-11-15 20:10:26,1731730226,5846,p,6.47,9.3,31.3,-106.9,-2.3
588,590,2024-11-15 20:10:36,1731730236,5856,p,6.47,9.3,31.3,-106.9,-2.3
589,591,2024-11-15 20:10:46,1731730246,5866,p,6.47,9.3,31.3,-106.9,-2.3
590,592,2024-11-15 20:10:56,1731730256,5876,p,6.47,9.3,31.3,-106.9,-2.3
591,593,2024-11-15 20:11:06,1731730266,5886,p,6.47,9.3,31.3,-106.9,-2.3
592,594,2024-11-15 20:11:16,1731730276,5896,p,6.47,9.3,31.3,-106.9,-2.3
593,595,2024-11-15 20:11:26,1731730286,5906,p,6.47,9.3,31.3,-106.9,-2.3
594,596,2024-11-15 20:11:36,1731730296,5916,p,6.47,9.3,31.3,-106.9,-2.3
595,597,2024-11-15 20:11:46,1731730306,5926,p,6.48,9.3,31.3,-106.9,-2.3
596,598,2024-11-15 20:11:56,1731730316,5936,p,6.48,9.3,31.3,-106.9,-2.3
597,599,2024-11-15 20:12:05,1731730325,5945,p,6.48,9.3,31.3,-106.9,-2.3
598,600,2024-11-15 20:12:15,1731730335,5955,p,6.47,9.3,31.3,-106.9,-2.3
599,601,2024-11-15 20:12:25,1731730345,5965,p,6.48,9.3,31.3,-106.9,-2.3
600,602,2024-11-15 20:12:35,1731730355,5975,p,6.48,9.3,31.3,-106.9,-2.3
601,603,2024-11-15 20:12:45,1731730365,5985,p,6.47,9.3,31.3,-106.9,-2.3
602,604,2024-11-15 20:12:55,1731730375,5995,p,6.48,9.3,31.3,-106.9,-2.3
603,605,2024-11-15 20:13:05,1731730385,6005,p,6.49,9.3,31.3,-106.9,-2.3
604,606,2024-11-15 20:13:15,1731730395,6015,p,6.47,9.3,31.3,-106.9,-2.3
605,607,2024-11-15 20:13:25,1731730405,6025,p,6.48,9.3,31.3,-106.9,-2.3
606,608,2024-11-15 20:13:35,1731730415,6035,p,6.48,9.3,31.3,-106.9,-2.3
607,609,2024-11-15 20:13:45,1731730425,6045,p,6.48,9.3,31.3,-106.9,-2.3
608,610,2024-11-15 20:13:55,1731730435,6055,p,6.47,9.3,31.3,-106.9,-2.3
609,611,2024-11-15 20:14:05,1731730445,6065,p,6.47,9.3,31.3,-106.9,-2.3
610,612,2024-11-15 20:14:15,1731730455,6075,p,6.47,9.3,31.3,-106.9,-2.3
611,613,2024-11-15 20:14:25,1731730465,6085,p,6.47,9.3,31.3,-106.9,-2.3
612,614,2024-11-15 20:14:35,1731730475,6095,p,6.48,9.3,31.3,-106.9,-2.3
613,615,2024-11-15 20:14:45,1731730485,6105,p,6.48,9.3,31.3,-106.9,-2.3
614,616,2024-11-15 20:14:55,1731730495,6115,p,6.48,9.3,31.3,-106.9,-2.3
615,617,2024-11-15 20:15:05,1731730505,6125,p,6.48,9.3,31.3,-106.9,-2.3
616,618,2024-11-15 20:15:15,1731730515,6135,p,6.48,9.3,31.3,-106.9,-2.3
617,619,2024-11-15 20:15:25,1731730525,6145,p,6.47,9.3,31.3,-106.9,-2.3
618,620,2024-11-15 20:15:35,1731730535,6155,p,6.48,9.3,31.3,-106.9,-2.3
619,621,2024-11-15 20:15:45,1731730545,6165,p,6.49,9.3,31.3,-106.9,-2.3
620,622,2024-11-15 20:15:54,1731730554,6174,p,6.48,9.3,31.3,-106.9,-2.3
621,623,2024-11-15 20:16:04,1731730564,6184,p,6.49,9.3,31.3,-106.9,-2.3
622,624,2024-11-15 20:16:14,1731730574,6194,p,6.49,9.3,31.3,-106.9,-2.3
623,625,2024-11-15 20:16:24,1731730584,6204,p,6.48,9.3,31.3,-106.9,-2.3
624,626,2024-11-15 20:16:34,1731730594,6214,p,6.48,9.3,31.3,-106.9,-2.3
625,627,2024-11-15 20:16:44,1731730604,6224,p,6.48,9.3,31.3,-106.9,-2.3
626,628,2024-11-15 20:16:54,1731730614,6234,p,6.49,9.3,31.3,-106.9,-2.3
627,629,2024-11-15 20:17:04,1731730624,6244,p,6.49,9.3,31.3,-106.9,-2.3
628,630,2024-11-15 20:17:14,1731730634,6254,p,6.48,9.3,31.3,-106.9,-2.3
629,631,2024-11-15 20:17:24,1731730644,6264,p,6.48,9.3,31.3,-106.9,-2.3
630,632,2024-11-15 20:17:34,1731730654,6274,p,6.49,9.3,31.3,-106.9,-2.3
631,633,2024-11-15 20:17:44,1731730664,6284,p,6.49,9.3,31.3,-106.9,-2.3
632,634,2024-11-15 20:17:54,1731730674,6294,p,6.48,9.3,31.3,-106.9,-2.3
633,635,2024-11-15 20:18:04,1731730684,6304,p,6.49,9.3,31.3,-106.9,-2.3
634,636,2024-11-15 20:18:14,1731730694,6314,p,6.5,9.3,31.3,-106.9,-2.3
635,637,2024-11-15 20:18:24,1731730704,6324,p,6.49,9.3,31.3,-106.9,-2.3
636,638,2024-11-15 20:18:34,1731730714,6334,p,6.49,9.3,31.3,-106.9,-2.3
637,639,2024-11-15 20:18:44,1731730724,6344,p,6.49,9.3,31.3,-106.9,-2.3
638,640,2024-11-15 20:18:54,1731730734,6354,p,6.5,9.3,31.3,-106.9,-2.3
639,641,2024-11-15 20:19:04,1731730744,6364,p,6.5,9.3,31.3,-106.9,-2.3
640,642,2024-11-15 20:19:14,1731730754,6374,p,6.5,9.3,31.3,-106.9,-2.3
641,643,2024-11-15 20:19:24,1731730764,6384,p,6.49,9.3,31.3,-106.9,-2.3
642,644,2024-11-15 20:19:33,1731730773,6393,p,6.5,9.3,31.3,-106.9,-2.3
643,645,2024-11-15 20:19:43,1731730783,6403,p,6.5,9.3,31.3,-106.9,-2.3
644,646,2024-11-15 20:19:53,1731730793,6413,p,6.5,9.3,31.3,-106.9,-2.3
645,647,2024-11-15 20:20:03,1731730803,6423,p,6.5,9.3,31.3,-106.9,-2.3
646,648,2024-11-15 20:20:13,1731730813,6433,p,6.5,9.3,31.3,-106.9,-2.3
647,649,2024-11-15 20:20:23,1731730823,6443,p,6.5,9.3,31.3,-106.9,-2.3
648,650,2024-11-15 20:20:33,1731730833,6453,p,6.49,9.3,31.3,-106.9,-2.3
649,651,2024-11-15 20:20:43,1731730843,6463,p,6.5,9.3,31.3,-106.9,-2.3
650,652,2024-11-15 20:20:53,1731730853,6473,p,6.5,9.3,31.3,-106.9,-2.3
651,653,2024-11-15 20:21:03,1731730863,6483,p,6.49,9.3,31.3,-106.9,-2.3
652,654,2024-11-15 20:21:13,1731730873,6493,p,6.49,9.3,31.3,-106.9,-2.3
653,655,2024-11-15 20:21:23,1731730883,6503,p,6.5,9.3,31.3,-106.9,-2.3
654,656,2024-11-15 20:21:33,1731730893,6513,p,6.5,9.3,31.3,-106.9,-2.3
655,657,2024-11-15 20:21:43,1731730903,6523,p,6.49,9.3,31.3,-106.9,-2.3
656,658,2024-11-15 20:21:53,1731730913,6533,p,6.5,9.3,31.3,-106.9,-2.3
657,659,2024-11-15 20:22:03,1731730923,6543,p,6.51,9.3,31.3,-106.9,-2.3
658,660,2024-11-15 20:22:13,1731730933,6553,p,6.5,9.3,31.3,-106.9,-2.3
659,661,2024-11-15 20:22:23,1731730943,6563,p,6.5,9.3,31.3,-106.9,-2.3
660,662,2024-11-15 20:22:33,1731730953,6573,p,6.51,9.3,31.3,-106.9,-2.3
661,663,2024-11-15 20:22:43,1731730963,6583,p,6.5,9.3,31.3,-106.9,-2.3
662,664,2024-11-15 20:22:53,1731730973,6593,p,6.5,9.3,31.3,-106.9,-2.3
663,665,2024-11-15 20:23:02,1731730982,6602,p,6.5,9.3,31.3,-106.9,-2.3
664,666,2024-11-15 20:23:12,1731730992,6612,p,6.5,9.3,31.3,-106.9,-2.3
665,667,2024-11-15 20:23:22,1731731002,6622,p,6.51,9.3,31.3,-106.9,-2.3
666,668,2024-11-15 20:23:32,1731731012,6632,p,6.51,9.3,31.3,-106.9,-2.3
667,669,2024-11-15 20:23:42,1731731022,6642,p,6.5,9.3,31.3,-106.9,-2.3
668,670,2024-11-15 20:23:52,1731731032,6652,p,6.5,9.3,31.3,-106.9,-2.3
669,671,2024-11-15 20:24:02,1731731042,6662,p,6.51,9.3,31.3,-106.9,-2.3
670,672,2024-11-15 20:24:12,1731731052,6672,p,6.5,9.3,31.3,-106.9,-2.3
671,673,2024-11-15 20:24:22,1731731062,6682,p,6.5,9.3,31.3,-106.9,-2.3
672,674,2024-11-15 20:24:32,1731731072,6692,p,6.5,9.3,31.3,-106.9,-2.3
673,675,2024-11-15 20:24:42,1731731082,6702,p,6.51,9.3,31.3,-106.9,-2.3
674,676,2024-11-15 20:24:52,1731731092,6712,p,6.5,9.3,31.3,-106.9,-2.3
675,677,2024-11-15 20:25:02,1731731102,6722,p,6.5,9.3,31.3,-106.9,-2.3
676,678,2024-11-15 20:25:12,1731731112,6732,p,6.51,9.3,31.3,-106.9,-2.3
677,679,2024-11-15 20:25:22,1731731122,6742,p,6.51,9.3,31.3,-106.9,-2.3
678,680,2024-11-15 20:25:32,1731731132,6752,p,6.51,9.3,31.3,-106.9,-2.3
679,681,2024-11-15 20:25:42,1731731142,6762,p,6.51,9.3,31.3,-106.9,-2.3
680,682,2024-11-15 20:25:52,1731731152,6772,p,6.51,9.3,31.3,-106.9,-2.3
681,683,2024-11-15 20:26:02,1731731162,6782,p,6.51,9.3,31.3,-106.9,-2.3
682,684,2024-11-15 20:26:12,1731731172,6792,p,6.51,9.3,31.3,-106.9,-2.3
683,685,2024-11-15 20:26:22,1731731182,6802,p,6.51,9.3,31.3,-106.9,-2.3
684,686,2024-11-15 20:26:32,1731731192,6812,p,6.51,9.3,31.3,-106.9,-2.3
685,687,2024-11-15 20:26:41,1731731201,6821,p,6.51,9.3,31.3,-106.9,-2.3
686,688,2024-11-15 20:26:51,1731731211,6831,p,6.51,9.3,31.3,-106.9,-2.3
687,689,2024-11-15 20:27:01,1731731221,6841,p,6.51,9.3,31.3,-106.9,-2.3
688,690,2024-11-15 20:27:11,1731731231,6851,p,6.51,9.3,31.3,-106.9,-2.3
689,691,2024-11-15 20:27:21,1731731241,6861,p,6.51,9.3,31.3,-106.9,-2.3
690,692,2024-11-15 20:27:31,1731731251,6871,p,6.52,9.3,31.3,-106.9,-2.3
691,693,2024-11-15 20:27:41,1731731261,6881,p,6.51,9.3,31.3,-106.9,-2.3
692,694,2024-11-15 20:27:51,1731731271,6891,p,6.52,9.3,31.3,-106.9,-2.3
693,695,2024-11-15 20:28:01,1731731281,6901,p,6.51,9.3,31.3,-106.9,-2.3
694,696,2024-11-15 20:28:11,1731731291,6911,p,6.51,9.3,31.3,-106.9,-2.3
695,697,2024-11-15 20:28:21,1731731301,6921,p,6.5,9.3,31.3,-106.9,-2.3
696,698,2024-11-15 20:28:31,1731731311,6931,p,6.52,9.3,31.3,-106.9,-2.3
697,699,2024-11-15 20:28:41,1731731321,6941,p,6.53,9.3,31.3,-106.9,-2.3
698,700,2024-11-15 20:28:51,1731731331,6951,p,6.52,9.3,31.3,-106.9,-2.3
699,701,2024-11-15 20:29:01,1731731341,6961,p,6.52,9.3,31.3,-106.9,-2.3
700,702,2024-11-15 20:29:11,1731731351,6971,p,6.52,9.3,31.3,-106.9,-2.3
701,703,2024-11-15 20:29:21,1731731361,6981,p,6.52,9.3,31.3,-106.9,-2.3
702,704,2024-11-15 20:29:31,1731731371,6991,p,6.52,9.3,31.3,-106.9,-2.3
703,705,2024-11-15 20:29:41,1731731381,7001,p,6.52,9.3,31.3,-106.9,-2.3
704,706,2024-11-15 20:29:51,1731731391,7011,p,6.52,9.3,31.3,-106.9,-2.3
705,707,2024-11-15 20:30:01,1731731401,7021,p,6.53,9.3,31.3,-106.9,-2.3
706,708,2024-11-15 20:30:11,1731731411,7031,p,6.52,9.3,31.3,-106.9,-2.3
707,709,2024-11-15 20:30:20,1731731420,7040,p,6.52,9.3,31.3,-106.9,-2.3
708,710,2024-11-15 20:30:30,1731731430,7050,p,6.53,9.3,31.3,-106.9,-2.3
709,711,2024-11-15 20:30:40,1731731440,7060,p,6.53,9.3,31.3,-106.9,-2.3
710,712,2024-11-15 20:30:50,1731731450,7070,p,6.52,9.3,31.3,-106.9,-2.3
711,713,2024-11-15 20:31:00,1731731460,7080,p,6.52,9.3,31.3,-106.9,-2.3
712,714,2024-11-15 20:31:10,1731731470,7090,p,6.52,9.3,31.3,-106.9,-2.3
713,715,2024-11-15 20:31:20,1731731480,7100,p,6.52,9.3,31.3,-106.9,-2.3
714,716,2024-11-15 20:31:30,1731731490,7110,p,6.52,9.3,31.3,-106.9,-2.3
715,717,2024-11-15 20:31:40,1731731500,7120,p,6.52,9.3,31.3,-106.9,-2.3
716,718,2024-11-15 20:31:50,1731731510,7130,p,6.52,9.3,31.3,-106.9,-2.3
717,719,2024-11-15 20:32:00,1731731520,7140,p,6.54,9.3,31.3,-106.9,-2.3
718,720,2024-11-15 20:32:10,1731731530,7150,p,6.54,9.3,31.3,-106.9,-2.3
719,721,2024-11-15 20:32:20,1731731540,7160,p,6.52,9.3,31.3,-106.9,-2.3
720,722,2024-11-15 20:32:30,1731731550,7170,p,6.53,9.3,31.3,-106.9,-2.3
721,723,2024-11-15 20:32:40,1731731560,7180,p,6.53,9.3,31.3,-106.9,-2.3
722,724,2024-11-15 20:32:50,1731731570,7190,p,6.53,9.3,31.3,-106.9,-2.3
723,725,2024-11-15 20:33:00,1731731580,7200,p,6.53,9.3,31.3,-106.9,-2.3
724,726,2024-11-15 20:33:10,1731731590,7210,p,6.53,9.2,31.3,-106.9,-2.3
725,727,2024-11-15 20:33:20,1731731600,7220,p,6.53,9.2,31.3,-106.9,-2.3
726,728,2024-11-15 20:33:30,1731731610,7230,p,6.53,9.3,31.3,-106.9,-2.3
727,729,2024-11-15 20:33:40,1731731620,7240,p,6.53,9.3,31.3,-106.9,-2.3
728,730,2024-11-15 20:33:50,1731731630,7250,p,6.54,9.3,31.3,-106.9,-2.3
729,731,2024-11-15 20:33:59,1731731639,7259,p,6.54,9.3,31.3,-106.9,-2.3
730,732,2024-11-15 20:34:09,1731731649,7269,p,6.53,9.3,31.3,-106.9,-2.3
731,733,2024-11-15 20:34:19,1731731659,7279,p,6.53,9.2,31.3,-106.9,-2.3
732,734,2024-11-15 20:34:29,1731731669,7289,p,6.54,9.2,31.3,-106.9,-2.3
733,735,2024-11-15 20:34:39,1731731679,7299,p,6.54,9.2,31.3,-106.9,-2.3
734,736,2024-11-15 20:34:49,1731731689,7309,p,6.53,9.2,31.3,-106.9,-2.3
735,737,2024-11-15 20:34:59,1731731699,7319,p,6.53,9.2,31.3,-106.9,-2.3
736,738,2024-11-15 20:35:09,1731731709,7329,p,6.54,9.2,31.3,-106.9,-2.3
737,739,2024-11-15 20:35:19,1731731719,7339,p,6.53,9.2,31.3,-106.9,-2.3
738,740,2024-11-15 20:35:29,1731731729,7349,p,6.53,9.2,31.3,-106.9,-2.3
739,741,2024-11-15 20:35:39,1731731739,7359,p,6.53,9.3,31.3,-106.9,-2.3
740,742,2024-11-15 20:35:49,1731731749,7369,p,6.53,9.3,31.3,-106.9,-2.3
741,743,2024-11-15 20:35:59,1731731759,7379,p,6.54,9.3,31.3,-106.9,-2.3
742,744,2024-11-15 20:36:09,1731731769,7389,p,6.53,9.3,31.3,-106.9,-2.3
743,745,2024-11-15 20:36:19,1731731779,7399,p,6.54,9.3,31.3,-106.9,-2.3
744,746,2024-11-15 20:36:29,1731731789,7409,p,6.54,9.3,31.3,-106.9,-2.3
745,747,2024-11-15 20:36:39,1731731799,7419,p,6.54,9.3,31.3,-106.9,-2.3
746,748,2024-11-15 20:36:49,1731731809,7429,p,6.53,9.3,31.3,-106.9,-2.3
747,749,2024-11-15 20:36:59,1731731819,7439,p,6.54,9.3,31.3,-106.9,-2.3
748,750,2024-11-15 20:37:09,1731731829,7449,p,6.54,9.3,31.3,-106.9,-2.3
749,751,2024-11-15 20:37:19,1731731839,7459,p,6.54,9.3,31.3,-106.9,-2.3
750,752,2024-11-15 20:37:29,1731731849,7469,p,6.54,9.3,31.3,-106.9,-2.3
751,753,2024-11-15 20:37:38,1731731858,7478,p,6.54,9.3,31.3,-106.9,-2.3
752,754,2024-11-15 20:37:48,1731731868,7488,p,6.53,9.3,31.3,-106.9,-2.3
753,755,2024-11-15 20:37:58,1731731878,7498,p,6.54,9.3,31.3,-106.9,-2.3
754,756,2024-11-15 20:38:08,1731731888,7508,p,6.54,9.3,31.3,-106.9,-2.3
755,757,2024-11-15 20:38:18,1731731898,7518,p,6.54,9.3,31.3,-106.9,-2.3
756,758,2024-11-15 20:38:28,1731731908,7528,p,6.54,9.3,31.3,-106.9,-2.3
757,759,2024-11-15 20:38:38,1731731918,7538,p,6.54,9.4,31.3,-106.9,-2.3
758,760,2024-11-15 20:38:48,1731731928,7548,p,6.54,9.3,31.3,-106.9,-2.3
759,761,2024-11-15 20:38:58,1731731938,7558,p,6.54,9.3,31.3,-106.9,-2.3
760,762,2024-11-15 20:39:08,1731731948,7568,p,6.54,9.3,31.3,-106.9,-2.3
761,763,2024-11-15 20:39:18,1731731958,7578,p,6.53,9.3,31.3,-106.9,-2.3
762,764,2024-11-15 20:39:28,1731731968,7588,p,6.54,9.3,31.3,-106.9,-2.3
763,765,2024-11-15 20:39:38,1731731978,7598,p,6.54,9.3,31.3,-106.9,-2.3
764,766,2024-11-15 20:39:48,1731731988,7608,p,6.54,9.3,31.3,-106.9,-2.3
765,767,2024-11-15 20:39:58,1731731998,7618,p,6.55,9.3,31.3,-106.9,-2.3
766,768,2024-11-15 20:40:08,1731732008,7628,p,6.54,9.3,31.3,-106.9,-2.3
767,769,2024-11-15 20:40:18,1731732018,7638,p,6.54,9.3,31.3,-106.9,-2.3
768,770,2024-11-15 20:40:28,1731732028,7648,p,6.55,9.3,31.3,-106.9,-2.3
769,771,2024-11-15 20:40:38,1731732038,7658,p,6.54,9.3,31.3,-106.9,-2.3
770,772,2024-11-15 20:40:48,1731732048,7668,p,6.54,9.3,31.3,-106.9,-2.3
771,773,2024-11-15 20:40:58,1731732058,7678,p,6.55,9.3,31.3,-106.9,-2.3
772,774,2024-11-15 20:41:07,1731732067,7687,p,6.55,9.3,31.3,-106.9,-2.3
773,775,2024-11-15 20:41:17,1731732077,7697,p,6.55,9.3,31.3,-106.9,-2.3
774,776,2024-11-15 20:41:27,1731732087,7707,p,6.55,9.3,31.3,-106.9,-2.3
775,777,2024-11-15 20:41:37,1731732097,7717,p,6.55,9.3,31.3,-106.9,-2.3
776,778,2024-11-15 20:41:47,1731732107,7727,p,6.55,9.3,31.3,-106.9,-2.3
777,779,2024-11-15 20:41:57,1731732117,7737,p,6.55,9.3,31.3,-106.9,-2.3
778,780,2024-11-15 20:42:07,1731732127,7747,p,6.55,9.3,31.3,-106.9,-2.3
779,781,2024-11-15 20:42:17,1731732137,7757,p,6.55,9.3,31.3,-106.9,-2.3
780,782,2024-11-15 20:42:27,1731732147,7767,p,6.54,9.3,31.3,-106.9,-2.3
781,783,2024-11-15 20:42:37,1731732157,7777,p,6.56,9.3,31.3,-106.9,-2.3
782,784,2024-11-15 20:42:47,1731732167,7787,p,6.55,9.3,31.3,-106.9,-2.3
783,785,2024-11-15 20:42:57,1731732177,7797,p,6.55,9.3,31.3,-106.9,-2.3
784,786,2024-11-15 20:43:07,1731732187,7807,p,6.55,9.3,31.3,-106.9,-2.3
785,787,2024-11-15 20:43:17,1731732197,7817,p,6.55,9.3,31.3,-106.9,-2.3
786,788,2024-11-15 20:43:27,1731732207,7827,p,6.55,9.3,31.3,-106.9,-2.3
787,789,2024-11-15 20:43:37,1731732217,7837,p,6.54,9.3,31.3,-106.9,-2.3
788,790,2024-11-15 20:43:47,1731732227,7847,p,6.54,9.3,31.3,-106.9,-2.3
789,791,2024-11-15 20:43:57,1731732237,7857,p,6.55,9.3,31.3,-106.9,-2.3
790,792,2024-11-15 20:44:07,1731732247,7867,p,6.56,9.3,31.3,-106.9,-2.3
791,793,2024-11-15 20:44:17,1731732257,7877,p,6.56,9.3,31.3,-106.9,-2.3
792,794,2024-11-15 20:44:27,1731732267,7887,p,6.55,9.3,31.3,-106.9,-2.3
793,795,2024-11-15 20:44:37,1731732277,7897,p,6.56,9.3,31.3,-106.9,-2.3
794,796,2024-11-15 20:44:46,1731732286,7906,p,6.56,9.3,31.3,-106.9,-2.3
795,797,2024-11-15 20:44:56,1731732296,7916,p,6.55,9.3,31.3,-106.9,-2.3
796,798,2024-11-15 20:45:06,1731732306,7926,p,6.54,9.3,31.3,-106.9,-2.3
797,799,2024-11-15 20:45:16,1731732316,7936,p,6.55,9.3,31.3,-106.9,-2.3
798,800,2024-11-15 20:45:26,1731732326,7946,p,6.55,9.3,31.3,-106.9,-2.3
799,801,2024-11-15 20:45:36,1731732336,7956,p,6.55,9.3,31.3,-106.9,-2.3
800,802,2024-11-15 20:45:46,1731732346,7966,p,6.55,9.3,31.3,-106.9,-2.3
801,803,2024-11-15 20:45:56,1731732356,7976,p,6.56,9.3,31.3,-106.9,-2.3
802,804,2024-11-15 20:46:06,1731732366,7986,p,6.55,9.3,31.3,-106.9,-2.3
803,805,2024-11-15 20:46:16,1731732376,7996,p,6.56,9.3,31.3,-106.9,-2.3
804,806,2024-11-15 20:46:26,1731732386,8006,p,6.56,9.3,31.3,-106.9,-2.3
805,807,2024-11-15 20:46:36,1731732396,8016,p,6.55,9.3,31.3,-106.9,-2.3
806,808,2024-11-15 20:46:46,1731732406,8026,p,6.56,9.4,31.3,-106.9,-2.3
807,809,2024-11-15 20:46:56,1731732416,8036,p,6.56,9.3,31.3,-106.9,-2.3
808,810,2024-11-15 20:47:06,1731732426,8046,p,6.56,9.3,31.3,-106.9,-2.3
809,811,2024-11-15 20:47:16,1731732436,8056,p,6.56,9.3,31.3,-106.9,-2.3
810,812,2024-11-15 20:47:26,1731732446,8066,p,6.56,9.3,31.3,-106.9,-2.3
811,813,2024-11-15 20:47:36,1731732456,8076,p,6.56,9.3,31.3,-106.9,-2.3
812,814,2024-11-15 20:47:46,1731732466,8086,p,6.57,9.3,31.3,-106.9,-2.3
813,815,2024-11-15 20:47:56,1731732476,8096,p,6.56,9.3,31.3,-106.9,-2.3
814,816,2024-11-15 20:48:05,1731732485,8105,p,6.56,9.3,31.3,-106.9,-2.3
815,817,2024-11-15 20:48:15,1731732495,8115,p,6.56,9.3,31.3,-106.9,-2.3
816,818,2024-11-15 20:48:25,1731732505,8125,p,6.56,9.3,31.3,-106.9,-2.3
817,819,2024-11-15 20:48:35,1731732515,8135,p,6.57,9.3,31.3,-106.9,-2.3
818,820,2024-11-15 20:48:45,1731732525,8145,p,6.56,9.3,31.3,-106.9,-2.3
819,821,2024-11-15 20:48:55,1731732535,8155,p,6.57,9.3,31.3,-106.9,-2.3
820,822,2024-11-15 20:49:05,1731732545,8165,p,6.57,9.3,31.3,-106.9,-2.3
821,823,2024-11-15 20:49:15,1731732555,8175,p,6.56,9.3,31.3,-106.9,-2.3
822,824,2024-11-15 20:49:25,1731732565,8185,p,6.56,9.3,31.3,-106.9,-2.3
823,825,2024-11-15 20:49:35,1731732575,8195,p,6.56,9.3,31.3,-106.9,-2.3
824,826,2024-11-15 20:49:45,1731732585,8205,p,6.57,9.3,31.3,-106.9,-2.3
825,827,2024-11-15 20:49:55,1731732595,8215,p,6.56,9.3,31.3,-106.9,-2.3
826,828,2024-11-15 20:50:05,1731732605,8225,p,6.57,9.3,31.3,-106.9,-2.3
827,829,2024-11-15 20:50:15,1731732615,8235,p,6.57,9.3,31.3,-106.9,-2.3
828,830,2024-11-15 20:50:25,1731732625,8245,p,6.57,9.3,31.3,-106.9,-2.3
